FEATURE_ID|FEATURE_NAME|FEATURE_CLASS|CENSUS_CODE|CENSUS_CLASS_CODE|GSA_CODE|OPM_CODE|STATE_NUMERIC|STATE_ALPHA|COUNTY_SEQUENCE|COUNTY_NUMERIC|COUNTY_NAME|PRIMARY_LATITUDE|PRIMARY_LONGITUDE|DATE_CREATED|DATE_EDITED
403275|Green Valley|Populated Place|31563|P1|3620|173620179|17|IL|1|179|Tazewell|40.4075408|-89.6428829|01/15/1980|03/20/2008
403288|South Pekin|Populated Place|71175|P1|8160|178160179|17|IL|1|179|Tazewell|40.4944838|-89.6517711|01/15/1980|03/20/2008
403320|Abingdon|Populated Place|00113|P1|0010|170010095|17|IL|1|095|Knox|40.8044833|-90.4017954|01/15/1980|03/20/2008
403339|Adair|Populated Place|00178|U5|0015|170015109|17|IL|1|109|McDonough|40.4189309|-90.4967942|01/15/1980|01/29/2011
403343|Adams|Populated Place|00191|U6|||17|IL|1|001|Adams|39.8653244|-91.1981974|01/15/1980|
403357|Addieville|Populated Place|00230|P1|0018|170018189|17|IL|1|189|Washington|38.391439|-89.4900881|01/15/1980|03/20/2008
403359|Adeline|Populated Place|00295|P1|0030|170030141|17|IL|1|141|Ogle|42.1433589|-89.4903897|01/15/1980|03/20/2008
403362|Adrian|Populated Place|00321|U6|0032|170032067|17|IL|1|067|Hancock|40.5208765|-91.1670896|01/15/1980|
403371|Akin|Populated Place|00438|U6|0038|170038055|17|IL|1|055|Franklin|37.9881043|-88.7475606|01/15/1980|
403376|Albany|Populated Place|00516|P1|0040|170040195|17|IL|1|195|Whiteside|41.7894748|-90.2192941|01/15/1980|03/20/2008
403378|Albers|Populated Place|00555|P1|0045|170045027|17|IL|1|027|Clinton|38.5433823|-89.6123129|01/15/1980|03/20/2008
403379|Albion|Populated Place|00568|P1|0050|170050047|17|IL|1|047|Edwards|38.3775484|-88.0561465|01/15/1980|03/20/2008
403385|Alden|Populated Place|00594|U6|0059|170059111|17|IL|1|111|McHenry|42.4589075|-88.5178757|01/15/1980|
403390|Aldridge|Populated Place|00633|U6|||17|IL|1|181|Union|37.5583828|-89.4700952|01/15/1980|
403393|Aledo|Populated Place|00646|P1|0060|170060131|17|IL|1|131|Mercer|41.1997568|-90.7493063|01/15/1980|03/20/2008
403398|Alexander|Populated Place|00659|U6|0065|170065137|17|IL|1|137|Morgan|39.7244928|-90.0381679|01/15/1980|
403405|Alexis|Populated Place|00672|P1|0070|170070187|17|IL|1|187|Warren|41.0633703|-90.5559675|01/15/1980|03/20/2008
403405|Alexis|Populated Place|00672|P1|0070|170070131|17|IL|2|131|Mercer|41.0633703|-90.5559675|01/15/1980|03/20/2008
403406|Algonquin|Populated Place|00685|P1|0080|170080111|17|IL|1|111|McHenry|42.1655801|-88.2942493|01/15/1980|03/20/2008
403406|Algonquin|Populated Place|00685|P1|0080|170080089|17|IL|2|089|Kane|42.1655801|-88.2942493|01/15/1980|03/20/2008
403409|Alhambra|Populated Place|00737|P1|0090|170090119|17|IL|1|119|Madison|38.88838|-89.7314813|01/15/1980|03/20/2008
403432|Allendale|Populated Place|00815|P1|0100|170100185|17|IL|1|185|Wabash|38.5267143|-87.7097495|01/15/1980|03/20/2008
403436|Allens Corners|Populated Place|00841|U6|||17|IL|1|089|Kane|42.0994693|-88.4814741|01/15/1980|
403437|Allenville|Populated Place|00867|P1|0105|170105139|17|IL|1|139|Moultrie|39.5555892|-88.5297779|01/15/1980|03/20/2008
403438|Allerton|Populated Place|00880|P1|0108|170108019|17|IL|1|019|Champaign|39.9117014|-87.9364215|01/15/1980|03/20/2008
403451|Alma|Populated Place|00919|P1|0110|170110121|17|IL|1|121|Marion|38.7217147|-88.9092242|01/15/1980|03/20/2008
403453|Alpha|Populated Place|00971|P1|0130|170130073|17|IL|1|073|Henry|41.1917031|-90.3801274|01/15/1980|03/20/2008
403456|Alpine|Populated Place|00984|U6|||17|IL|1|031|Cook|41.5864213|-87.8814423|01/15/1980|
403459|Alsey|Populated Place|00997|P1|0139|170139171|17|IL|1|171|Scott|39.5606027|-90.4340126|01/15/1980|03/20/2008
403460|Alsip|Populated Place|01010|P1|0140|170140031|17|IL|1|031|Cook|41.6689223|-87.7386619|01/15/1980|03/20/2008
403461|Alta|Populated Place|01036|U6|||17|IL|1|143|Peoria|40.8108703|-89.6342645|01/15/1980|
403462|Altamont|Populated Place|01049|P1|0150|170150049|17|IL|1|049|Effingham|39.061988|-88.7481108|01/15/1980|03/20/2008
403465|Altgeld Gardens|Populated Place|01088|U4|||17|IL|1|031|Cook|41.6544791|-87.6019903|01/15/1980|
403469|Alto Pass|Populated Place|01205|P1|0180|170180181|17|IL|1|181|Union|37.5703276|-89.3175879|01/15/1980|03/20/2008
403470|Alton|Populated Place|01114|P1|0160|170160119|17|IL|1|119|Madison|38.8906038|-90.1842764|01/15/1980|03/20/2008
403472|Altona|Populated Place|01140|P1|0170|170170095|17|IL|1|095|Knox|41.1147594|-90.1645637|01/15/1980|03/20/2008
403473|Altorf|Populated Place|01218|U6|||17|IL|1|091|Kankakee|41.1903098|-87.9622693|01/15/1980|
403476|Alvin|Populated Place|01244|P4|0185|170185183|17|IL|1|183|Vermilion|40.3083697|-87.6083537|01/15/1980|05/17/2018
403478|Amboy|Populated Place|01270|P1|0190|170190103|17|IL|1|103|Lee|41.7141997|-89.3287061|01/15/1980|03/20/2008
403486|Ames|Populated Place|01335|U6|||17|IL|1|133|Monroe|38.1467184|-90.0545549|01/15/1980|
403493|Anchor|Populated Place|01361|P1|0198|170198113|17|IL|1|113|McLean|40.5680898|-88.5356146|01/15/1980|03/20/2008
403495|Ancona|Populated Place|01413|U6|||17|IL|1|105|Livingston|41.0405883|-88.8725742|01/15/1980|
403496|Andalusia|Populated Place|01426|P1|0200|170200161|17|IL|1|161|Rock Island|41.4391986|-90.717641|01/15/1980|03/20/2008
403516|Andover|Populated Place|01491|P1|0205|170205073|17|IL|1|073|Henry|41.2939249|-90.2920678|01/15/1980|03/20/2008
403517|Andres|Populated Place|01517|U6|||17|IL|1|197|Will|41.3716992|-87.8825483|01/15/1980|
403518|Andrew|Populated Place|01530|U6|||17|IL|1|167|Sangamon|39.8956054|-89.640102|01/15/1980|
403530|Anna|Populated Place|01543|P1|0210|170210181|17|IL|1|181|Union|37.4603274|-89.2470282|01/15/1980|03/20/2008
403533|Annapolis|Populated Place|01556|U5|0215|170215033|17|IL|1|033|Crawford|39.1444842|-87.8166964|01/15/1980|01/29/2011
403534|Annawan|Populated Place|01569|P1|0220|170220073|17|IL|1|073|Henry|41.3972573|-89.9045518|01/15/1980|03/20/2008
403541|Antioch|Populated Place|01595|P1|0230|170230097|17|IL|1|097|Lake|42.4772418|-88.0956396|01/15/1980|03/20/2008
403578|Apple River|Populated Place|01673|P1|0240|170240085|17|IL|1|085|Jo Daviess|42.5050054|-90.0987361|01/15/1980|03/20/2008
403582|Appleton|Populated Place|01699|U6|||17|IL|1|095|Knox|40.9358711|-90.1609537|01/15/1980|
403584|Aptakisic|Populated Place|01738|U6|||17|IL|1|097|Lake|42.182525|-87.9472943|01/15/1980|
403587|Arbury Hills|Populated Place|01803|U6|||17|IL|1|197|Will|41.5355887|-87.8475511|01/15/1980|
403589|Arcadia|Populated Place|01829|U6|||17|IL|1|137|Morgan|39.8392143|-90.2448439|01/15/1980|
403594|Arcola|Populated Place|01881|P1|0250|170250041|17|IL|1|041|Douglas|39.684755|-88.3064367|01/15/1980|03/20/2008
403596|Arenzville|Populated Place|01946|P1|0260|170260017|17|IL|1|017|Cass|39.8769918|-90.3734571|01/15/1980|03/20/2008
403597|Argenta|Populated Place|01972|P1|0270|170270115|17|IL|1|115|Macon|39.9819808|-88.8228535|01/15/1980|03/20/2008
403602|Argyle|Populated Place|02050|U6|||17|IL|1|201|Winnebago|42.3600186|-88.9401049|01/15/1980|
403602|Argyle|Populated Place|02050|U6|||17|IL|2|007|Boone|42.3600186|-88.9401049|01/15/1980|
403608|Arlington|Populated Place|02102|P1|0279|170279011|17|IL|1|011|Bureau|41.4736452|-89.2492531|01/15/1980|03/20/2008
403610|Arlington Heights|Populated Place|02160|U6|||17|IL|1|167|Sangamon|39.8197723|-89.6014875|01/15/1980|
403611|Arlington Heights|Populated Place|02154|P1|0280|170280031|17|IL|1|031|Cook|42.0883603|-87.9806265|01/15/1980|03/20/2008
403617|Armington|Populated Place|02206|P1|0290|170290179|17|IL|1|179|Tazewell|40.3389293|-89.3114813|01/15/1980|03/20/2008
403620|Armstrong|Populated Place|02219|U6|0293|170293183|17|IL|1|183|Vermilion|40.3064245|-87.8778088|01/15/1980|
403637|Aroma Park|Populated Place|02258|P1|0300|170300091|17|IL|1|091|Kankakee|41.0797548|-87.8114285|01/15/1980|03/20/2008
403642|Arrowsmith|Populated Place|02342|P1|0310|170310113|17|IL|1|113|McLean|40.4494787|-88.6317305|01/15/1980|03/20/2008
403645|Arthur|Populated Place|02414|P1|0320|170320041|17|IL|1|041|Douglas|39.7147552|-88.472278|01/15/1980|03/20/2008
403645|Arthur|Populated Place|02414|P1|0320|170320139|17|IL|2|139|Moultrie|39.7147552|-88.472278|01/15/1980|03/20/2008
403669|Ashkum|Populated Place|02479|P1|0330|170330075|17|IL|1|075|Iroquois|40.8803114|-87.9550405|01/15/1980|03/20/2008
403670|Ashland|Populated Place|02505|P1|0340|170340017|17|IL|1|017|Cass|39.8878264|-90.0078907|01/15/1980|03/20/2008
403676|Ashley|Populated Place|02531|P1|0350|170350189|17|IL|1|189|Washington|38.3294942|-89.1909097|01/15/1980|03/20/2008
403679|Ashmore|Populated Place|02557|P1|0360|170360029|17|IL|1|029|Coles|39.5330909|-88.0222582|01/15/1980|03/20/2008
403681|Ashton|Populated Place|02583|P1|0370|170370103|17|IL|1|103|Lee|41.8661417|-89.2212088|01/15/1980|03/20/2008
403686|Assumption|Populated Place|02609|P1|0380|170380021|17|IL|1|021|Christian|39.5203188|-89.0489712|01/15/1980|03/20/2008
403689|Astoria|Populated Place|02635|P1|0390|170390057|17|IL|1|057|Fulton|40.227545|-90.3595683|01/15/1980|03/20/2008
403695|Athens|Populated Place|02674|P1|0400|170400129|17|IL|1|129|Menard|39.9608826|-89.7239944|01/15/1980|03/20/2008
403699|Atkinson|Populated Place|02726|P1|0410|170410073|17|IL|1|073|Henry|41.4208678|-90.0151121|01/15/1980|03/20/2008
403701|Atlanta|Populated Place|02752|P1|0420|170420107|17|IL|1|107|Logan|40.2594846|-89.2334236|01/15/1980|03/20/2008
403706|Atterberry|Populated Place|||0425|170425129|17|IL|1|129|Menard|40.0608805|-89.9237234|01/15/1980|
403708|Attila|Populated Place|02856|U6|||17|IL|1|199|Williamson|37.7697714|-88.7711732|01/15/1980|
403711|Atwood|Populated Place|02882|P1|0430|170430041|17|IL|1|041|Douglas|39.7994772|-88.4622789|01/15/1980|03/20/2008
403711|Atwood|Populated Place|02882|P1|0430|170430147|17|IL|2|147|Piatt|39.7994772|-88.4622789|01/15/1980|03/20/2008
403716|Auburn|Populated Place|02921|P1|0440|170440167|17|IL|1|167|Sangamon|39.5917197|-89.7464874|01/15/1980|03/20/2008
403725|Augerville|Populated Place|02967|U6|||17|IL|1|019|Champaign|40.1397548|-88.1717123|01/15/1980|
403726|Augusta|Populated Place|02986|P1|0450|170450067|17|IL|1|067|Hancock|40.2300454|-90.9501342|01/15/1980|03/20/2008
403732|Aurora|Populated Place|03012|P1|0460|170460089|17|IL|1|089|Kane|41.7605849|-88.3200715|01/15/1980|03/20/2008
403732|Aurora|Populated Place|03012|P1|0460|170460043|17|IL|2|043|DuPage|41.7605849|-88.3200715|01/15/1980|03/20/2008
403732|Aurora|Populated Place|03012|P1|0460|170460197|17|IL|3|197|Will|41.7605849|-88.3200715|01/15/1980|03/20/2008
403732|Aurora|Populated Place|03012|P1|0460|170460093|17|IL|4|093|Kendall|41.7605849|-88.3200715|01/15/1980|03/20/2008
403754|Ava|Populated Place|03103|P1|0470|170470077|17|IL|1|077|Jackson|37.8883846|-89.4948169|01/15/1980|03/20/2008
403760|Aviston|Populated Place|03181|P1|0480|170480027|17|IL|1|027|Clinton|38.6067152|-89.6075894|01/15/1980|03/20/2008
403766|Avon|Populated Place|03207|P1|0490|170490057|17|IL|1|057|Fulton|40.6642065|-90.4348506|01/15/1980|03/20/2008
403793|Bader|Populated Place|03324|U6|||17|IL|1|169|Schuyler|40.1731015|-90.3687351|01/15/1980|
403811|Baileyville|Populated Place|03337|U6|0495|170495141|17|IL|1|141|Ogle|42.1972454|-89.5934478|01/15/1980|
403816|Baker|Populated Place|03363|U6|||17|IL|1|099|LaSalle|41.5555866|-88.8111891|01/15/1980|
403841|Bakerville|Populated Place|03389|U6|||17|IL|1|081|Jefferson|38.2583827|-88.8975653|01/15/1980|
403843|Balcom|Populated Place|03402|U6|||17|IL|1|181|Union|37.4131056|-89.2061922|01/15/1980|
403852|Bald Mound|Populated Place|03441|U6|||17|IL|1|089|Kane|41.8461394|-88.4064651|01/15/1980|
403853|Baldwin|Populated Place|03454|P1|0500|170500157|17|IL|1|157|Randolph|38.1831051|-89.8426029|01/15/1980|03/20/2008
403854|Baldwin Beach|Populated Place|03467|U6|||17|IL|1|125|Mason|40.3458751|-90.032061|01/15/1980|
403874|Banner|Populated Place|03571|P1|0502|170502057|17|IL|1|057|Fulton|40.5169834|-89.9084461|01/15/1980|03/20/2008
403878|Bannockburn|Populated Place|03610|P1|0504|170504097|17|IL|1|097|Lake|42.1933581|-87.8664579|01/15/1980|03/20/2008
403888|Barbers Corners|Populated Place|03629|U6|||17|IL|1|197|Will|41.7108638|-88.0683958|01/15/1980|
403891|Barclay|Populated Place|03649|U6|||17|IL|1|167|Sangamon|39.8747718|-89.5178756|01/15/1980|
403894|Bardolph|Populated Place|03675|P1|0506|170506109|17|IL|1|109|McDonough|40.4950406|-90.5645735|01/15/1980|03/20/2008
403921|Barnhill|Populated Place|03740|U6|0509|170509191|17|IL|1|191|Wayne|38.2844921|-88.3642131|01/15/1980|
403926|Barreville|Populated Place|03825|U6|||17|IL|1|111|McHenry|42.2755784|-88.262585|01/15/1980|
403927|Barrington|Populated Place|03844|P1|0510|170510031|17|IL|1|031|Cook|42.1539141|-88.1361888|01/15/1980|03/20/2008
403927|Barrington|Populated Place|03844|P1|0510|170510097|17|IL|2|097|Lake|42.1539141|-88.1361888|01/15/1980|03/20/2008
403928|Barrington Hills|Populated Place|03883|P1|0512|170512031|17|IL|1|031|Cook|42.1447475|-88.1556336|01/15/1980|04/08/2011
403928|Barrington Hills|Populated Place|03883|P1|0512|170512111|17|IL|2|111|McHenry|42.1447475|-88.1556336|01/15/1980|04/08/2011
403928|Barrington Hills|Populated Place|03883|P1|0512|170512097|17|IL|3|097|Lake|42.1447475|-88.1556336|01/15/1980|04/08/2011
403928|Barrington Hills|Populated Place|03883|P1|0512|170512089|17|IL|4|089|Kane|42.1447475|-88.1556336|01/15/1980|04/08/2011
403929|Barrington Woods|Populated Place|03922|U6|||17|IL|1|031|Cook|42.1522476|-88.0559084|01/15/1980|
403933|Barry|Populated Place|03948|P1|0520|170520149|17|IL|1|149|Pike|39.6942135|-91.0390246|01/15/1980|03/20/2008
403936|Barstow|Populated Place|03987|U6|0525|170525161|17|IL|1|161|Rock Island|41.5183673|-90.3570721|01/15/1980|
403937|Bartelso|Populated Place|04000|P1|0530|170530027|17|IL|1|027|Clinton|38.5364382|-89.4664739|01/15/1980|03/20/2008
403941|Bartlett|Populated Place|04013|P1|0540|170540031|17|IL|1|031|Cook|41.9950276|-88.1856301|01/15/1980|03/20/2008
403941|Bartlett|Populated Place|04013|P1|0540|170540043|17|IL|2|043|DuPage|41.9950276|-88.1856301|01/15/1980|03/20/2008
403941|Bartlett|Populated Place|04013|P1|0540|170540089|17|IL|3|089|Kane|41.9950276|-88.1856301|01/15/1980|03/20/2008
403950|Bartonville|Populated Place|04039|P1|0550|170550143|17|IL|1|143|Peoria|40.6503158|-89.6520455|01/15/1980|03/20/2008
403952|Basco|Populated Place|04052|P1|0554|170554067|17|IL|1|067|Hancock|40.3278229|-91.2001437|01/15/1980|03/20/2008
403960|Batavia|Populated Place|04078|P1|0560|170560089|17|IL|1|089|Kane|41.8500284|-88.3125738|01/15/1980|03/20/2008
403961|Batchtown|Populated Place|04117|P1|0564|170564013|17|IL|1|013|Calhoun|39.0331048|-90.6576221|01/15/1980|03/20/2008
403963|Batestown|Populated Place|04143|U6|||17|IL|1|183|Vermilion|40.1200363|-87.6964118|01/15/1980|
403964|Bath|Populated Place|04156|P1|0570|170570125|17|IL|1|125|Mason|40.1933784|-90.1409523|01/15/1980|03/20/2008
403985|Bay View Garden|Populated Place|04271|P1|||17|IL|1|203|Woodford|40.808926|-89.5206486|01/15/1980|05/17/2018
403986|Bayle City|Populated Place|04215|U6|0578|170578051|17|IL|1|051|Fayette|39.1139333|-89.1661858|01/15/1980|
403987|Baylis|Populated Place|04247|P1|0580|170580149|17|IL|1|149|Pike|39.7283804|-90.9081876|01/15/1980|03/20/2008
403997|Beach Station|Populated Place|04305|U6|||17|IL|1|097|Lake|42.4211324|-87.8492396|01/15/1980|
404036|Beardstown|Populated Place|04351|P1|0590|170590017|17|IL|1|017|Cass|40.0175483|-90.4242916|01/15/1980|03/20/2008
404039|Beason|Populated Place|04403|U5|0597|170597107|17|IL|1|107|Logan|40.1436515|-89.1934222|01/15/1980|01/29/2011
404044|Beaucoup|Populated Place|04429|U6|0589|170589189|17|IL|1|189|Washington|38.3497721|-89.2920249|01/15/1980|
404057|Beaver Creek|Populated Place|04468|U6|||17|IL|1|005|Bond|38.7675474|-89.3936892|01/15/1980|
404070|Beaverville|Populated Place|04507|P1|0598|170598075|17|IL|1|075|Iroquois|40.954478|-87.6544781|01/15/1980|03/20/2008
404073|Beckemeyer|Populated Place|04533|P1|0600|170600027|17|IL|1|027|Clinton|38.6056043|-89.4359158|01/15/1980|03/20/2008
404084|Bedford Park|Populated Place|04572|P1|0610|170610031|17|IL|1|031|Cook|41.7628101|-87.8000551|01/15/1980|03/20/2008
404088|Bee Creek|Populated Place|04624|U6|||17|IL|1|149|Pike|39.4003257|-90.635958|01/15/1980|
404101|Beecher|Populated Place|04585|P1|0620|170620197|17|IL|1|197|Will|41.34059|-87.6214286|01/15/1980|03/20/2008
404102|Beecher City|Populated Place|04598|P1|0630|170630049|17|IL|1|049|Effingham|39.1880983|-88.7867278|01/15/1980|03/20/2008
404113|Belgium|Populated Place|04689|P1|0640|170640183|17|IL|1|183|Vermilion|40.0614255|-87.6380766|01/15/1980|03/20/2008
404115|Belknap|Populated Place|04715|P1|0648|170648087|17|IL|1|087|Johnson|37.3250522|-88.9389557|01/15/1980|03/20/2008
404136|Bellair|Populated Place|04741|U6|||17|IL|1|033|Crawford|39.141984|-87.9453105|01/15/1980|
404138|Belle Prairie City|Populated Place|04793|P1|||17|IL|1|065|Hamilton|38.2225481|-88.5553307|01/15/1980|03/20/2008
404139|Belle Rive|Populated Place|04806|P1|0660|170660081|17|IL|1|081|Jefferson|38.2328265|-88.740615|01/15/1980|03/20/2008
404142|Bellevue|Populated Place|04871|P1|0680|170680143|17|IL|1|143|Peoria|40.6844821|-89.6801015|01/15/1980|03/20/2008
404144|Bellmont|Populated Place|04936|P1|0690|170690185|17|IL|1|185|Wabash|38.3844921|-87.9114204|01/15/1980|06/16/2011
404148|Bellwood|Populated Place|04975|P1|0700|170700031|17|IL|1|031|Cook|41.8814197|-87.883117|01/15/1980|03/20/2008
404155|Belvidere|Populated Place|05092|P1|0710|170710007|17|IL|1|007|Boone|42.2639098|-88.8442674|01/15/1980|03/20/2008
404159|Bement|Populated Place|05144|P1|0720|170720147|17|IL|1|147|Piatt|39.9219782|-88.572008|01/15/1980|03/20/2008
404173|Benld|Populated Place|05209|P1|0730|170730117|17|IL|1|117|Macoupin|39.0928246|-89.8039845|01/15/1980|03/20/2008
404178|Bennington|Populated Place|05222|U6|||17|IL|1|047|Edwards|38.524216|-88.1314278|01/15/1980|
404183|Benson|Populated Place|05261|P1|0750|170750203|17|IL|1|203|Woodford|40.8505901|-89.1223021|01/15/1980|03/20/2008
404186|Bentley|Populated Place|05274|P1|0755|170755067|17|IL|1|067|Hancock|40.3444891|-91.1118074|01/15/1980|03/20/2008
404187|Benton|Populated Place|05300|P1|0760|170760055|17|IL|1|055|Franklin|37.9967163|-88.9200685|01/15/1980|05/12/2014
404196|Bentown|Populated Place|05352|U6|||17|IL|1|113|McLean|40.4719794|-88.8064587|01/15/1980|
404201|Berdan|Populated Place|05365|U6|||17|IL|1|061|Greene|39.3650471|-90.3953976|01/15/1980|
404215|Berlin|Populated Place|05443|P1|0775|170775167|17|IL|1|167|Sangamon|39.7589387|-89.9031635|01/15/1980|03/20/2008
404217|Bernice|Populated Place|05482|U4|||17|IL|1|031|Cook|41.5792019|-87.5480982|01/15/1980|
404228|Berryville|Populated Place|05540|U6|||17|IL|1|181|Union|37.456994|-89.2878634|01/15/1980|
404229|Berryville|Populated Place|05534|U6|||17|IL|1|159|Richland|38.5994929|-87.9286439|01/15/1980|
404232|Berwick|Populated Place|05547|U6|0779|170779187|17|IL|1|187|Warren|40.7992058|-90.5384656|01/15/1980|
404233|Berwyn|Populated Place|05573|P1|0780|170780031|17|IL|1|031|Cook|41.8505874|-87.7936685|01/15/1980|03/20/2008
404239|Bethalto|Populated Place|05599|P1|0790|170790119|17|IL|1|119|Madison|38.9092138|-90.0406608|01/15/1980|03/20/2008
404241|Bethany|Populated Place|05612|P1|0800|170800139|17|IL|1|139|Moultrie|39.6455916|-88.7381252|01/15/1980|03/20/2008
404260|Bethel|Populated Place|05651|U6|||17|IL|1|137|Morgan|39.7764351|-90.4248466|01/15/1980|
404261|Bethel|Populated Place|05664|U6|||17|IL|1|183|Vermilion|39.897259|-87.5444636|01/15/1980|
404356|Beverly|Populated Place|05729|U6|||17|IL|1|001|Adams|39.7933805|-90.9909674|01/15/1980|
404360|Beverly Manor|Populated Place|05781|U4|||17|IL|1|179|Tazewell|40.6950375|-89.4675926|01/15/1980|
404371|Bible Grove|Populated Place|05794|U6|0806|170806025|17|IL|1|025|Clay|38.87199|-88.4461578|01/15/1980|
404375|Big Bay|Populated Place|05833|U6|||17|IL|1|127|Massac|37.3167198|-88.7217213|01/15/1980|
404404|Big Foot Prairie|Populated Place|05859|U6|0808|170808111|17|IL|1|111|McHenry|42.4950175|-88.5989898|01/15/1980|
404404|Big Foot Prairie|Populated Place|05859|U6|0808|550808127|55|WI|2|127|Walworth|42.4950175|-88.5989898|01/15/1980|
404432|Big Rock|Populated Place|05976|P1|0812|170812089|17|IL|1|089|Kane|41.7639181|-88.5470219|01/15/1980|03/20/2008
404443|Biggsville|Populated Place|05898|P1|0810|170810071|17|IL|1|071|Henderson|40.8536498|-90.8648617|01/15/1980|03/20/2008
404445|Billett|Populated Place|06015|U6|||17|IL|1|101|Lawrence|38.6644916|-87.6522474|01/15/1980|
404451|Bingham|Populated Place|06028|P1|0811|170811051|17|IL|1|051|Fayette|39.1142114|-89.2134097|01/15/1980|03/20/2008
404452|Binghampton|Populated Place|06041|U6|||17|IL|1|103|Lee|41.7166996|-89.3039833|01/15/1980|
404453|Bingman Station|Populated Place|06047|U6|||17|IL|1|193|White|38.083102|-88.2447633|01/15/1980|
404461|Birds|Populated Place|06080|U6|0813|170813101|17|IL|1|101|Lawrence|38.8369899|-87.6678032|01/15/1980|05/17/2018
404465|Birkbeck|Populated Place|06106|U6|||17|IL|1|039|De Witt|40.1769806|-88.86841|01/15/1980|
404474|Bishop Hill|Populated Place|06171|P1|0814|170814073|17|IL|1|073|Henry|41.2017036|-90.1190054|01/15/1980|03/20/2008
404529|Blackstone|Populated Place|06366|U6|0818|170818105|17|IL|1|105|Livingston|41.0844774|-88.6909013|01/15/1980|
404535|Blaine|Populated Place|06379|U6|||17|IL|1|007|Boone|42.4469618|-88.8031596|01/15/1980|
404539|Blair|Populated Place|06418|U6|||17|IL|1|157|Randolph|38.0447723|-89.7420462|01/15/1980|
404540|Blair|Populated Place|06405|U6|||17|IL|1|105|Livingston|41.1033656|-88.3086685|01/15/1980|
404546|Blairsville|Populated Place|06431|U6|||17|IL|1|065|Hamilton|38.168381|-88.4642162|01/15/1980|
404547|Blairsville|Populated Place|06444|U6|||17|IL|1|199|Williamson|37.8111614|-89.1236899|01/15/1980|
404553|Blandinsville|Populated Place|06470|P1|0820|170820109|17|IL|1|109|McDonough|40.556152|-90.8659692|01/15/1980|03/20/2008
404571|Bloomfield|Populated Place|06574|U6|||17|IL|1|087|Johnson|37.4525514|-88.8750649|01/15/1980|
404579|Bloomington|Populated Place|06613|P1|0840|170840113|17|IL|1|113|McLean|40.4842027|-88.9936873|01/15/1980|03/20/2008
404580|Bloomington Heights|Populated Place|06652|U6|||17|IL|1|113|McLean|40.480592|-89.033689|01/15/1980|
404592|Blue Island|Populated Place|06704|P1|0850|170850031|17|IL|1|031|Cook|41.6572562|-87.6800486|01/15/1980|03/20/2008
404595|Blue Mound|Populated Place|06756|P1|0860|170860115|17|IL|1|115|Macon|39.7011516|-89.1231356|01/15/1980|03/20/2008
404616|Bluff City|Populated Place|06847|U6|||17|IL|1|169|Schuyler|40.1803235|-90.2303991|01/15/1980|
404623|Bluff Springs|Populated Place|06925|U6|0875|170875017|17|IL|1|017|Cass|39.9878263|-90.3459568|01/15/1980|
404628|Bluffs|Populated Place|06899|P1|0870|170870171|17|IL|1|171|Scott|39.7519902|-90.5351258|01/15/1980|03/20/2008
404631|Bluford|Populated Place|06964|P1|0880|170880081|17|IL|1|081|Jefferson|38.3308817|-88.7258912|01/15/1980|03/20/2008
404636|Boaz|Populated Place|06990|U6|||17|IL|1|127|Massac|37.2917193|-88.8997864|01/15/1980|
404642|Boden|Populated Place|07003|U6|||17|IL|1|131|Mercer|41.2583683|-90.5870793|01/15/1980|
404648|Bogota|Populated Place|07055|U6|0885|170885079|17|IL|1|079|Jasper|38.9183782|-88.2400414|01/15/1980|
404663|Bolingbrook|Populated Place|07133|P1|0887|170887197|17|IL|1|197|Will|41.6986416|-88.0683955|01/15/1980|03/20/2008
404663|Bolingbrook|Populated Place|07133|P1|0887|170887043|17|IL|2|043|DuPage|41.6986416|-88.0683955|01/15/1980|03/20/2008
404665|Bolivia|Populated Place|07159|U6|||17|IL|1|021|Christian|39.7422676|-89.3470299|01/15/1980|
404678|Bondville|Populated Place|07211|P1|0889|170889019|17|IL|1|019|Champaign|40.1133655|-88.3694996|01/15/1980|03/20/2008
404679|Bone Gap|Populated Place|07224|P1|0890|170890047|17|IL|1|047|Edwards|38.4475492|-87.9958669|01/15/1980|03/20/2008
404684|Bonfield|Populated Place|07237|P1|0892|170892091|17|IL|1|091|Kankakee|41.1466986|-88.0578276|01/15/1980|03/20/2008
404686|Bonnie|Populated Place|07263|P1|0891|170891081|17|IL|1|081|Jefferson|38.2028273|-88.9033993|01/15/1980|03/20/2008
404693|Boody|Populated Place|07315|U5|0895|170895115|17|IL|1|115|Macon|39.7664272|-89.0492448|01/15/1980|01/29/2011
404704|Borton|Populated Place|07380|U6|0893|170893045|17|IL|1|045|Edgar|39.6558681|-87.9339219|01/15/1980|
404705|Boskydell|Populated Place|07393|U6|||17|IL|1|077|Jackson|37.6711614|-89.2136942|01/15/1980|
404717|Boulder|Populated Place|07406|U6|||17|IL|1|027|Clinton|38.6967148|-89.225627|01/15/1980|
404720|Bourbon|Populated Place|07445|U6|||17|IL|1|041|Douglas|39.7455883|-88.3789409|01/15/1980|
404721|Bourbonnais|Populated Place|07471|P1|0900|170900091|17|IL|1|091|Kankakee|41.155329|-87.879231|01/15/1980|05/17/2018
404724|Bowen|Populated Place|07510|P1|0910|170910067|17|IL|1|067|Hancock|40.2333789|-91.0626375|01/15/1980|06/25/2011
404737|Bowes|Populated Place|07523|U6|||17|IL|1|089|Kane|42.0080822|-88.3909136|01/15/1980|
404754|Boyd|Populated Place|07601|U6|||17|IL|1|081|Jefferson|38.4136605|-89.0134|01/15/1980|
404765|Boyleston|Populated Place|07614|U6|||17|IL|1|191|Wayne|38.3614369|-88.4425487|01/15/1980|
404768|Braceville|Populated Place|07640|P1|0920|170920063|17|IL|1|063|Grundy|41.2269765|-88.2647833|01/15/1980|03/20/2008
404774|Bradford|Populated Place|07692|P1|0930|170930175|17|IL|1|175|Stark|41.1772594|-89.6575977|01/15/1980|03/20/2008
404775|Bradley|Populated Place|07744|P1|0940|170940091|17|IL|1|091|Kankakee|41.1419768|-87.8611535|01/15/1980|03/20/2008
404789|Braeside|Populated Place|07757|U4|||17|IL|1|031|Cook|42.1525261|-87.7722864|01/15/1980|
404789|Braeside|Populated Place|07757|U4|||17|IL|2|097|Lake|42.1525261|-87.7722864|01/15/1980|
404791|Braidwood|Populated Place|07770|P1|0950|170950197|17|IL|1|197|Will|41.2650318|-88.2122823|01/15/1980|03/20/2008
404808|Breeds|Populated Place|07900|U6|||17|IL|1|057|Fulton|40.5553165|-89.9203906|01/15/1980|
404809|Breese|Populated Place|07913|P1|0960|170960027|17|IL|1|027|Clinton|38.6106042|-89.5270306|01/15/1980|03/20/2008
404810|Bremen|Populated Place|07952|U6|||17|IL|1|157|Randolph|37.9711618|-89.7473253|01/15/1980|
404811|Bremen|Populated Place|07945|U6|||17|IL|1|085|Jo Daviess|42.4005641|-90.413739|01/15/1980|
404817|Brereton|Populated Place|08017|U6|||17|IL|1|057|Fulton|40.6108717|-90.0259495|01/15/1980|
404853|Bridgeport|Populated Place|08186|P1|0970|170970101|17|IL|1|101|Lawrence|38.7058806|-87.7600285|01/15/1980|03/20/2008
404857|Bridgeview|Populated Place|08225|P1|0980|170980031|17|IL|1|031|Cook|41.7500323|-87.8042216|01/15/1980|03/20/2008
404859|Bridgeway Addition|Populated Place|08238|U4|||17|IL|1|161|Rock Island|41.4733673|-90.5043003|01/15/1980|
404862|Briergate|Populated Place|08245|U6|||17|IL|1|097|Lake|42.1761364|-87.8147886|01/15/1980|
404869|Brighton|Populated Place|08264|P1|0990|170990117|17|IL|1|117|Macoupin|39.0397688|-90.1406643|01/15/1980|03/20/2008
404869|Brighton|Populated Place|08264|P1|0990|170990083|17|IL|2|083|Jersey|39.0397688|-90.1406643|01/15/1980|03/20/2008
404871|Brimfield|Populated Place|08303|P1|1000|171000143|17|IL|1|143|Peoria|40.838926|-89.8864976|01/15/1980|03/20/2008
404875|Bristol|Populated Place|08355|U6|1010|171010093|17|IL|1|093|Kendall|41.6855852|-88.4281285|01/15/1980|
404885|Broadlands|Populated Place|08420|P1|1020|171020019|17|IL|1|019|Champaign|39.9086455|-87.9942016|01/15/1980|03/20/2008
404887|Broadview|Populated Place|08446|P1|1030|171030031|17|IL|1|031|Cook|41.8639201|-87.8533931|01/15/1980|03/20/2008
404889|Broadwell|Populated Place|08472|P1|1035|171035107|17|IL|1|107|Logan|40.0681021|-89.4431552|01/15/1980|03/20/2008
404897|Brocton|Populated Place|08524|P1|1040|171040045|17|IL|1|045|Edgar|39.7155902|-87.9325327|01/15/1980|03/20/2008
404902|Bronson|Populated Place|08540|U6|||17|IL|1|183|Vermilion|40.1150358|-87.8053049|01/15/1980|
404907|Brookfield|Populated Place|08576|P1|1050|171050031|17|IL|1|031|Cook|41.8239203|-87.8517253|01/15/1980|03/20/2008
404911|Brooklyn|Populated Place|08680|U6|1060|171060169|17|IL|1|169|Schuyler|40.2258782|-90.7631859|01/15/1980|
404914|Brooks|Populated Place|08719|U6|||17|IL|1|119|Madison|38.7742154|-90.0901064|01/15/1980|
404924|Brookville|Populated Place|08771|U6|1075|171075141|17|IL|1|141|Ogle|42.0486383|-89.6840038|01/15/1980|
404929|Broughton|Populated Place|08875|P1|1080|171080065|17|IL|1|065|Hamilton|37.9347695|-88.4619932|01/15/1980|03/20/2008
404967|Browning|Populated Place|08953|P1|1090|171090169|17|IL|1|169|Schuyler|40.1289355|-90.3720685|01/15/1980|03/20/2008
404977|Browns|Populated Place|08979|P1|1100|171100047|17|IL|1|047|Edwards|38.3769927|-87.9830886|01/15/1980|03/20/2008
404982|Browns Mill|Populated Place|08985|U6|||17|IL|1|177|Stephenson|42.2822427|-89.5209477|01/15/1980|
404988|Brownstown|Populated Place|08992|P1|1110|171110051|17|IL|1|051|Fayette|38.995878|-88.9528394|01/15/1980|03/20/2008
404989|Brownsville|Populated Place|09005|U6|1111|171111193|17|IL|1|193|White|38.0414351|-88.244763|01/15/1980|
404992|Brubaker|Populated Place|09044|U6|||17|IL|1|121|Marion|38.6931035|-88.8764461|01/15/1980|
404994|Bruce|Populated Place|09070|U6|||17|IL|1|139|Moultrie|39.5189236|-88.594504|01/15/1980|
405068|Brussels|Populated Place|09148|P1|1112|171112013|17|IL|1|013|Calhoun|38.9494939|-90.5887314|01/15/1980|03/20/2008
405072|Bryant|Populated Place|09161|P1|1120|171120057|17|IL|1|057|Fulton|40.4661513|-90.0917851|01/15/1980|03/20/2008
405120|Buckhart|Populated Place|09252|U6|||17|IL|1|167|Sangamon|39.7497703|-89.444812|01/15/1980|
405129|Buckingham|Populated Place|09304|P1|1125|171125091|17|IL|1|091|Kankakee|41.0469767|-88.1753289|01/15/1980|03/20/2008
405136|Buckley|Populated Place|09317|P1|1130|171130075|17|IL|1|075|Iroquois|40.5969794|-88.0380959|01/15/1980|03/20/2008
405138|Buckner|Populated Place|09330|P1|1140|171140055|17|IL|1|055|Franklin|37.9831056|-89.0161841|01/15/1980|03/20/2008
405143|Bucktown|Populated Place|09350|U6|||17|IL|1|183|Vermilion|40.1133695|-87.7447467|01/15/1980|
405145|Buda|Populated Place|09356|P1|1150|171150011|17|IL|1|011|Bureau|41.3261476|-89.6789874|01/15/1980|03/20/2008
405151|Buena Vista|Populated Place|09382|U6|||17|IL|1|165|Saline|37.7383815|-88.5761641|01/15/1980|
405152|Buena Vista|Populated Place|09408|U6|||17|IL|1|177|Stephenson|42.4255691|-89.6778961|01/15/1980|
405155|Buffalo|Populated Place|09434|P1|1160|171160167|17|IL|1|167|Sangamon|39.852547|-89.4087032|01/15/1980|03/20/2008
405158|Buffalo Grove|Populated Place|09447|P1|1163|171163031|17|IL|1|031|Cook|42.1514146|-87.959794|01/15/1980|03/20/2008
405158|Buffalo Grove|Populated Place|09447|P1|1163|171163097|17|IL|2|097|Lake|42.1514146|-87.959794|01/15/1980|03/20/2008
405160|Buffalo Hart|Populated Place|09473|U6|||17|IL|1|167|Sangamon|39.913937|-89.4475963|01/15/1980|
405163|Buffalo Prairie|Populated Place|09499|U6|1165|171165161|17|IL|1|161|Rock Island|41.338365|-90.8548656|01/15/1980|
405184|Bulpitt|Populated Place|09538|P1|1170|171170021|17|IL|1|021|Christian|39.5917159|-89.4239811|01/15/1980|03/20/2008
405188|Buncombe|Populated Place|09551|P1|1176|171176087|17|IL|1|087|Johnson|37.4714403|-88.9770151|01/15/1980|03/20/2008
405193|Bungay|Populated Place|09564|U6|||17|IL|1|065|Hamilton|38.1792142|-88.4086587|01/15/1980|
405195|Bunker Hill|Populated Place|09577|P1|1180|171180117|17|IL|1|117|Macoupin|39.0428239|-89.951769|01/15/1980|03/20/2008
405211|Bureau|Populated Place|09655|P4|1190|171190011|17|IL|1|011|Bureau|41.2892031|-89.3664786|01/15/1980|05/17/2018
405217|Burgess|Populated Place|09707|U6|||17|IL|1|131|Mercer|41.1272583|-90.6415252|01/15/1980|
405228|Burksville|Populated Place|09746|U6|||17|IL|1|133|Monroe|38.2672748|-90.1526126|01/15/1980|
405231|Burlington|Populated Place|09759|P1|1195|171195089|17|IL|1|089|Kane|42.0528038|-88.5481412|01/15/1980|03/20/2008
405236|Burnham|Populated Place|09798|P1|1200|171200031|17|IL|1|031|Cook|41.638924|-87.5567108|01/15/1980|03/20/2008
405251|Burnside|Populated Place|09850|U6|1205|171205067|17|IL|1|067|Hancock|40.503932|-91.1001425|01/15/1980|
405252|Burnside|Populated Place|09837|U4|||17|IL|1|031|Cook|41.7203123|-87.5981028|01/15/1980|
405254|Burnt Prairie|Populated Place|09889|P1|1206|171206193|17|IL|1|193|White|38.2517139|-88.2614318|01/15/1980|03/20/2008
405275|Burton|Populated Place|10006|U6|||17|IL|1|001|Adams|39.9047686|-91.2490326|01/15/1980|
405277|Burtons Bridge|Populated Place|10045|U6|||17|IL|1|111|McHenry|42.279745|-88.228973|01/15/1980|
405281|Busenville|Populated Place|10077|U6|||17|IL|1|183|Vermilion|39.9872586|-87.6755781|01/15/1980|
405282|Bush|Populated Place|10084|P1|1210|171210199|17|IL|1|199|Williamson|37.8433836|-89.13119|01/15/1980|03/20/2008
405285|Bushnell|Populated Place|10110|P1|1215|171215109|17|IL|1|109|McDonough|40.5528183|-90.50624|01/15/1980|03/20/2008
405287|Bushton|Populated Place|10136|U6|||17|IL|1|029|Coles|39.5922564|-88.1386513|09/30/1999|
405291|Butler|Populated Place|10149|P1|1225|171225135|17|IL|1|135|Montgomery|39.1994924|-89.5339783|01/15/1980|08/08/2014
405322|Byron|Populated Place|10240|P1|1230|171230141|17|IL|1|141|Ogle|42.1269692|-89.2556618|01/15/1980|03/20/2008
405326|Cabery|Populated Place|10292|P1|1236|171236053|17|IL|1|053|Ford|40.9958657|-88.2053282|01/15/1980|03/20/2008
405326|Cabery|Populated Place|10292|P1|1236|171236091|17|IL|2|091|Kankakee|40.9958657|-88.2053282|01/15/1980|03/20/2008
405328|Cable|Populated Place|10305|U6|||17|IL|1|131|Mercer|41.2839243|-90.5073547|01/15/1980|
405331|Cadwell|Populated Place|10344|U6|||17|IL|1|139|Moultrie|39.6811445|-88.5217243|01/15/1980|
405345|Caldwell|Populated Place|10400|U6|||17|IL|1|179|Tazewell|40.6422604|-89.5156514|01/15/1980|
405349|Caledonia|Populated Place|10422|P1|1254|171254007|17|IL|1|007|Boone|42.369463|-88.8926041|01/15/1980|03/20/2008
405354|Calhoun|Populated Place|10448|P1|1255|171255159|17|IL|1|159|Richland|38.6503262|-88.0436473|01/15/1980|03/20/2008
405370|Langleyville|Populated Place|42002|U5|4677|174677021|17|IL|1|021|Christian|39.5622698|-89.3553682|09/30/1999|01/12/2011
405372|Calumet City|Populated Place|10487|P1|1260|171260031|17|IL|1|031|Cook|41.6155909|-87.5294871|01/15/1980|03/20/2008
405377|Calumet Park|Populated Place|10513|P1|1270|171270031|17|IL|1|031|Cook|41.6628119|-87.6606037|01/15/1980|03/20/2008
405411|Calvin|Populated Place|10578|U6|||17|IL|1|193|White|38.2081024|-88.0186441|01/15/1980|
405416|Camargo|Populated Place|10591|P1|1275|171275041|17|IL|1|041|Douglas|39.8003105|-88.1639315|01/15/1980|03/20/2008
405419|Cambria|Populated Place|10630|P1|1280|171280199|17|IL|1|199|Williamson|37.7814392|-89.1192454|01/15/1980|03/20/2008
405421|Cambridge|Populated Place|10643|P1|1290|171290073|17|IL|1|073|Henry|41.3036472|-90.1928971|01/15/1980|03/20/2008
405422|Camden|Populated Place|10695|P1|1293|171293169|17|IL|1|169|Schuyler|40.1536572|-90.7706859|01/15/1980|03/20/2008
405427|Cameron|Populated Place|10747|U6|1295|171295187|17|IL|1|187|Warren|40.8889273|-90.5173548|01/15/1980|
405432|Camp Algonquin|Populated Place|10755|U6|||17|IL|1|111|McHenry|42.1830799|-88.2678603|01/15/1980|
405469|Camp Ground|Populated Place|10825|U6|||17|IL|1|081|Jefferson|38.3389378|-88.8350617|01/15/1980|
405471|Camp Grove|Populated Place|10838|U6|1307|171307123|17|IL|1|123|Marshall|41.0789258|-89.6331524|01/15/1980|
405492|Camp Point|Populated Place|10877|P1|1310|171310001|17|IL|1|001|Adams|40.0392139|-91.0693041|01/15/1980|03/20/2008
405507|Camp Travis|Populated Place|10910|U6|||17|IL|1|025|Clay|38.660048|-88.3314337|01/15/1980|
405516|Campbell Hill|Populated Place|10773|P1|1300|171300077|17|IL|1|077|Jackson|37.9300513|-89.5489852|01/15/1980|03/20/2008
405536|Campus|Populated Place|10916|P1|1316|171316105|17|IL|1|105|Livingston|41.0233656|-88.3061652|01/15/1980|03/20/2008
405560|Canton|Populated Place|11007|P1|1320|171320057|17|IL|1|057|Fulton|40.5580945|-90.0351167|01/15/1980|05/10/2014
405565|Cantrall|Populated Place|11033|P1|1325|171325167|17|IL|1|167|Sangamon|39.9378273|-89.6759372|01/15/1980|03/20/2008
405572|Capron|Populated Place|11124|P1|1330|171330007|17|IL|1|007|Boone|42.3997408|-88.7403793|01/15/1980|03/20/2008
405574|Carbon Cliff|Populated Place|11150|P1|1340|171340161|17|IL|1|161|Rock Island|41.4947564|-90.3906844|01/15/1980|03/20/2008
405575|Carbon Hill|Populated Place|11176|P1|1353|171353063|17|IL|1|063|Grundy|41.2969763|-88.3000634|01/15/1980|03/20/2008
405578|Carbondale|Populated Place|11163|P1|1350|171350077|17|IL|1|077|Jackson|37.7272727|-89.2167501|01/15/1980|03/20/2008
405594|Carlinville|Populated Place|11202|P1|1360|171360117|17|IL|1|117|Macoupin|39.2797699|-89.8817662|01/15/1980|03/20/2008
405596|Carlock|Populated Place|11215|P1|1365|171365113|17|IL|1|113|McLean|40.5822588|-89.1320251|01/15/1980|03/20/2008
405599|Carlsburg|Populated Place|11220|U6|||17|IL|1|117|Macoupin|39.0833802|-89.7223146|01/15/1980|
405603|Carlyle|Populated Place|11228|P1|1370|171370027|17|IL|1|027|Clinton|38.6103264|-89.3725796|01/15/1980|03/20/2008
405610|Carman|Populated Place|11267|U6|1375|171375071|17|IL|1|071|Henderson|40.740596|-91.0595879|01/15/1980|
405613|Carmi|Populated Place|11293|P1|1380|171380193|17|IL|1|193|White|38.0908796|-88.1586488|01/15/1980|03/20/2008
405620|Carpenter|Populated Place|11345|U6|||17|IL|1|119|Madison|38.8919912|-89.894266|01/15/1980|
405626|Carpentersville|Populated Place|11358|P1|1390|171390089|17|IL|1|089|Kane|42.1211364|-88.2578582|01/15/1980|03/20/2008
405634|Carrier Mills|Populated Place|11397|P1|1400|171400165|17|IL|1|165|Saline|37.6842156|-88.6328326|01/15/1980|03/20/2008
405642|Carrollton|Populated Place|11462|P1|1410|171410061|17|IL|1|061|Greene|39.3022693|-90.4070632|01/15/1980|03/20/2008
405657|Carterville|Populated Place|11514|P1|1420|171420199|17|IL|1|199|Williamson|37.7600501|-89.0772991|01/15/1980|03/20/2008
405658|Carthage|Populated Place|11527|P1|1430|171430067|17|IL|1|067|Hancock|40.416433|-91.1362537|01/15/1980|03/20/2008
405661|Cartter|Populated Place|11566|U6|||17|IL|1|121|Marion|38.5411597|-88.9122831|01/15/1980|
405667|Cary|Populated Place|11592|P1|1440|171440111|17|IL|1|111|McHenry|42.2119684|-88.2381381|01/15/1980|03/20/2008
405672|Casey|Populated Place|11618|P1|1450|171450023|17|IL|1|023|Clark|39.2992037|-87.9925339|01/15/1980|03/20/2008
405672|Casey|Populated Place|11618|P1|1450|171450035|17|IL|2|035|Cumberland|39.2992037|-87.9925339|01/15/1980|03/20/2008
405685|Casner|Populated Place|11683|U6|||17|IL|1|115|Macon|39.8003135|-88.7911831|01/15/1980|
405693|Castle Junction|Populated Place|11712|U6|||17|IL|1|161|Rock Island|41.3925339|-90.5779135|01/15/1980|
405694|Castleton|Populated Place|11722|U6|1465|171465175|17|IL|1|175|Stark|41.1178149|-89.7062105|01/15/1980|
405700|Catharine|Populated Place|11735|U6|||17|IL|1|099|LaSalle|41.5230866|-88.7192417|01/15/1980|
405705|Catlin|Populated Place|11774|P1|1470|171470183|17|IL|1|183|Vermilion|40.0650363|-87.7019675|01/15/1980|03/20/2008
405706|Caton Farm|Populated Place|11800|U6|||17|IL|1|197|Will|41.5653079|-88.2392316|01/15/1980|
405724|Cayuga|Populated Place|11852|U6|||17|IL|1|105|Livingston|40.9411437|-88.5836716|01/15/1980|
405725|Cazenovia|Populated Place|11865|U6|1484|171484203|17|IL|1|203|Woodford|40.8503137|-89.3320314|01/15/1980|
405758|Cedar Park|Populated Place|11969|U6|||17|IL|1|119|Madison|38.7556047|-90.1039957|01/15/1980|
405760|Cedar Point|Populated Place|11982|P1|1485|171485099|17|IL|1|099|LaSalle|41.2630912|-89.1256394|01/15/1980|03/20/2008
405764|Cedarville|Populated Place|12008|P1|1490|171490177|17|IL|1|177|Stephenson|42.3758493|-89.6331727|01/15/1980|03/20/2008
405794|Center Hill|Populated Place|12034|U6|||17|IL|1|015|Carroll|42.0808568|-90.0462367|01/15/1980|
405841|Centerville|Populated Place|12086|U6|||17|IL|1|193|White|38.2006025|-88.1661499|01/15/1980|
405852|Central|Populated Place|12125|U6|||17|IL|1|093|Kendall|41.4739196|-88.4339581|01/15/1980|
405857|Central City|Populated Place|12138|U6|1500|171500063|17|IL|1|063|Grundy|41.2378099|-88.2817287|01/15/1980|
405858|Central City|Populated Place|12151|P1|1500|171500121|17|IL|1|121|Marion|38.5489379|-89.127014|01/15/1980|03/20/2008
405910|Centralia|Populated Place|12164|P1|1510|171510121|17|IL|1|121|Marion|38.5250491|-89.1334037|01/15/1980|03/20/2008
405910|Centralia|Populated Place|12164|P1|1510|171510027|17|IL|2|027|Clinton|38.5250491|-89.1334037|01/15/1980|03/20/2008
405910|Centralia|Populated Place|12164|P1|1510|171510081|17|IL|3|081|Jefferson|38.5250491|-89.1334037|01/15/1980|03/20/2008
405910|Centralia|Populated Place|12164|P1|1510|171510189|17|IL|4|189|Washington|38.5250491|-89.1334037|01/15/1980|03/20/2008
405918|Cerro Gordo|Populated Place|12268|P1|1530|171530147|17|IL|1|147|Piatt|39.8905912|-88.7281262|01/15/1980|03/20/2008
405920|Chadwick|Populated Place|12294|P1|1540|171540015|17|IL|1|015|Carroll|42.0133599|-89.8906765|01/15/1980|03/20/2008
405926|Chalfin Bridge|Populated Place|12307|U6|||17|IL|1|133|Monroe|38.2119985|-90.2687286|01/15/1980|
405934|Chambersburg|Populated Place|12346|U6|1545|171545149|17|IL|1|149|Pike|39.8172694|-90.6573497|01/15/1980|
405936|Champaign|Populated Place|12385|P1|1550|171550019|17|IL|1|019|Champaign|40.1164205|-88.2433829|01/15/1980|03/20/2008
405944|Chana|Populated Place|12437|U6|1555|171555141|17|IL|1|141|Ogle|41.9805848|-89.2198238|01/15/1980|
405949|Chandlerville|Populated Place|12450|P1|1560|171560017|17|IL|1|017|Cass|40.0481033|-90.1551189|01/15/1980|03/20/2008
405955|Channahon|Populated Place|12476|P1|1565|171565197|17|IL|1|197|Will|41.4294753|-88.2286735|01/15/1980|03/20/2008
405955|Channahon|Populated Place|12476|P1|1565|171565063|17|IL|2|063|Grundy|41.4294753|-88.2286735|01/15/1980|03/20/2008
405964|Chapin|Populated Place|12528|P1|1580|171580137|17|IL|1|137|Morgan|39.7658796|-90.3990129|01/15/1980|03/20/2008
405968|Chapman|Populated Place|12541|U6|||17|IL|1|135|Montgomery|39.1056011|-89.3170244|01/15/1980|
405982|Charleston|Populated Place|12567|P1|1590|171590029|17|IL|1|029|Coles|39.4961458|-88.1761521|01/15/1980|03/20/2008
405985|Charlotte|Populated Place|12593|U6|||17|IL|1|105|Livingston|40.8197567|-88.2889398|01/15/1980|
405992|Chatham|Populated Place|12684|P1|1600|171600167|17|IL|1|167|Sangamon|39.676163|-89.7045439|01/15/1980|03/20/2008
405993|Chatsworth|Populated Place|12710|P1|1610|171610105|17|IL|1|105|Livingston|40.7536464|-88.2919947|01/15/1980|03/20/2008
405994|Chauncey|Populated Place|12749|U6|||17|IL|1|101|Lawrence|38.8353234|-87.8708645|01/15/1980|
405998|Chautauqua Park|Populated Place|12775|U6|||17|IL|1|125|Mason|40.3228201|-90.0520615|01/15/1980|
406002|Chebanse|Populated Place|12801|P1|1620|171620091|17|IL|1|091|Kankakee|41.003088|-87.9080965|01/15/1980|03/20/2008
406002|Chebanse|Populated Place|12801|P1|1620|171620075|17|IL|2|075|Iroquois|41.003088|-87.9080965|01/15/1980|03/20/2008
406004|Chemung|Populated Place|12879|U5|||17|IL|1|111|McHenry|42.4152964|-88.6667668|01/15/1980|01/29/2011
406006|Cheneyville|Populated Place|12918|U6|1629|171629183|17|IL|1|183|Vermilion|40.4692031|-87.5847437|01/15/1980|
406007|Chenoa|Populated Place|12931|P1|1630|171630113|17|IL|1|113|McLean|40.7417014|-88.7197856|01/15/1980|03/20/2008
406012|Cherry|Populated Place|12970|P1|1640|171640011|17|IL|1|011|Bureau|41.4269787|-89.213419|01/15/1980|03/20/2008
406019|Cherry Hill|Populated Place|13022|U6|||17|IL|1|197|Will|41.5233645|-88.0145005|01/15/1980|
406024|Cherry Valley|Populated Place|13074|P1|1650|171650201|17|IL|1|201|Winnebago|42.2347434|-88.9489912|01/15/1980|03/20/2008
406027|Chester|Populated Place|13139|P1|1660|171660157|17|IL|1|157|Randolph|37.9136628|-89.8220505|01/15/1980|03/20/2008
406031|Chestervale|Populated Place|13191|U6|||17|IL|1|107|Logan|40.0922656|-89.3217606|01/15/1980|
406032|Chesterville|Populated Place|13204|U6|1663|171663041|17|IL|1|041|Douglas|39.7033662|-88.391163|01/15/1980|
406034|Chestnut|Populated Place|13230|U5|1665|171665107|17|IL|1|107|Logan|40.0536519|-89.1853664|01/15/1980|01/29/2011
406039|Chicago Heights|Populated Place|14026|P1|1680|171680031|17|IL|1|031|Cook|41.506146|-87.6355995|01/15/1980|03/20/2008
406048|Chicago Ridge|Populated Place|14065|P1|1690|171690031|17|IL|1|031|Cook|41.7014217|-87.7792196|01/15/1980|03/20/2008
406063|Chili|Populated Place|14097|U6|||17|IL|1|067|Hancock|40.2178236|-91.1415292|01/15/1980|
406065|Chillicothe|Populated Place|14117|P1|1700|171700143|17|IL|1|143|Peoria|40.9222589|-89.4862025|01/15/1980|03/20/2008
406074|Chittyville|Populated Place|14247|U6|||17|IL|1|199|Williamson|37.8294944|-89.0278521|01/15/1980|
406082|Chrisman|Populated Place|14273|P1|1710|171710045|17|IL|1|045|Edgar|39.8036467|-87.673635|01/15/1980|03/20/2008
406104|Christopher|Populated Place|14286|P1|1720|171720055|17|IL|1|055|Franklin|37.9725501|-89.053408|01/15/1980|03/20/2008
406120|Cicero|Populated Place|14351|P1|1730|171730031|17|IL|1|031|Cook|41.8455878|-87.7539448|01/15/1980|03/20/2008
406127|Cisco|Populated Place|14442|P1|1740|171740147|17|IL|1|147|Piatt|40.0114248|-88.7261827|01/15/1980|03/20/2008
406128|Cisne|Populated Place|14455|P1|1750|171750191|17|IL|1|191|Wayne|38.5158815|-88.4375481|01/15/1980|03/20/2008
406131|Cissna Park|Populated Place|14468|P1|1760|171760075|17|IL|1|075|Iroquois|40.5647578|-87.8930897|01/15/1980|03/20/2008
406142|Claremont|Populated Place|14533|P1|1767|171767159|17|IL|1|159|Richland|38.7194921|-87.9714232|01/15/1980|03/20/2008
406143|Clarence|Populated Place|14559|U6|1768|171768053|17|IL|1|053|Ford|40.4639241|-87.9708696|01/15/1980|
406157|Clark Center|Populated Place|14611|U6|||17|IL|1|023|Clark|39.3625365|-87.781974|01/15/1980|
406176|Clarksburg|Populated Place|14624|U6|||17|IL|1|173|Shelby|39.3300406|-88.7417304|01/15/1980|
406177|Clarksville|Populated Place|14663|U6|1775|171775023|17|IL|1|023|Clark|39.451702|-87.7978078|01/15/1980|
406179|Clarmin|Populated Place|14689|U6|||17|IL|1|189|Washington|38.22116|-89.699542|01/15/1980|
406184|Clay City|Populated Place|14715|P1|1780|171780025|17|IL|1|025|Clay|38.6886589|-88.354212|01/15/1980|03/20/2008
406192|Clayton|Populated Place|14767|P1|1790|171790001|17|IL|1|001|Adams|40.0314366|-90.9606897|01/15/1980|03/20/2008
406197|Claytonville|Populated Place|14806|U6|1791|171791075|17|IL|1|075|Iroquois|40.5669804|-87.8230869|01/15/1980|
406223|Clear Lake|Populated Place|14845|P1|1795|171795167|17|IL|1|167|Sangamon|39.8136611|-89.5687083|01/15/1980|03/20/2008
406224|Clear Lake|Populated Place|14840|U6|||17|IL|1|017|Cass|40.0506034|-90.3090117|01/15/1980|
406232|Clearing|Populated Place|14819|U4|||17|IL|1|031|Cook|41.7780881|-87.761721|01/15/1980|
406237|Cleburne|Populated Place|14871|U6|||17|IL|1|055|Franklin|37.9358834|-89.053686|01/15/1980|
406240|Clements|Populated Place|14897|U6|||17|IL|1|137|Morgan|39.6189364|-90.1509493|01/15/1980|
406244|Cleveland|Populated Place|14923|P1|1797|171797073|17|IL|1|073|Henry|41.5061454|-90.3148479|01/15/1980|03/20/2008
406252|Clifton|Populated Place|14936|P1|1800|171800075|17|IL|1|075|Iroquois|40.9353109|-87.9344851|01/15/1980|03/20/2008
406255|Clifton Terrace|Populated Place|14949|U6|||17|IL|1|119|Madison|38.9294926|-90.2556675|01/15/1980|
406261|Clinton|Populated Place|15001|P1|1810|171810039|17|IL|1|039|De Witt|40.1536479|-88.9645253|01/15/1980|03/20/2008
406269|Cloverdale|Populated Place|15066|U4|||17|IL|1|179|Tazewell|40.640316|-89.516207|01/15/1980|
406280|Coal City|Populated Place|15170|P1|1830|171830063|17|IL|1|063|Grundy|41.2878097|-88.2856185|01/15/1980|03/20/2008
406304|Coal Valley|Populated Place|15235|P1|1850|171850161|17|IL|1|161|Rock Island|41.4286456|-90.4609648|01/15/1980|03/20/2008
406304|Coal Valley|Populated Place|15235|P1|1850|171850073|17|IL|2|073|Henry|41.4286456|-90.4609648|01/15/1980|03/20/2008
406308|Coalton|Populated Place|15209|P1|1840|171840135|17|IL|1|135|Montgomery|39.2828235|-89.3011961|01/15/1980|03/20/2008
406313|Coatsburg|Populated Place|15261|P1|1853|171853001|17|IL|1|001|Adams|40.0328247|-91.1576405|01/15/1980|03/20/2008
406316|Cobden|Populated Place|15300|P1|1860|171860181|17|IL|1|181|Union|37.5314386|-89.253418|01/15/1980|03/20/2008
406320|Coello|Populated Place|15339|C4|1868|171868055|17|IL|1|055|Franklin|37.9942168|-89.0672974|01/15/1980|
406327|Coffeen|Populated Place|15352|P1|1870|171870135|17|IL|1|135|Montgomery|39.0892128|-89.3906379|01/15/1980|03/20/2008
406338|Colby Point|Populated Place|15365|U6|||17|IL|1|111|McHenry|42.2964114|-88.2400849|01/15/1980|
406339|Colchester|Populated Place|15378|P1|1880|171880109|17|IL|1|109|McDonough|40.4264306|-90.7926324|01/15/1980|03/20/2008
406351|Coleman|Populated Place|15443|U6|||17|IL|1|089|Kane|41.9786383|-88.2972993|01/15/1980|
406356|Coles|Populated Place|15456|U6|||17|IL|1|029|Coles|39.5203111|-88.471163|01/15/1980|
406361|Coleta|Populated Place|15469|P1|1885|171885195|17|IL|1|195|Whiteside|41.9022509|-89.8023374|01/15/1980|03/20/2008
406362|Colfax|Populated Place|15495|P1|1890|171890113|17|IL|1|113|McLean|40.5669788|-88.6164508|01/15/1980|03/20/2008
406387|Collison|Populated Place|15625|U6|1914|171914183|17|IL|1|183|Vermilion|40.2250359|-87.8039159|01/15/1980|
406391|Colmar|Populated Place|15638|U6|1916|171916109|17|IL|1|109|McDonough|40.3453214|-90.8912451|01/15/1980|
406393|Colona|Populated Place|15664|P1|1920|171920073|17|IL|1|073|Henry|41.4839233|-90.3531827|01/15/1980|03/20/2008
406396|Colp|Populated Place|15807|P1|1925|171925199|17|IL|1|199|Williamson|37.8053279|-89.0800768|01/15/1980|03/20/2008
406399|Columbia|Populated Place|15833|P1|1930|171930133|17|IL|1|133|Monroe|38.4436637|-90.2012239|01/15/1980|03/20/2008
406399|Columbia|Populated Place|15833|P1|1930|171930163|17|IL|2|163|St. Clair|38.4436637|-90.2012239|01/15/1980|03/20/2008
406414|Columbus|Populated Place|15846|P1|1932|171932001|17|IL|1|001|Adams|39.9881027|-91.1468068|01/15/1980|03/20/2008
406421|Colusa|Populated Place|15898|U6|1935|171935067|17|IL|1|067|Hancock|40.5708758|-91.1679233|01/15/1980|
406427|Como|Populated Place|15950|U5|||17|IL|1|195|Whiteside|41.7664194|-89.7670545|01/15/1980|01/29/2011
406429|Compton|Populated Place|15989|P1|1940|171940103|17|IL|1|103|Lee|41.6944753|-89.0812008|01/15/1980|03/20/2008
406433|Conant|Populated Place|16002|U6|||17|IL|1|145|Perry|38.0558846|-89.4823144|01/15/1980|
406437|Concord|Populated Place|16054|P1|1943|171943137|17|IL|1|137|Morgan|39.8167136|-90.3729016|01/15/1980|03/20/2008
406464|Congerville|Populated Place|16119|P1|1945|171945203|17|IL|1|203|Woodford|40.6169813|-89.2042501|01/15/1980|03/20/2008
406509|Cooks Mills|Populated Place|16197|U6|||17|IL|1|029|Coles|39.5825333|-88.4061616|01/15/1980|
406510|Cooksville|Populated Place|16210|P1|1946|171946113|17|IL|1|113|McLean|40.5430902|-88.7164546|01/15/1980|03/20/2008
406561|Cooperstown|Populated Place|16249|U6|||17|IL|1|009|Brown|39.9639371|-90.6065164|01/15/1980|
406578|Cora|Populated Place|16288|U6|||17|IL|1|077|Jackson|37.8239406|-89.67038|01/15/1980|
406579|Coral|Populated Place|16301|U6|||17|IL|1|111|McHenry|42.2172451|-88.5645356|01/15/1980|
406583|Cordova|Populated Place|16366|P1|1950|171950161|17|IL|1|161|Rock Island|41.6803099|-90.319018|01/15/1980|03/20/2008
406585|Corinth|Populated Place|16392|U6|1955|171955199|17|IL|1|199|Williamson|37.818938|-88.7764511|01/15/1980|03/18/2010
406593|Cornell|Populated Place|16405|P1|1960|171960105|17|IL|1|105|Livingston|40.9900326|-88.7292337|01/15/1980|03/20/2008
406600|Cornland|Populated Place|16431|U5|1963|171963107|17|IL|1|107|Logan|39.937269|-89.4023173|01/15/1980|01/29/2011
406618|Cottage Hills|Populated Place|16561|U6|1980|171980119|17|IL|1|119|Madison|38.9031029|-90.0701061|01/15/1980|
406627|Cottonwood|Populated Place|16600|U6|1982|171982059|17|IL|1|059|Gallatin|37.8892127|-88.2130941|01/15/1980|
406647|Coulterville|Populated Place|16613|P1|1990|171990157|17|IL|1|157|Randolph|38.1864389|-89.6056504|01/15/1980|03/20/2008
406651|Country Club Hills|Populated Place|16691|P1|1992|171992031|17|IL|1|031|Cook|41.5680898|-87.7203257|01/15/1980|03/20/2008
406656|Countryside|Populated Place|16873|P1|1995|171995031|17|IL|1|031|Cook|41.7828093|-87.8781139|01/15/1980|03/20/2008
406676|Covington|Populated Place|17029|U6|||17|IL|1|189|Washington|38.4547719|-89.4359183|01/15/1980|
406681|Cowden|Populated Place|17055|P1|2000|172000173|17|IL|1|173|Shelby|39.2483753|-88.8622895|01/15/1980|03/20/2008
406684|Cowling|Populated Place|17068|U6|||17|IL|1|185|Wabash|38.311436|-87.9391984|01/15/1980|
406697|Coyne Center|Populated Place|17077|U5|||17|IL|1|161|Rock Island|41.4047561|-90.5593018|01/15/1980|03/20/2008
406699|Crab Orchard|Populated Place|17094|U5|2005|172005199|17|IL|1|199|Williamson|37.7292162|-88.8042303|01/15/1980|01/29/2011
406702|Crab Orchard Estates|Populated Place|17107|U6|||17|IL|1|199|Williamson|37.7494948|-89.1475802|01/15/1980|
406731|Crainville|Populated Place|17185|P1|2010|172010199|17|IL|1|199|Williamson|37.7519945|-89.0678543|01/15/1980|03/20/2008
406749|Cravat|Populated Place|17263|U6|||17|IL|1|081|Jefferson|38.4236606|-89.0931259|01/15/1980|
406767|Crenshaw Crossing|Populated Place|17360|U6|||17|IL|1|199|Williamson|37.7739387|-88.9795167|01/15/1980|
406768|Crescent|Populated Place|17393|U6|||17|IL|1|179|Tazewell|40.5472611|-89.6656594|01/15/1980|
406769|Crescent City|Populated Place|17406|P1|2029|172029075|17|IL|1|075|Iroquois|40.7700351|-87.8589251|09/30/1999|03/20/2008
406778|Crest Hill|Populated Place|17458|P1|2035|172035197|17|IL|1|197|Will|41.554753|-88.0986709|01/15/1980|03/20/2008
406779|Creston|Populated Place|17471|P1|2040|172040141|17|IL|1|141|Ogle|41.9308618|-88.9645382|01/15/1980|03/20/2008
406780|Crestwood|Populated Place|17497|P1|2050|172050031|17|IL|1|031|Cook|41.6611444|-87.7525511|01/15/1980|03/20/2008
406783|Creve Coeur|Populated Place|17549|P1|2070|172070179|17|IL|1|179|Tazewell|40.6472603|-89.5912098|01/15/1980|03/20/2008
406792|Crisp|Populated Place|17575|U6|||17|IL|1|191|Wayne|38.4394925|-88.5956085|01/15/1980|
406824|Cropsey|Populated Place|17692|U6|2076|172076113|17|IL|1|113|McLean|40.6092009|-88.4786678|01/15/1980|
406840|Crossville|Populated Place|17783|P1|2080|172080193|17|IL|1|193|White|38.1617133|-88.0653123|01/15/1980|03/20/2008
406863|Crystal Gardens|Populated Place|17874|U6|||17|IL|1|111|McHenry|42.2336342|-88.3800867|01/15/1980|
406868|Crystal Lake|Populated Place|17887|P1|2100|172100111|17|IL|1|111|McHenry|42.2411344|-88.3161965|01/15/1980|03/20/2008
406872|Crystal Manor|Populated Place|17952|U6|||17|IL|1|111|McHenry|42.2230792|-88.2917509|01/15/1980|
406873|Crystal Vista|Populated Place|17978|U6|||17|IL|1|111|McHenry|42.2386342|-88.3711977|01/15/1980|
406881|Cullom|Populated Place|18030|P1|2120|172120105|17|IL|1|105|Livingston|40.8778116|-88.2692177|01/15/1980|03/20/2008
406902|Curran|Populated Place|18147|P1|2125|172125167|17|IL|1|167|Sangamon|39.7422737|-89.7720477|01/15/1980|03/20/2008
406909|Custer Park|Populated Place|||2127|172127197|17|IL|1|197|Will|41.2453096|-88.1300559|01/15/1980|
406911|Cutler|Populated Place|18225|P1|2130|172130145|17|IL|1|145|Perry|38.0322733|-89.5656512|01/15/1980|03/20/2008
406917|Cypress|Populated Place|18251|P1|2140|172140087|17|IL|1|087|Johnson|37.3650516|-89.0181271|01/15/1980|03/20/2008
406924|Dahinda|Populated Place|18290|U6|2148|172148095|17|IL|1|095|Knox|40.9247598|-90.109007|01/15/1980|
406925|Dahlgren|Populated Place|18303|P1|2150|172150065|17|IL|1|065|Hamilton|38.1981041|-88.6845019|01/15/1980|03/20/2008
406926|Dakota|Populated Place|18342|P1|2160|172160177|17|IL|1|177|Stephenson|42.3886272|-89.526227|01/15/1980|03/20/2008
406928|Dale|Populated Place|18368|U6|2168|172168065|17|IL|1|065|Hamilton|37.9950474|-88.4917168|01/15/1980|
406930|Dallas City|Populated Place|18420|P1|2170|172170067|17|IL|1|067|Hancock|40.6361527|-91.1673681|01/15/1980|03/20/2008
406930|Dallas City|Populated Place|18420|P1|2170|172170071|17|IL|2|071|Henderson|40.6361527|-91.1673681|01/15/1980|03/20/2008
406933|Dalton City|Populated Place|18446|P1|2180|172180139|17|IL|1|139|Moultrie|39.7119804|-88.8045162|01/15/1980|03/20/2008
406934|Dalzell|Populated Place|18459|P1|2190|172190011|17|IL|1|011|Bureau|41.3578126|-89.176196|01/15/1980|03/20/2008
406935|Damiansville|Populated Place|18472|P1|2195|172195027|17|IL|1|027|Clinton|38.5100492|-89.619536|01/15/1980|03/20/2008
406937|Dana|Populated Place|18485|P1|2198|172198099|17|IL|1|099|LaSalle|40.9578103|-88.9500761|01/15/1980|03/20/2008
406939|Danforth|Populated Place|18498|P1|2200|172200075|17|IL|1|075|Iroquois|40.820312|-87.977818|01/15/1980|03/20/2008
406948|Danvers|Populated Place|18537|P1|2210|172210113|17|IL|1|113|McLean|40.5294818|-89.1773055|01/15/1980|03/20/2008
406949|Danville|Populated Place|18563|P1|2220|172220183|17|IL|1|183|Vermilion|40.124481|-87.6300207|01/15/1980|03/20/2008
406951|Dareville|Populated Place|18615|U6|||17|IL|1|081|Jefferson|38.1983832|-88.9764579|01/15/1980|
406956|Darwin|Populated Place|18667|U6|||17|IL|1|023|Clark|39.2833716|-87.6119696|01/15/1980|
406969|Davis|Populated Place|18706|P1|2230|172230177|17|IL|1|177|Stephenson|42.4225149|-89.4137259|01/15/1980|03/20/2008
406979|Davis Junction|Populated Place|18719|P1|2232|172232141|17|IL|1|141|Ogle|42.1016919|-89.0931574|01/15/1980|03/20/2008
406995|Dawson|Populated Place|18745|P1|2240|172240167|17|IL|1|167|Sangamon|39.8528263|-89.463428|01/15/1980|03/20/2008
407004|Daysville|Populated Place|18758|U6|||17|IL|1|141|Ogle|41.9844741|-89.3184377|01/15/1980|
407005|Dayton|Populated Place|18771|U5|||17|IL|1|099|LaSalle|41.3847551|-88.7942425|01/15/1980|01/29/2011
407006|Dayton|Populated Place|18765|U6|||17|IL|1|073|Henry|41.4892011|-90.3215147|01/15/1980|
407015|De Land|Populated Place|19200|P1|2290|172290147|17|IL|1|147|Piatt|40.1222568|-88.6453453|01/15/1980|03/20/2008
407017|De Soto|Populated Place|19616|P1|2320|172320077|17|IL|1|077|Jackson|37.8175506|-89.2278613|01/15/1980|03/20/2008
407021|DeLong|Populated Place|19304|U6|||17|IL|1|095|Knox|40.8167053|-90.3045702|01/15/1980|
407024|De Witt|Populated Place|19798|P1|2342|172342039|17|IL|1|039|De Witt|40.1811468|-88.7861844|09/30/1999|03/20/2008
407044|Decatur|Populated Place|18823|P1|2250|172250115|17|IL|1|115|Macon|39.8403147|-88.9548001|01/15/1980|03/20/2008
407058|Deer Creek|Populated Place|18940|P1|2260|172260179|17|IL|1|179|Tazewell|40.6300374|-89.3325886|01/15/1980|03/20/2008
407074|Deer Grove|Populated Place|19031|P1|2275|172275195|17|IL|1|195|Whiteside|41.607811|-89.689547|01/15/1980|03/20/2008
407081|Deer Park|Populated Place|19083|P1|2276|172276097|17|IL|1|097|Lake|42.1608585|-88.0814651|01/15/1980|03/20/2008
407081|Deer Park|Populated Place|19083|P1|2276|172276031|17|IL|2|031|Cook|42.1608585|-88.0814651|01/15/1980|03/20/2008
407086|Deerfield|Populated Place|18992|P1|2270|172270097|17|IL|1|097|Lake|42.1711365|-87.8445119|01/15/1980|03/20/2008
407086|Deerfield|Populated Place|18992|P1|2270|172270031|17|IL|2|031|Cook|42.1711365|-87.8445119|01/15/1980|03/20/2008
407090|Deering City|Populated Place|19057|U6|||17|IL|1|055|Franklin|37.9164384|-88.8920119|01/15/1980|
407092|Deerpath|Populated Place|19100|U6|||17|IL|1|097|Lake|42.2480789|-87.8595144|01/15/1980|
407101|Delafield|Populated Place|19187|U6|2288|172288065|17|IL|1|065|Hamilton|38.147826|-88.6028324|01/15/1980|
407104|Delavan|Populated Place|19226|P1|2300|172300179|17|IL|1|179|Tazewell|40.3725415|-89.5473245|01/15/1980|03/20/2008
407106|Delhi|Populated Place|19252|U6|||17|IL|1|083|Jersey|39.0453249|-90.2559455|01/15/1980|
407111|Delrey|Populated Place|||2305|172305075|17|IL|1|075|Iroquois|40.6728128|-88.0172621|01/15/1980|
407130|Dennison|Populated Place|19434|U6|2307|172307023|17|IL|1|023|Clark|39.4608688|-87.5978025|01/15/1980|
407135|Denver|Populated Place|19473|U6|2308|172308067|17|IL|1|067|Hancock|40.2906008|-91.1070841|01/15/1980|
407138|Depue|Populated Place|19498|P4|2310|172310011|17|IL|1|011|Bureau|41.3242025|-89.3067549|01/15/1980|05/17/2018
407144|Des Plaines|Populated Place|19642|P1|2330|172330031|17|IL|1|031|Cook|42.0333623|-87.8833991|01/15/1980|03/20/2008
407148|Deselm|Populated Place|19603|U6|||17|IL|1|091|Kankakee|41.2494762|-87.9744935|01/15/1980|
407150|Detroit|Populated Place|19681|P1|2332|172332149|17|IL|1|149|Pike|39.6206031|-90.6767936|01/15/1980|03/20/2008
407154|Devereux Heights|Populated Place|19720|U4|||17|IL|1|167|Sangamon|39.8497722|-89.6120442|01/15/1980|
407166|Dewey|Populated Place|19746|U6|2337|172337019|17|IL|1|019|Champaign|40.3189222|-88.2819959|01/15/1980|
407173|Dewmaine|Populated Place|19811|U6|||17|IL|1|199|Williamson|37.7806057|-89.0770212|01/15/1980|
407175|Diamond|Populated Place|19837|P1|2345|172345063|17|IL|1|063|Grundy|41.2886428|-88.2517287|01/15/1980|03/20/2008
407175|Diamond|Populated Place|19837|P1|2345|172345197|17|IL|2|197|Will|41.2886428|-88.2517287|01/15/1980|03/20/2008
407176|Diamond City|Populated Place|19850|U6|||17|IL|1|065|Hamilton|38.0892146|-88.5525527|01/15/1980|
407183|Diamond Lake|Populated Place|19863|U6|||17|IL|1|097|Lake|42.2444681|-88.0100762|01/15/1980|
407210|Dieterich|Populated Place|19915|P1|2350|172350049|17|IL|1|049|Effingham|39.0619868|-88.3797668|01/15/1980|03/20/2008
407219|Dillon|Populated Place|19928|U6|||17|IL|1|179|Tazewell|40.4767066|-89.5381562|01/15/1980|
407231|Disco|Populated Place|20006|U6|||17|IL|1|067|Hancock|40.6203194|-91.021252|01/15/1980|
407240|Divernon|Populated Place|20045|P1|2360|172360167|17|IL|1|167|Sangamon|39.5656082|-89.6573192|01/15/1980|03/20/2008
407245|Dix|Populated Place|20123|P1|2368|172368081|17|IL|1|081|Jefferson|38.4417157|-88.9375635|01/15/1980|03/20/2008
407249|Dixmoor|Populated Place|20149|P1|2370|172370031|17|IL|1|031|Cook|41.6317009|-87.6608807|01/15/1980|03/20/2008
407250|Dixon|Populated Place|20162|P1|2380|172380103|17|IL|1|103|Lee|41.8389213|-89.4795478|01/15/1980|03/20/2008
407260|Dixon Springs|Populated Place|20201|U6|2382|172382151|17|IL|1|151|Pope|37.3844965|-88.6686638|01/15/1980|
407293|Dollville|Populated Place|20266|U6|||17|IL|1|173|Shelby|39.4369849|-88.991746|01/15/1980|
407295|Dolton|Populated Place|20292|P1|2390|172390031|17|IL|1|031|Cook|41.6389236|-87.607268|01/15/1980|08/25/2011
407303|Doney|Populated Place|20300|U6|||17|IL|1|091|Kankakee|41.0667|-87.6250348|01/15/1980|
407304|Dongola|Populated Place|20305|P1|2400|172400181|17|IL|1|181|Union|37.3611615|-89.1659117|01/15/1980|03/20/2008
407308|Donnellson|Populated Place|20318|P1|2410|172410135|17|IL|1|135|Montgomery|39.027824|-89.4734175|01/15/1980|03/20/2008
407308|Donnellson|Populated Place|20318|P1|2410|172410005|17|IL|2|005|Bond|39.027824|-89.4734175|01/15/1980|03/20/2008
407312|Donovan|Populated Place|20331|P1|2420|172420075|17|IL|1|075|Iroquois|40.883368|-87.6161428|01/15/1980|03/20/2008
407317|Dorans|Populated Place|20357|U6|2426|172426029|17|IL|1|029|Coles|39.5511447|-88.344492|01/15/1980|
407318|Dorchester|Populated Place|20370|P1|||17|IL|1|117|Macoupin|39.0856021|-89.8875995|01/15/1980|03/20/2008
407325|Dorris Heights|Populated Place|20409|U6|||17|IL|1|165|Saline|37.7494923|-88.5531078|01/15/1980|
407360|Douglas|Populated Place|20500|U6|2433|172433095|17|IL|1|095|Knox|40.7861488|-90.0842843|09/30/1999|
407361|Dover|Populated Place|20526|P1|2431|172431011|17|IL|1|011|Bureau|41.4367021|-89.3934239|01/15/1980|03/20/2008
407362|Dow|Populated Place|20552|U6|2429|172429083|17|IL|1|083|Jersey|39.0133809|-90.3415026|01/15/1980|
407365|Dowell|Populated Place|20565|P1|2430|172430077|17|IL|1|077|Jackson|37.9397727|-89.2378608|01/15/1980|03/20/2008
407369|Downs|Populated Place|20643|P1|2446|172446113|17|IL|1|113|McLean|40.39698|-88.8706291|01/15/1980|03/20/2008
407395|Drivers|Populated Place|20760|U6|||17|IL|1|081|Jefferson|38.3306053|-88.9931231|01/15/1980|
407399|Druce Lake|Populated Place|20786|U6|||17|IL|1|097|Lake|42.3716883|-88.0025784|01/15/1980|
407440|Du Bois|Populated Place|20890|P1|2447|172447189|17|IL|1|189|Washington|38.223939|-89.2123011|01/15/1980|03/20/2008
407442|Du Quoin|Populated Place|21267|P1|2470|172470145|17|IL|1|145|Perry|38.0114393|-89.2361935|01/15/1980|06/16/2011
407460|Dudley|Populated Place|20920|U6|||17|IL|1|045|Edgar|39.5767016|-87.8500309|01/15/1980|
407481|Duncan|Populated Place|20981|U6|||17|IL|1|175|Stark|40.983648|-89.7892699|01/15/1980|
407486|Duncan Mills|Populated Place|20994|U6|||17|IL|1|057|Fulton|40.3400428|-90.190954|01/15/1980|
407490|Duncanville|Populated Place|21007|U6|||17|IL|1|033|Crawford|38.9547655|-87.6955816|01/15/1980|
407491|Dundas|Populated Place|21020|U6|2449|172449159|17|IL|1|159|Richland|38.835046|-88.0850374|01/15/1980|
407495|Dunes Park|Populated Place|21085|U6|||17|IL|1|097|Lake|42.4208547|-87.8256275|01/15/1980|
407496|Dunfermline|Populated Place|21098|P1|2452|172452057|17|IL|1|057|Fulton|40.4911505|-90.0317835|01/15/1980|03/20/2008
407503|Dunlap|Populated Place|21176|P1|2459|172459143|17|IL|1|143|Peoria|40.8617037|-89.6787105|01/15/1980|03/20/2008
407513|Dunning|Populated Place|21228|U4|||17|IL|1|031|Cook|41.952809|-87.7964493|01/15/1980|
407516|Durand|Populated Place|21280|P1|2480|172480201|17|IL|1|201|Winnebago|42.4364033|-89.3320582|01/15/1980|03/20/2008
407550|Dwight|Populated Place|21358|P1|2490|172490105|17|IL|1|105|Livingston|41.0944767|-88.4250597|01/15/1980|03/20/2008
407550|Dwight|Populated Place|21358|P1|2490|172490063|17|IL|2|063|Grundy|41.0944767|-88.4250597|01/15/1980|03/20/2008
407554|Dykersburg|Populated Place|21384|U6|||17|IL|1|199|Williamson|37.6922717|-88.7397823|01/15/1980|
407559|Eagerville|Populated Place|21423|P4|2495|172495117|17|IL|1|117|Macoupin|39.1117138|-89.7839836|01/15/1980|05/17/2018
407575|Eagle Point|Populated Place|21495|U6|||17|IL|1|141|Ogle|41.9936398|-89.6848366|01/15/1980|
407590|Earlville|Populated Place|21540|P1|2500|172500099|17|IL|1|099|LaSalle|41.5894754|-88.9220265|01/15/1980|03/20/2008
407595|East Alton|Populated Place|21553|P1|2510|172510119|17|IL|1|119|Madison|38.8803256|-90.1112184|01/15/1980|03/20/2008
407616|East Brooklyn|Populated Place|21579|P1|2515|172515063|17|IL|1|063|Grundy|41.1733654|-88.2639479|01/15/1980|03/20/2008
407623|Ford Heights|Populated Place|26710|P1|2530|172530031|17|IL|1|031|Cook|41.506424|-87.5917092|09/30/1999|03/20/2008
407624|East Clinton|Populated Place|21644|U6|||17|IL|1|195|Whiteside|41.8369736|-90.165126|01/15/1980|
407631|East Dubuque|Populated Place|21683|P1|2540|172540085|17|IL|1|085|Jo Daviess|42.4922253|-90.6429054|01/15/1980|03/20/2008
407632|East Dundee|Populated Place|21696|P1|2550|172550089|17|IL|1|089|Kane|42.0989145|-88.2714689|01/15/1980|03/20/2008
407632|East Dundee|Populated Place|21696|P1|2550|172550031|17|IL|2|031|Cook|42.0989145|-88.2714689|01/15/1980|03/20/2008
407650|East Galesburg|Populated Place|21826|P1|2560|172560095|17|IL|1|095|Knox|40.9478158|-90.3101264|01/15/1980|03/20/2008
407654|East Hazel Crest|Populated Place|21904|P1|2570|172570031|17|IL|1|031|Cook|41.5736457|-87.6464346|01/15/1980|03/20/2008
407660|East Joliet|Populated Place|21917|U4|||17|IL|1|197|Will|41.535031|-88.0517244|01/15/1980|
407672|East Lynn|Populated Place|22021|U6|2576|172576183|17|IL|1|183|Vermilion|40.4664252|-87.8000287|01/15/1980|
407677|East Moline|Populated Place|22073|P1|2580|172580161|17|IL|1|161|Rock Island|41.5008673|-90.4442979|01/15/1980|03/20/2008
407684|East Peoria|Populated Place|22164|P1|2600|172600179|17|IL|1|179|Tazewell|40.666149|-89.5800978|01/15/1980|03/20/2008
407717|Easton|Populated Place|22151|P1|2590|172590125|17|IL|1|125|Mason|40.2325434|-89.8426123|01/15/1980|03/20/2008
407720|Eastwood Manor|Populated Place|22307|U6|||17|IL|1|111|McHenry|42.3455772|-88.2411973|01/15/1980|
407753|Eberle|Populated Place|22333|U6|||17|IL|1|049|Effingham|38.9425446|-88.456991|01/15/1980|
407763|Edelstein|Populated Place|22411|U6|2618|172618143|17|IL|1|143|Peoria|40.9408702|-89.6292636|01/15/1980|
407764|Eden|Populated Place|22450|U6|||17|IL|1|157|Randolph|38.1206055|-89.667598|01/15/1980|
407765|Eden|Populated Place|22437|U6|||17|IL|1|143|Peoria|40.6889266|-89.8328856|01/15/1980|
407768|Eden Park|Populated Place|22463|U6|||17|IL|1|199|Williamson|37.75505|-89.0239634|01/15/1980|
407771|Edgar|Populated Place|22489|U6|||17|IL|1|045|Edgar|39.7555908|-87.7011362|01/15/1980|
407777|Edgewood|Populated Place|22567|P1|2620|172620049|17|IL|1|049|Effingham|38.9206006|-88.6614402|01/15/1980|03/20/2008
407786|Edinburg|Populated Place|22645|P1|2630|172630021|17|IL|1|021|Christian|39.6572697|-89.3895338|01/15/1980|03/20/2008
407800|Edwards|Populated Place|22684|U6|2638|172638143|17|IL|1|143|Peoria|40.7458704|-89.7442697|01/15/1980|
407807|Edwardsville|Populated Place|22697|P1|2640|172640119|17|IL|1|119|Madison|38.8114364|-89.953157|01/15/1980|03/20/2008
407809|Effingham|Populated Place|22736|P1|2650|172650049|17|IL|1|049|Effingham|39.1200418|-88.5433829|01/15/1980|03/20/2008
407810|Effner|Populated Place|22749|U6|||17|IL|1|075|Iroquois|40.7705923|-87.5261385|01/15/1980|
407811|Egan|Populated Place|22762|U6|2655|172655141|17|IL|1|141|Ogle|42.1883569|-89.4059441|01/15/1980|
407820|Eileen|Populated Place|22840|U4|2660|172660063|17|IL|1|063|Grundy|41.2941985|-88.2711737|01/15/1980|
407829|El Dara|Populated Place|22957|P1|2678|172678149|17|IL|1|149|Pike|39.6225468|-90.9918007|01/15/1980|03/20/2008
407830|El Paso|Populated Place|23737|P1|2780|172780203|17|IL|1|203|Woodford|40.7392018|-89.0164626|01/15/1980|03/20/2008
407831|El Vista|Populated Place|23906|U4|||17|IL|1|143|Peoria|40.7289262|-89.6292651|01/15/1980|
407834|Elbow|Populated Place|22898|U6|||17|IL|1|159|Richland|38.6422707|-88.1217054|01/15/1980|
407836|Elbridge|Populated Place|22905|U6|||17|IL|1|045|Edgar|39.5125349|-87.5828019|01/15/1980|
407837|Elburn|Populated Place|22931|P1|2670|172670089|17|IL|1|089|Kane|41.8922499|-88.4723014|01/15/1980|03/20/2008
407839|Elco|Populated Place|22944|U6|2675|172675003|17|IL|1|003|Alexander|37.3006054|-89.2659154|01/15/1980|
407840|Eldena|Populated Place|22970|U6|2679|172679103|17|IL|1|103|Lee|41.771144|-89.410099|01/15/1980|
407845|Eldorado|Populated Place|23009|P1|2680|172680165|17|IL|1|165|Saline|37.8136583|-88.4381029|01/15/1980|03/20/2008
407851|Eldred|Populated Place|23022|P1|2685|172685061|17|IL|1|061|Greene|39.2875475|-90.5523438|01/15/1980|03/20/2008
407855|Eleanor|Populated Place|23048|U6|||17|IL|1|187|Warren|40.9828153|-90.6951371|01/15/1980|
407857|Eleroy|Populated Place|23061|U6|2687|172687177|17|IL|1|177|Stephenson|42.332517|-89.7606741|01/15/1980|
407859|Elgin|Populated Place|23074|P1|2690|172690089|17|IL|1|089|Kane|42.0372487|-88.2811895|01/15/1980|03/20/2008
407859|Elgin|Populated Place|23074|P1|2690|172690031|17|IL|2|031|Cook|42.0372487|-88.2811895|01/15/1980|03/20/2008
407865|Eliza|Populated Place|23139|U6|||17|IL|1|131|Mercer|41.2958644|-90.9676453|01/15/1980|
407869|Elizabeth|Populated Place|23165|P1|2700|172700085|17|IL|1|085|Jo Daviess|42.3177911|-90.221517|01/15/1980|03/20/2008
407872|Elizabethtown|Populated Place|23191|P1|2710|172710069|17|IL|1|069|Hardin|37.4458846|-88.3050357|01/15/1980|03/20/2008
407876|Elkhart|Populated Place|23269|P1|2720|172720107|17|IL|1|107|Logan|40.0206041|-89.4828792|01/15/1980|03/20/2008
407881|Elkton|Populated Place|23360|U6|||17|IL|1|189|Washington|38.2917167|-89.5567585|01/15/1980|
407882|Elkville|Populated Place|23373|P1|2730|172730077|17|IL|1|077|Jackson|37.9100505|-89.2359165|01/15/1980|03/20/2008
407887|Ellery|Populated Place|23386|U6|2735|172735191|17|IL|1|191|Wayne|38.3547702|-88.14865|01/15/1980|
407887|Ellery|Populated Place|23386|U6|2735|172735047|17|IL|2|047|Edwards|38.3547702|-88.14865|01/15/1980|
407891|Elliott|Populated Place|23425|P1|2740|172740053|17|IL|1|053|Ford|40.4647562|-88.2722728|01/15/1980|03/20/2008
407896|Elliottstown|Populated Place|23438|U6|||17|IL|1|049|Effingham|39.0011549|-88.4528241|01/15/1980|
407897|Ellis|Populated Place|23477|U6|||17|IL|1|183|Vermilion|40.3553134|-87.8850317|01/15/1980|
407898|Ellis Grove|Populated Place|23503|P1|2743|172743157|17|IL|1|157|Randolph|38.0089404|-89.9059408|01/15/1980|03/20/2008
407909|Ellisville|Populated Place|23529|P1|2744|172744057|17|IL|1|057|Fulton|40.6267064|-90.3051249|01/15/1980|03/20/2008
407912|Ellsworth|Populated Place|23555|P1|2745|172745113|17|IL|1|113|McLean|40.4503125|-88.7167336|01/15/1980|03/20/2008
407947|Elmira|Populated Place|23633|U6|||17|IL|1|175|Stark|41.1797593|-89.831771|01/15/1980|
407948|Elmore|Populated Place|23659|U6|||17|IL|1|143|Peoria|40.9567039|-89.9770565|01/15/1980|
407949|Elmwood|Populated Place|23698|P1|2760|172760143|17|IL|1|143|Peoria|40.7778151|-89.9665017|01/15/1980|03/20/2008
407960|Elmwood Park|Populated Place|23724|P1|2770|172770031|17|IL|1|031|Cook|41.9211423|-87.8092266|01/15/1980|03/20/2008
407968|Elsah|Populated Place|23776|P1|2790|172790083|17|IL|1|083|Jersey|38.9561594|-90.3598364|01/15/1980|03/20/2008
407970|Elsdon|Populated Place|23802|U4|||17|IL|1|031|Cook|41.7936439|-87.72172|01/15/1980|
407972|Elvaston|Populated Place|23841|P1|2796|172796067|17|IL|1|067|Hancock|40.3950447|-91.2495909|01/15/1980|03/20/2008
407975|Elwin|Populated Place|23919|U6|2797|172797115|17|IL|1|115|Macon|39.778926|-88.9800771|01/15/1980|
407976|Elwood|Populated Place|23945|P1|2800|172800197|17|IL|1|197|Will|41.4039201|-88.1117242|01/15/1980|03/20/2008
407986|Emden|Populated Place|23971|P1|2810|172810107|17|IL|1|107|Logan|40.2986538|-89.4851011|01/15/1980|03/20/2008
407987|Emerald Park|Populated Place|23997|U6|||17|IL|1|111|McHenry|42.318911|-88.2503636|01/15/1980|
407990|Emerson|Populated Place|24023|U6|2812|172812195|17|IL|1|195|Whiteside|41.8061411|-89.7648333|01/15/1980|
408005|Emington|Populated Place|24062|P1|2815|172815105|17|IL|1|105|Livingston|40.9697547|-88.3581096|01/15/1980|03/20/2008
408006|Emma|Populated Place|24075|U6|2817|172817193|17|IL|1|193|White|37.974768|-88.1203131|01/15/1980|
408023|Energy|Populated Place|24166|P1|2820|172820199|17|IL|1|199|Williamson|37.7739389|-89.0264634|01/15/1980|03/20/2008
408024|Enfield|Populated Place|24179|P1|2830|172830193|17|IL|1|193|White|38.0994913|-88.3375447|01/15/1980|03/20/2008
408028|Englewood|Populated Place|24218|U4|||17|IL|1|031|Cook|41.7797559|-87.6458836|01/15/1980|
408038|Enterprise|Populated Place|24283|U6|||17|IL|1|191|Wayne|38.5222707|-88.357546|01/15/1980|
408049|Epplyanna|Populated Place|24315|U6|||17|IL|1|177|Stephenson|42.4250148|-89.444282|01/15/1980|
408050|Epworth|Populated Place|24322|U6|||17|IL|1|193|White|38.0706018|-88.1061465|01/15/1980|
408051|Equality|Populated Place|24348|P1|2840|172840059|17|IL|1|059|Gallatin|37.733936|-88.343376|01/15/1980|03/20/2008
408054|Erie|Populated Place|24374|P1|2850|172850195|17|IL|1|195|Whiteside|41.6564203|-90.0792859|01/15/1980|03/20/2008
408061|Essex|Populated Place|24452|P1|2857|172857091|17|IL|1|091|Kankakee|41.1772542|-88.1856117|01/15/1980|03/20/2008
408070|Etna|Populated Place|24517|U6|||17|IL|1|029|Coles|39.3894802|-88.4197704|01/15/1980|
408082|Eureka|Populated Place|24543|P1|2860|172860203|17|IL|1|203|Woodford|40.7214251|-89.2728627|01/15/1980|03/20/2008
408101|Evanston|Populated Place|24582|P1|2870|172870031|17|IL|1|031|Cook|42.0411414|-87.6900587|01/15/1980|03/20/2008
408104|Evansville|Populated Place|24608|P1|2880|172880157|17|IL|1|157|Randolph|38.0903289|-89.9384406|01/15/1980|03/20/2008
408122|Evergreen Park|Populated Place|24634|P1|2890|172890031|17|IL|1|031|Cook|41.720589|-87.7017175|01/15/1980|03/20/2008
408133|Ewing|Populated Place|24673|P1|2900|172900055|17|IL|1|055|Franklin|38.0886603|-88.852287|01/15/1980|03/20/2008
408143|Exeter|Populated Place|24699|P1|||17|IL|1|171|Scott|39.7208791|-90.4965142|01/15/1980|03/20/2008
408144|Exline|Populated Place|24712|U6|||17|IL|1|091|Kankakee|41.1500328|-87.7683727|01/15/1980|
408147|Exposition View|Populated Place|24721|U6|||17|IL|1|089|Kane|41.7925289|-88.3436841|01/15/1980|
408158|Fairbury|Populated Place|24764|P1|2910|172910105|17|IL|1|105|Livingston|40.7472566|-88.5147789|01/15/1980|03/20/2008
408161|Fairfield|Populated Place|24816|P1|2920|172920191|17|IL|1|191|Wayne|38.378937|-88.3597684|01/15/1980|03/20/2008
408173|Fair Haven|Populated Place|24868|U6|||17|IL|1|015|Carroll|41.945583|-89.9292874|09/30/1999|
408176|Fairland|Populated Place|24894|U6|||17|IL|1|041|Douglas|39.876422|-88.1017069|01/15/1980|
408176|Fairland|Populated Place|24894|U6|||17|IL|2|019|Champaign|39.876422|-88.1017069|01/15/1980|
408180|Fairmont|Populated Place|24920|U5|2940|172940197|17|IL|1|197|Will|41.5561421|-88.0592251|01/15/1980|03/20/2008
408182|Fairmount|Populated Place|24985|P1|2928|172928183|17|IL|1|183|Vermilion|40.0455911|-87.8305838|01/15/1980|03/20/2008
408187|Fairview|Populated Place|25063|P1|2960|172960057|17|IL|1|057|Fulton|40.6333724|-90.1637318|01/15/1980|03/20/2008
408257|Falmouth|Populated Place|25297|U6|||17|IL|1|079|Jasper|39.0547641|-88.1455939|01/15/1980|
408260|Fancher|Populated Place|25310|U6|||17|IL|1|173|Shelby|39.2675419|-88.7731187|01/15/1980|
408265|Fancy Prairie|Populated Place|25336|U6|2965|172965129|17|IL|1|129|Menard|39.9975492|-89.5995483|01/15/1980|
408266|Fandon|Populated Place|25349|U6|||17|IL|1|109|McDonough|40.3683757|-90.7615201|01/15/1980|
408270|Farina|Populated Place|25375|P1|2970|172970051|17|IL|1|051|Fayette|38.8342128|-88.7722761|01/15/1980|03/20/2008
408277|Farmer City|Populated Place|25414|P1|2980|172980039|17|IL|1|039|De Witt|40.2433676|-88.6425668|01/15/1980|03/20/2008
408285|Farmersville|Populated Place|25440|P1|2990|172990135|17|IL|1|135|Montgomery|39.4433854|-89.6517619|01/15/1980|03/20/2008
408289|Campbell|Populated Place|10760|U6|||17|IL|1|029|Coles|39.3958693|-88.2111523|01/15/1980|
408290|Farmington|Populated Place|25531|P1|3000|173000057|17|IL|1|057|Fulton|40.6980933|-90.0059483|01/15/1980|05/12/2014
408306|Fayette|Populated Place|25687|U6|||17|IL|1|061|Greene|39.3200466|-90.1537229|01/15/1980|
408322|Fenton|Populated Place|25804|U6|3003|173003195|17|IL|1|195|Whiteside|41.7305855|-90.0301192|01/15/1980|
408327|Fergestown|Populated Place|25843|U6|||17|IL|1|199|Williamson|37.7925498|-88.9647937|01/15/1980|
408334|Ferndale|Populated Place|25852|U6|||17|IL|1|111|McHenry|42.3019668|-88.241474|01/15/1980|
408336|Fernway Park|Populated Place|25860|U6|||17|IL|1|031|Cook|41.5869774|-87.8300518|01/15/1980|
408341|Ferrin|Populated Place|25882|U6|||17|IL|1|027|Clinton|38.6094931|-89.2334069|01/15/1980|
408343|Ferris|Populated Place|25895|P1|3004|173004067|17|IL|1|067|Hancock|40.4689327|-91.1704225|01/15/1980|03/20/2008
408349|Fiatt|Populated Place|25921|U6|3005|173005057|17|IL|1|057|Fulton|40.5603175|-90.1798433|01/15/1980|
408352|Ficklin|Populated Place|25934|U6|3006|173006041|17|IL|1|041|Douglas|39.7986434|-88.3553294|01/15/1980|
408354|Fidelity|Populated Place|25960|P1|3007|173007083|17|IL|1|083|Jersey|39.1528243|-90.1645547|01/15/1980|03/20/2008
408359|Fieldon|Populated Place|26012|P1|3008|173008083|17|IL|1|083|Jersey|39.1086589|-90.4984514|01/15/1980|03/20/2008
408366|Fillmore|Populated Place|26077|P1|3010|173010135|17|IL|1|135|Montgomery|39.115323|-89.2789678|01/15/1980|03/20/2008
408369|Filson|Populated Place|26103|U6|3012|173012041|17|IL|1|041|Douglas|39.6894772|-88.231989|01/15/1980|
408374|Findlay|Populated Place|26116|P1|3020|173020173|17|IL|1|173|Shelby|39.5225372|-88.7536817|01/15/1980|03/20/2008
408396|Fisher|Populated Place|26194|P1|3030|173030019|17|IL|1|019|Champaign|40.3147555|-88.3500541|01/15/1980|03/20/2008
408403|Fishhook|Populated Place|26207|U6|||17|IL|1|149|Pike|39.805603|-90.8854095|01/15/1980|
408411|Fithian|Populated Place|26233|P1|3040|173040183|17|IL|1|183|Vermilion|40.1139242|-87.8730857|01/15/1980|03/20/2008
408416|Five Island Park|Populated Place|26246|U6|||17|IL|1|089|Kane|41.971694|-88.3097994|09/30/1999|
408425|Flagg|Populated Place|26285|U6|||17|IL|1|141|Ogle|41.895863|-89.1409303|01/15/1980|
408428|Flanagan|Populated Place|26311|P1|3050|173050105|17|IL|1|105|Livingston|40.8780891|-88.8611818|01/15/1980|03/20/2008
408445|Flat Rock|Populated Place|26350|P1|3060|173060033|17|IL|1|033|Crawford|38.901711|-87.6716922|01/15/1980|03/20/2008
408449|Flatville|Populated Place|26363|U6|||17|IL|1|019|Champaign|40.2394787|-88.0592063|01/15/1980|
408460|Flickerville|Populated Place|26402|U6|||17|IL|1|091|Kankakee|41.2200319|-87.9561587|01/15/1980|
408465|Flora|Populated Place|26454|P1|3070|173070025|17|IL|1|025|Clay|38.6689364|-88.4856042|01/15/1980|03/20/2008
408469|Florence|Populated Place|26493|U6|||17|IL|1|177|Stephenson|42.2144666|-89.6598379|01/15/1980|
408472|Florid|Populated Place|26545|U6|||17|IL|1|155|Putnam|41.2286473|-89.2809208|01/15/1980|
408473|Flossmoor|Populated Place|26571|P1|3080|173080031|17|IL|1|031|Cook|41.5428123|-87.6847684|01/15/1980|03/20/2008
408474|Flossmoor Highlands|Populated Place|26584|U4|||17|IL|1|031|Cook|41.5461454|-87.7133805|01/15/1980|
408488|Foosland|Populated Place|26662|P1|3085|173085019|17|IL|1|019|Champaign|40.3614224|-88.4281125|01/15/1980|06/11/2014
408503|Forest City|Populated Place|26753|P1|3095|173095125|17|IL|1|125|Mason|40.3700411|-89.8276113|01/15/1980|03/20/2008
408510|Forest Homes|Populated Place|26883|U6|||17|IL|1|119|Madison|38.9144917|-90.0859399|01/15/1980|
408513|Forest Lake|Populated Place|26896|U5|||17|IL|1|097|Lake|42.2075244|-88.0556323|01/15/1980|03/20/2008
408520|Forest Park|Populated Place|26948|U4|||17|IL|1|197|Will|41.5458643|-88.056447|01/15/1980|
408521|Forest Park|Populated Place|26935|P1|3100|173100031|17|IL|1|031|Cook|41.8794758|-87.81367|01/15/1980|03/20/2008
408529|Forest View|Populated Place|26987|P1|3105|173105031|17|IL|1|031|Cook|41.8086431|-87.7933895|01/15/1980|03/20/2008
408539|Forrest|Populated Place|27026|P1|3110|173110105|17|IL|1|105|Livingston|40.7519792|-88.4111647|01/15/1980|03/20/2008
408540|Forreston|Populated Place|27065|P1|3120|173120141|17|IL|1|141|Ogle|42.1261367|-89.5792801|01/15/1980|03/20/2008
408542|Forsyth|Populated Place|27091|P1|3122|173122115|17|IL|1|115|Macon|39.9325368|-88.9511912|01/15/1980|03/20/2008
408563|Fossland|Populated Place|27175|U6|||17|IL|1|097|Lake|42.4944643|-87.9517453|01/15/1980|
408563|Fossland|Populated Place|27175|U6|||55|WI|2|059|Kenosha|42.4944643|-87.9517453|01/15/1980|
408575|Fosterburg|Populated Place|27221|U6|3128|173128119|17|IL|1|119|Madison|38.9717134|-90.0751065|01/15/1980|
408577|Fountain|Populated Place|27247|U6|||17|IL|1|133|Monroe|38.3625537|-90.2828941|01/15/1980|
408583|Fountain Gap|Populated Place|27299|U6|||17|IL|1|133|Monroe|38.3875534|-90.2551152|01/15/1980|
408584|Fountain Green|Populated Place|27312|U6|3127|173127067|17|IL|1|067|Hancock|40.4758758|-90.9693043|01/15/1980|
408586|Four Corners|Populated Place|27335|U6|||17|IL|1|119|Madison|38.7183825|-90.0756617|01/15/1980|
408606|Fowler|Populated Place|27377|U6|3129|173129001|17|IL|1|001|Adams|40.0078243|-91.2584774|01/15/1980|
408611|Fox|Populated Place|27403|U6|||17|IL|1|093|Kendall|41.6230855|-88.4950737|01/15/1980|
408628|Fox Lake|Populated Place|27442|P1|3130|173130097|17|IL|1|097|Lake|42.3966874|-88.1836965|01/15/1980|03/20/2008
408628|Fox Lake|Populated Place|27442|P1|3130|173130111|17|IL|2|111|McHenry|42.3966874|-88.1836965|01/15/1980|03/20/2008
408631|Fox Lake Hills|Populated Place|27455|U5|||17|IL|1|097|Lake|42.4080763|-88.1317505|01/15/1980|03/20/2008
408640|Fox River Estates|Populated Place|27520|U6|||17|IL|1|089|Kane|41.9600274|-88.3097991|01/15/1980|
408641|Fox River Grove|Populated Place|27533|P1|3140|173140111|17|IL|1|111|McHenry|42.2008575|-88.2145259|01/15/1980|03/20/2008
408641|Fox River Grove|Populated Place|27533|P1|3140|173140097|17|IL|2|097|Lake|42.2008575|-88.2145259|01/15/1980|03/20/2008
408642|Port Barrington|Populated Place|61216|P1|||17|IL|1|111|McHenry|42.2425236|-88.2020267|09/30/1999|03/20/2008
408642|Port Barrington|Populated Place|61216|P1|||17|IL|2|097|Lake|42.2425236|-88.2020267|09/30/1999|03/20/2008
408656|Franklin|Populated Place|27663|P1|3170|173170137|17|IL|1|137|Morgan|39.6203259|-90.0440001|01/15/1980|03/20/2008
408663|Franklin Corners|Populated Place|27676|U6|||17|IL|1|195|Whiteside|41.9169723|-89.9106749|01/15/1980|
408665|Franklin Grove|Populated Place|27689|P1|3180|173180103|17|IL|1|103|Lee|41.8416982|-89.3003765|01/15/1980|03/20/2008
408674|Franklin Park|Populated Place|27702|P1|3190|173190031|17|IL|1|031|Cook|41.9353084|-87.865618|01/15/1980|03/20/2008
408703|Franklinville|Populated Place|27728|U6|||17|IL|1|111|McHenry|42.2766886|-88.5112025|01/15/1980|
408710|Frederick|Populated Place|27780|U6|3195|173195169|17|IL|1|169|Schuyler|40.0700475|-90.429014|01/15/1980|
408731|Freeman Spur|Populated Place|27858|P1|3210|173210199|17|IL|1|199|Williamson|37.861161|-88.9972949|01/15/1980|03/20/2008
408731|Freeman Spur|Populated Place|27858|P1|3210|173210055|17|IL|2|055|Franklin|37.861161|-88.9972949|01/15/1980|03/20/2008
408732|Freeport|Populated Place|27884|P1|3220|173220177|17|IL|1|177|Stephenson|42.2966861|-89.6212271|01/15/1980|03/20/2008
408767|Friendsville|Populated Place|28001|U6|||17|IL|1|185|Wabash|38.5031038|-87.8164189|01/15/1980|
408768|Frisco|Populated Place|28014|U6|||17|IL|1|055|Franklin|38.1133822|-88.7783947|01/15/1980|
408782|Fruitland|Populated Place|28092|U6|||17|IL|1|161|Rock Island|41.4714227|-90.5168007|01/15/1980|
408806|Fulton|Populated Place|28144|P1|3230|173230195|17|IL|1|195|Whiteside|41.8672508|-90.1595705|01/15/1980|03/20/2008
408811|Fults|Populated Place|28170|P1|3234|173234133|17|IL|1|133|Monroe|38.1661647|-90.2159496|01/15/1980|03/20/2008
408817|Funkhouser|Populated Place|28183|U6|||17|IL|1|049|Effingham|39.0942094|-88.6211631|01/15/1980|
408842|Galatia|Populated Place|28261|P1|3240|173240165|17|IL|1|165|Saline|37.8406038|-88.6092215|01/15/1980|03/20/2008
408843|Gale|Populated Place|28287|U6|3248|173248003|17|IL|1|003|Alexander|37.2489395|-89.4475883|01/15/1980|
408846|Galena|Populated Place|28300|P1|3250|173250085|17|IL|1|085|Jo Daviess|42.4166744|-90.4290168|01/15/1980|03/20/2008
408847|Galesburg|Populated Place|28326|P1|3260|173260095|17|IL|1|095|Knox|40.9478158|-90.3712395|01/15/1980|03/20/2008
408848|Galesville|Populated Place|28365|U6|||17|IL|1|147|Piatt|40.1553114|-88.5564523|01/15/1980|
408859|Galt|Populated Place|28404|U6|3262|173262195|17|IL|1|195|Whiteside|41.7894746|-89.7623328|01/15/1980|
408860|Galton|Populated Place|28417|U6|3261|173261041|17|IL|1|041|Douglas|39.7394768|-88.300326|01/15/1980|
408870|Ganntown|Populated Place|28469|U6|||17|IL|1|087|Johnson|37.3633857|-88.7842254|01/15/1980|
408874|Garden of Eden|Populated Place|28560|U6|||17|IL|1|091|Kankakee|41.1697563|-87.5617018|01/15/1980|
408877|Garden Heights|Populated Place|28521|U6|||17|IL|1|165|Saline|37.7203258|-88.5269948|01/15/1980|
408879|Garden Plain|Populated Place|28573|U6|||17|IL|1|195|Whiteside|41.8008629|-90.1304022|01/15/1980|
408880|Garden Prairie|Populated Place|28612|U5|3277|173277007|17|IL|1|007|Boone|42.2533549|-88.7248197|01/15/1980|05/17/2018
408882|Gardena|Populated Place|28508|U4|||17|IL|1|179|Tazewell|40.6364271|-89.5053734|01/15/1980|
408884|Gardner|Populated Place|28638|P1|3280|173280063|17|IL|1|063|Grundy|41.1855879|-88.3097828|01/15/1980|03/20/2008
408890|Garfield|Populated Place|28690|U6|||17|IL|1|099|LaSalle|41.0850331|-88.9561893|01/15/1980|
408910|Garrett|Populated Place|28742|P1|3285|173285041|17|IL|1|041|Douglas|39.7986437|-88.4242216|01/15/1980|03/20/2008
408934|Gays|Populated Place|28807|P1|3287|173287139|17|IL|1|139|Moultrie|39.4580898|-88.4939406|01/15/1980|03/20/2008
408935|Gears Ferry|Populated Place|28815|U6|||17|IL|1|085|Jo Daviess|42.3891757|-90.4651281|01/15/1980|
408937|Geff|Populated Place|28820|C4|3288|173288191|17|IL|1|191|Wayne|38.4425483|-88.4042141|01/15/1980|
408940|Geneseo|Populated Place|28846|P1|3290|173290073|17|IL|1|073|Henry|41.4480902|-90.1542849|01/15/1980|03/20/2008
408942|Geneva|Populated Place|28872|P1|3300|173300089|17|IL|1|089|Kane|41.8875281|-88.3053525|01/15/1980|03/20/2008
408956|Georgetown|Populated Place|28963|P1|3320|173320183|17|IL|1|183|Vermilion|39.9753144|-87.6358546|01/15/1980|03/20/2008
408963|Gerlaw|Populated Place|29015|U6|3325|173325187|17|IL|1|187|Warren|40.986982|-90.6018018|01/15/1980|
408973|German Valley|Populated Place|29093|P1|3334|173334177|17|IL|1|177|Stephenson|42.2155786|-89.4734459|01/15/1980|03/20/2008
408974|Germantown|Populated Place|29041|P1|3330|173330027|17|IL|1|027|Clinton|38.5536601|-89.5384209|01/15/1980|03/20/2008
408975|Germantown Hills|Populated Place|29080|P1|||17|IL|1|203|Woodford|40.7664259|-89.467869|01/15/1980|03/20/2008
408990|Gibson City|Populated Place|29125|P1|3340|173340053|17|IL|1|053|Ford|40.4584275|-88.384603|01/15/1980|11/12/2012
408991|Gibsonia|Populated Place|29132|U6|||17|IL|1|059|Gallatin|37.6469926|-88.2625375|01/15/1980|
408992|Gifford|Populated Place|29145|P1|3346|173346019|17|IL|1|019|Champaign|40.305868|-88.0211489|01/15/1980|03/20/2008
408995|Gila|Populated Place|29158|U6|||17|IL|1|079|Jasper|39.112819|-88.2603193|01/15/1980|
408999|Gilberts|Populated Place|29171|P1|3348|173348089|17|IL|1|089|Kane|42.1033585|-88.3728605|01/15/1980|03/20/2008
409000|Gilchrist|Populated Place|29210|U6|||17|IL|1|131|Mercer|41.2053131|-90.6243026|01/15/1980|
409003|Gilead|Populated Place|29223|U6|||17|IL|1|013|Calhoun|39.1242153|-90.667345|01/15/1980|
409018|Gillespie|Populated Place|29236|P1|3350|173350117|17|IL|1|117|Macoupin|39.1297692|-89.8195407|01/15/1980|03/20/2008
409023|Gilletts|Populated Place|29255|U6|||17|IL|1|197|Will|41.5172543|-87.9369979|01/15/1980|
409025|Gillum|Populated Place|29262|U6|||17|IL|1|113|McLean|40.4078135|-88.8995188|01/15/1980|
409026|Gilman|Populated Place|29275|P1|3360|173360075|17|IL|1|075|Iroquois|40.7667015|-87.992262|01/15/1980|03/20/2008
409027|Gilmer|Populated Place|29301|U6|||17|IL|1|097|Lake|42.2350239|-88.0461882|01/15/1980|
409028|Gilmore|Populated Place|29314|U6|||17|IL|1|049|Effingham|38.9875442|-88.7175525|01/15/1980|
409034|Gilson|Populated Place|29340|U5|3363|173363095|17|IL|1|095|Knox|40.8617048|-90.2015111|01/15/1980|01/29/2011
409039|Ginger Hill|Populated Place|29366|U4|||17|IL|1|161|Rock Island|41.4380892|-90.5673578|01/15/1980|
409041|Girard|Populated Place|29392|P1|3370|173370117|17|IL|1|117|Macoupin|39.4464409|-89.7809301|01/15/1980|03/20/2008
409047|Gladstone|Populated Place|29431|P1|3380|173380071|17|IL|1|071|Henderson|40.864483|-90.9612528|01/15/1980|03/20/2008
409050|Glasford|Populated Place|29483|P1|3390|173390143|17|IL|1|143|Peoria|40.5725386|-89.813442|01/15/1980|03/20/2008
409051|Glasgow|Populated Place|29496|P1|||17|IL|1|171|Scott|39.5506029|-90.4801247|01/15/1980|03/20/2008
409053|Glen Carbon|Populated Place|29639|P1|3400|173400119|17|IL|1|119|Madison|38.7483814|-89.983158|01/15/1980|03/20/2008
409062|Glenarm|Populated Place|29548|U6|3395|173395167|17|IL|1|167|Sangamon|39.6236631|-89.6489863|01/15/1980|
409066|Glencoe|Populated Place|29652|P1|3410|173410031|17|IL|1|031|Cook|42.1350268|-87.7581188|01/15/1980|03/20/2008
409067|Glendale|Populated Place|29691|U6|3415|173415151|17|IL|1|151|Pope|37.4556066|-88.6714427|01/15/1980|
409079|Glenview|Populated Place|29938|P1|3430|173430031|17|IL|1|031|Cook|42.0697509|-87.7878408|01/15/1980|03/20/2008
409084|Glenwood|Populated Place|30029|P1|3440|173440031|17|IL|1|031|Cook|41.5425349|-87.6022658|01/15/1980|03/20/2008
409107|Godfrey|Populated Place|30094|P1|3450|173450119|17|IL|1|119|Madison|38.9556031|-90.1867765|01/15/1980|03/20/2008
409110|Godley|Populated Place|30120|P1|3453|173453197|17|IL|1|197|Will|41.2366987|-88.243672|01/15/1980|03/20/2008
409110|Godley|Populated Place|30120|P1|3453|173453063|17|IL|2|063|Grundy|41.2366987|-88.243672|01/15/1980|03/20/2008
409117|Golden|Populated Place|30159|P1|3470|173470001|17|IL|1|001|Adams|40.1092135|-91.0176357|01/15/1980|03/20/2008
409118|Golden Acres|Populated Place|30198|U4|||17|IL|1|143|Peoria|40.7439261|-89.6317649|01/15/1980|
409121|Golden Gate|Populated Place|30250|P1|3473|173473191|17|IL|1|191|Wayne|38.3594924|-88.2042078|01/15/1980|03/20/2008
409128|Golf|Populated Place|30328|P1|3475|173475031|17|IL|1|031|Cook|42.058918|-87.7925629|01/15/1980|03/20/2008
409134|Good Hope|Populated Place|30458|P1|3480|173480109|17|IL|1|109|McDonough|40.5578178|-90.6734649|01/15/1980|03/20/2008
409147|Goodenow|Populated Place|30419|U6|3478|173478197|17|IL|1|197|Will|41.3914234|-87.6367079|01/15/1980|
409149|Goodfield|Populated Place|30445|P1|3479|173479203|17|IL|1|203|Woodford|40.6297593|-89.2748084|01/15/1980|03/20/2008
409149|Goodfield|Populated Place|30445|P1|3479|173479179|17|IL|2|179|Tazewell|40.6297593|-89.2748084|01/15/1980|03/20/2008
409151|Goodings Grove|Populated Place|30471|U4|||17|IL|1|197|Will|41.6291984|-87.9308893|01/15/1980|03/20/2008
409153|Goodrich|Populated Place|30484|U6|||17|IL|1|091|Kankakee|41.1089209|-88.0581043|01/15/1980|
409157|Goodwine|Populated Place|30497|U6|3482|173482075|17|IL|1|075|Iroquois|40.5672584|-87.7844742|01/15/1980|
409195|Gordon|Populated Place|30562|U6|||17|IL|1|033|Crawford|39.0080979|-87.6847479|01/15/1980|
409199|Goreville|Populated Place|30575|P1|3490|173490087|17|IL|1|087|Johnson|37.5544953|-88.9722932|01/15/1980|03/20/2008
409200|Gorham|Populated Place|30588|P1|3500|173500077|17|IL|1|077|Jackson|37.718384|-89.4859292|01/15/1980|03/20/2008
409204|Goeselville|Populated Place|30125|U6|||17|IL|1|031|Cook|41.6241999|-87.7850513|01/15/1980|
409237|Grafton|Populated Place|30653|P1|3510|173510083|17|IL|1|083|Jersey|38.9700484|-90.4315046|01/15/1980|03/20/2008
409255|Grand Detour|Populated Place|30705|U5|||17|IL|1|141|Ogle|41.896698|-89.4117704|01/15/1980|01/29/2011
409266|Grand Ridge|Populated Place|30757|P1|3520|173520099|17|IL|1|099|LaSalle|41.2369791|-88.8314652|01/15/1980|03/20/2008
409268|Grand Tower|Populated Place|30770|P1|3530|173530077|17|IL|1|077|Jackson|37.6264389|-89.4978743|01/15/1980|03/20/2008
409274|Grandview|Populated Place|30809|U6|3540|173540045|17|IL|1|045|Edgar|39.541146|-87.8461422|01/15/1980|
409275|Grandview|Populated Place|30835|P1|3540|173540167|17|IL|1|167|Sangamon|39.8164391|-89.6187102|01/15/1980|03/20/2008
409282|Granite City|Populated Place|30926|P1|3550|173550119|17|IL|1|119|Madison|38.7014389|-90.1487199|01/15/1980|03/20/2008
409293|Grant Park|Populated Place|30991|P1|3560|173560091|17|IL|1|091|Kankakee|41.2411449|-87.6461491|01/15/1980|03/20/2008
409313|Grantfork|Populated Place|30978|P1|3555|173555119|17|IL|1|119|Madison|38.8300469|-89.6656453|01/15/1980|03/20/2008
409314|Grantsburg|Populated Place|31004|U6|3564|173564087|17|IL|1|087|Johnson|37.3908854|-88.7470015|01/15/1980|
409316|Granville|Populated Place|31017|P1|3570|173570155|17|IL|1|155|Putnam|41.2611471|-89.2275863|01/15/1980|03/20/2008
409318|Grape Creek|Populated Place|31043|U6|||17|IL|1|183|Vermilion|40.0678146|-87.5986309|01/15/1980|
409354|Graymont|Populated Place|31095|U6|3577|173577105|17|IL|1|105|Livingston|40.8778114|-88.7770117|01/15/1980|
409356|Grays Corner|Populated Place|31115|U6|||17|IL|1|101|Lawrence|38.6433806|-87.7219718|01/15/1980|
409358|Grayslake|Populated Place|31121|P1|3580|173580097|17|IL|1|097|Lake|42.3444664|-88.041746|01/15/1980|03/20/2008
409359|Grayville|Populated Place|31165|P1|3590|173590047|17|IL|1|047|Edwards|38.257547|-87.9936436|01/15/1980|03/20/2008
409359|Grayville|Populated Place|31165|P1|3590|173590193|17|IL|2|193|White|38.257547|-87.9936436|01/15/1980|03/20/2008
409371|Green Acres|Populated Place|31212|U6|||17|IL|1|167|Sangamon|39.8933832|-89.6734361|01/15/1980|
409377|Green Creek|Populated Place|31290|U6|||17|IL|1|049|Effingham|39.2028179|-88.5233829|01/15/1980|
409396|Green River|Populated Place|31472|U6|3604|173604073|17|IL|1|073|Henry|41.4755901|-90.3192923|01/15/1980|
409401|Green Rock|Populated Place|31485|U4|3605|173605073|17|IL|1|073|Henry|41.47309|-90.3576273|01/15/1980|03/20/2008
409419|Greenbush|Populated Place|31264|U6|||17|IL|1|187|Warren|40.7119841|-90.5354091|01/15/1980|
409429|Greenfield|Populated Place|31368|P1|3600|173600061|17|IL|1|061|Greene|39.3436577|-90.2126145|01/15/1980|03/20/2008
409442|Greenup|Populated Place|31524|P1|3610|173610035|17|IL|1|035|Cumberland|39.2478159|-88.1633719|01/15/1980|03/20/2008
409443|Greenview|Populated Place|31576|P1|3630|173630129|17|IL|1|129|Menard|40.0831024|-89.7381633|01/15/1980|03/20/2008
409446|Greenville|Populated Place|31589|P1|3640|173640005|17|IL|1|005|Bond|38.8922687|-89.4131356|01/15/1980|03/20/2008
409450|Greenwich|Populated Place|31628|U6|||17|IL|1|091|Kankakee|41.1183655|-87.9269886|01/15/1980|
409451|Greenwood|Populated Place|31667|P1|||17|IL|1|111|McHenry|42.3925202|-88.3892586|01/15/1980|03/20/2008
409494|Gridley|Populated Place|31732|P1|3650|173650113|17|IL|1|113|McLean|40.7433682|-88.8814578|01/15/1980|03/20/2008
409508|Griggsville|Populated Place|31771|P1|3660|173660149|17|IL|1|149|Pike|39.7089362|-90.7245722|01/15/1980|03/20/2008
409513|Grimsby|Populated Place|31810|U6|3664|173664077|17|IL|1|077|Jackson|37.7503287|-89.4492609|01/15/1980|
409528|Gross Point|Populated Place|31880|U6|||17|IL|1|031|Cook|42.0789178|-87.7225607|01/15/1980|
409535|Grove City|Populated Place|31901|U6|||17|IL|1|021|Christian|39.7067111|-89.2970287|01/15/1980|
409549|Groveland|Populated Place|31927|U6|3666|173666179|17|IL|1|179|Tazewell|40.5925386|-89.5345422|01/15/1980|
409559|Gulfport|Populated Place|31992|C4|3667|173667071|17|IL|1|071|Henderson|40.813928|-91.0862558|01/15/1980|03/20/2008
409577|Gurnee|Populated Place|32018|P1|3670|173670097|17|IL|1|097|Lake|42.3702996|-87.9020186|01/15/1980|03/20/2008
409581|Guthrie|Populated Place|32044|U6|3675|173675053|17|IL|1|053|Ford|40.5083675|-88.3250522|01/15/1980|
409604|Haegers Bend|Populated Place|32083|U6|||17|IL|1|111|McHenry|42.1889132|-88.2606381|01/15/1980|
409606|Hagarstown|Populated Place|32122|U6|3674|173674051|17|IL|1|051|Fayette|38.943379|-89.1684029|01/15/1980|
409618|Hainesville|Populated Place|32200|P1|3679|173679097|17|IL|1|097|Lake|42.3450219|-88.067858|01/15/1980|03/20/2008
409620|Haldane|Populated Place|32213|U6|||17|IL|1|141|Ogle|42.0625277|-89.5740015|01/15/1980|
409634|Half Day|Populated Place|32239|U6|3672|173672097|17|IL|1|097|Lake|42.2011357|-87.9334053|01/15/1980|
409668|Hallidayboro|Populated Place|32278|U6|3676|173676077|17|IL|1|077|Jackson|37.8889394|-89.2370278|01/15/1980|
409674|Hallsville|Populated Place|32330|U6|||17|IL|1|039|De Witt|40.1508719|-89.0928633|01/15/1980|05/17/2018
409685|Hamburg|Populated Place|32395|P1|3677|173677013|17|IL|1|013|Calhoun|39.230048|-90.7176242|01/15/1980|03/20/2008
409688|Hamel|Populated Place|32408|P1|3678|173678119|17|IL|1|119|Madison|38.8889357|-89.845375|01/15/1980|03/20/2008
409689|Hamilton|Populated Place|32434|P1|3680|173680067|17|IL|1|067|Hancock|40.3964333|-91.3390389|01/15/1980|03/20/2008
409704|Hamlet|Populated Place|32473|U6|||17|IL|1|131|Mercer|41.3139222|-90.7351402|01/15/1980|
409706|Hamletsburg|Populated Place|32486|U6|3685|173685151|17|IL|1|151|Pope|37.1386668|-88.4317064|01/15/1980|03/20/2008
409714|Hammond|Populated Place|32499|P1|3690|173690147|17|IL|1|147|Piatt|39.7969783|-88.5917296|01/15/1980|03/20/2008
409720|Hampshire|Populated Place|32525|P1|3700|173700089|17|IL|1|089|Kane|42.0978028|-88.5303643|01/15/1980|03/20/2008
409723|Hampton|Populated Place|32564|P1|3710|173710161|17|IL|1|161|Rock Island|41.5558667|-90.4092971|01/15/1980|03/20/2008
409731|Logan|Populated Place|32616|C4|4924|174924055|17|IL|1|055|Franklin|37.9558825|-88.8403427|01/15/1980|03/20/2008
409747|Hanna City|Populated Place|32668|P1|3720|173720143|17|IL|1|143|Peoria|40.6917043|-89.7951061|01/15/1980|03/20/2008
409751|Hanover|Populated Place|32707|P1|3730|173730085|17|IL|1|085|Jo Daviess|42.2564051|-90.2795734|01/15/1980|03/20/2008
409766|Harco|Populated Place|32837|U6|3738|173738165|17|IL|1|165|Saline|37.7958818|-88.6500566|01/15/1980|
409767|Hardin|Populated Place|32850|P1|3740|173740013|17|IL|1|013|Calhoun|39.1567149|-90.6178995|01/15/1980|03/20/2008
409771|Harding|Populated Place|32876|U6|||17|IL|1|099|LaSalle|41.5150314|-88.8495221|01/15/1980|
409774|Hardinville|Populated Place|32889|U6|||17|IL|1|033|Crawford|38.9161551|-87.8369743|01/15/1980|
409785|Harlem|Populated Place|32915|U6|||17|IL|1|201|Winnebago|42.3402964|-89.017884|01/15/1980|
409794|Harmon|Populated Place|32967|P1|3745|173745103|17|IL|1|103|Lee|41.722811|-89.5539905|01/15/1980|03/20/2008
409799|Harmony|Populated Place|33019|U6|||17|IL|1|111|McHenry|42.161135|-88.5264772|01/15/1980|
409820|Harper|Populated Place|33071|U6|||17|IL|1|141|Ogle|42.1414135|-89.6473371|01/15/1980|
409850|Harrisburg|Populated Place|33136|P1|3750|173750165|17|IL|1|165|Saline|37.7383812|-88.540607|01/15/1980|03/20/2008
409852|Harrison|Populated Place|33162|U5|||17|IL|1|077|Jackson|37.7967175|-89.337033|01/15/1980|01/29/2011
409853|Harrison|Populated Place|33175|U6|||17|IL|1|201|Winnebago|42.4272375|-89.1915002|01/15/1980|
409867|Harrisonville|Populated Place|33214|U6|||17|IL|1|133|Monroe|38.2775544|-90.3501191|01/15/1980|
