FEATURE_ID|FEATURE_NAME|FEATURE_CLASS|CENSUS_CODE|CENSUS_CLASS_CODE|GSA_CODE|OPM_CODE|STATE_NUMERIC|STATE_ALPHA|COUNTY_SEQUENCE|COUNTY_NUMERIC|COUNTY_NAME|PRIMARY_LATITUDE|PRIMARY_LONGITUDE|DATE_CREATED|DATE_EDITED
942058|Apulia|Populated Place|02341|U6|||36|NY|1|067|Onondaga|42.823956|-76.0535345|01/23/1980|04/09/2009
942060|Apulia Station|Populated Place|02363|U6|0226|360226067|36|NY|1|067|Onondaga|42.8186783|-76.072424|01/23/1980|
942063|Collingwood|Populated Place|17167|U6|||36|NY|1|067|Onondaga|42.8675669|-76.0829793|01/23/1980|
942082|Tully|Populated Place|75627|P1|6140|366140067|36|NY|1|067|Onondaga|42.798123|-76.1093696|01/23/1980|03/17/2008
942083|Tully Center|Populated Place|75642|U6|||36|NY|1|067|Onondaga|42.7989563|-76.1221478|01/23/1980|
942120|Abbotts|Populated Place|00122|U6|||36|NY|1|009|Cattaraugus|42.257011|-78.3186277|01/23/1980|09/19/2007
942123|Abell Corners|Populated Place|00127|U6|||36|NY|1|053|Madison|42.8984002|-75.8282462|01/23/1980|
942147|Accord|Populated Place|00155|U5|0005|360005111|36|NY|1|111|Ulster|41.7856489|-74.2290366|01/23/1980|03/17/2008
942155|Acra|Populated Place|00177|U6|0008|360008039|36|NY|1|039|Greene|42.3109186|-74.0554126|01/23/1980|
942159|Adams|Populated Place|00199|P1|0010|360010045|36|NY|1|045|Jefferson|43.8092321|-76.0240892|01/23/1980|07/20/2009
942160|Adams Basin|Populated Place|00221|U6|||36|NY|1|055|Monroe|43.1975608|-77.853899|01/23/1980|10/22/2007
942163|Adams Center|Populated Place|00232|U5|||36|NY|1|045|Jefferson|43.8600635|-76.0054785|01/23/1980|03/17/2008
942164|Adams Corners|Populated Place|00243|U6|||36|NY|1|079|Putnam|41.3534271|-73.8395797|01/23/1980|12/11/2014
942165|Adams Cove|Populated Place|00254|U6|||36|NY|1|045|Jefferson|44.0064459|-76.1585386|01/23/1980|
942173|Adamsville|Populated Place|00265|U6|||36|NY|1|115|Washington|43.320906|-73.4731679|01/23/1980|
942177|Addison|Populated Place|00276|P1|0020|360020101|36|NY|1|101|Steuben|42.1028514|-77.2335879|01/23/1980|03/17/2008
942180|Adelphi|Populated Place|00309|U4|||36|NY|1|047|Kings|40.6809364|-73.9645828|01/23/1980|
942185|Adirondack|Populated Place|00320|U6|0022|360022113|36|NY|1|113|Warren|43.7639539|-73.7584623|01/23/1980|09/19/2007
942193|Adrian|Populated Place|00331|U6|||36|NY|1|101|Steuben|42.2545161|-77.5208197|01/23/1980|09/19/2007
942198|Afton|Populated Place|00342|P1|0030|360030017|36|NY|1|017|Chenango|42.228136|-75.5265715|01/23/1980|03/17/2008
942205|Agnes Corners|Populated Place|00370|U6|||36|NY|1|065|Oneida|43.1759023|-75.6062916|01/23/1980|
942224|Akron|Populated Place|00441|P1|0040|360040029|36|NY|1|029|Erie|43.0208924|-78.4953015|01/23/1980|03/17/2008
942227|Alabama|Populated Place|00463|U6|0042|360042037|36|NY|1|037|Genesee|43.0964478|-78.3908559|01/23/1980|07/15/2009
942241|Albertson|Populated Place|01011|U5|0055|360055059|36|NY|1|059|Nassau|40.7734341|-73.6431844|01/23/1980|03/17/2008
942244|Albia|Populated Place|01022|U6|||36|NY|1|083|Rensselaer|42.703412|-73.6517842|01/23/1980|
942246|Albion|Populated Place|01033|P1|0060|360060073|36|NY|1|073|Orleans|43.2464477|-78.193632|01/23/1980|04/14/2009
942250|Alburg|Populated Place|01070|U6|||36|NY|1|033|Franklin|44.7772765|-74.5815683|01/23/1980|03/02/2007
942253|Alcove|Populated Place|01077|U6|0065|360065001|36|NY|1|001|Albany|42.4686918|-73.9256839|01/23/1980|09/19/2007
942255|Alden|Populated Place|01088|P1|0070|360070029|36|NY|1|029|Erie|42.9000596|-78.4919671|01/23/1980|03/17/2008
942256|Alden Center|Populated Place|01121|U6|||36|NY|1|029|Erie|42.9111705|-78.523357|01/23/1980|03/02/2007
942258|Alden Manor|Populated Place|01132|U6|||36|NY|1|059|Nassau|40.6942695|-73.7176314|01/23/1980|
942276|Alder Creek|Populated Place|01143|U6|||36|NY|1|065|Oneida|43.4234022|-75.2279451|01/23/1980|10/22/2007
942298|Alene|Populated Place|01150|U6|||36|NY|1|053|Madison|43.0122894|-75.7368518|01/23/1980|
942301|Alexander|Populated Place|01154|P1|0080|360080037|36|NY|1|037|Genesee|42.9011711|-78.2566834|01/23/1980|12/24/2008
942309|Alexandria Bay|Populated Place|01187|P1|0090|360090045|36|NY|1|045|Jefferson|44.3358836|-75.9177309|01/23/1980|03/17/2008
942310|Alexandria Center|Populated Place|01192|U6|||36|NY|1|045|Jefferson|44.3075516|-75.8760616|01/23/1980|
942313|Alfred|Populated Place|01198|P1|0100|360100003|36|NY|1|003|Allegany|42.2542366|-77.7905509|01/23/1980|03/17/2008
942315|Alfred Station|Populated Place|01231|U6|0101|360101003|36|NY|1|003|Allegany|42.2697921|-77.7591607|01/23/1980|09/19/2007
942337|Allaben|Populated Place|01264|U6|||36|NY|1|111|Ulster|42.1167564|-74.3704267|01/23/1980|
942341|Allegany|Populated Place|01286|P1|0110|360110009|36|NY|1|009|Cattaraugus|42.0900647|-78.4941887|01/23/1980|06/12/2008
942354|Allen Corners|Populated Place|01335|U6|||36|NY|1|079|Putnam|41.4706489|-73.7487429|01/23/1980|
942370|Allens Hill|Populated Place|01352|U6|||36|NY|1|069|Ontario|42.8408976|-77.5149937|01/23/1980|10/24/2007
942373|Allentown|Populated Place|01363|U6|0115|360115003|36|NY|1|003|Allegany|42.0836783|-78.0644508|01/23/1980|
942381|Alligerville|Populated Place|01396|U6|||36|NY|1|111|Ulster|41.7959265|-74.1790347|01/23/1980|
942385|Alloway|Populated Place|01407|U6|||36|NY|1|117|Wayne|43.0236745|-76.9885786|01/23/1980|
942387|Alma|Populated Place|01418|U6|0117|360117003|36|NY|1|003|Allegany|42.0125667|-78.0577834|01/23/1980|09/19/2007
942389|Almond|Populated Place|01440|P1|0120|360120003|36|NY|1|003|Allegany|42.3222916|-77.738327|01/23/1980|03/17/2008
942391|Aloquin|Populated Place|01462|U6|||36|NY|1|069|Ontario|42.8608988|-77.1449749|01/23/1980|09/19/2007
942392|Alpine|Populated Place|01473|U6|0106|360106097|36|NY|1|097|Schuyler|42.3131298|-76.7241178|01/23/1980|
942393|Alplaus|Populated Place|01484|U6|0125|360125093|36|NY|1|093|Schenectady|42.8553542|-73.8990122|01/23/1980|
942397|Altamont|Populated Place|01517|P1|0130|360130001|36|NY|1|001|Albany|42.7006324|-74.0337382|01/23/1980|10/24/2014
942400|Altay|Populated Place|01539|U6|||36|NY|1|097|Schuyler|42.4395165|-77.0199665|01/23/1980|09/19/2007
942401|Altmar|Populated Place|01550|U5|0140|360140075|36|NY|1|075|Oswego|43.5100703|-76.002142|01/23/1980|07/10/2015
942402|Alton|Populated Place|01561|U6|0141|360141117|36|NY|1|117|Wayne|43.2111765|-76.9805232|01/23/1980|
942404|Altona|Populated Place|01572|U5|0142|360142019|36|NY|1|019|Clinton|44.8883722|-73.6556985|01/23/1980|03/17/2008
942409|Amagansett|Populated Place|01594|U5|0145|360145103|36|NY|1|103|Suffolk|40.9737117|-72.1436884|01/23/1980|06/26/2009
942413|Amber|Populated Place|01616|U6|||36|NY|1|067|Onondaga|42.8872893|-76.2965968|01/23/1980|
942418|Amblerville|Populated Place|01632|U6|||36|NY|1|017|Chenango|42.5411855|-75.399898|01/23/1980|
942419|Amboy|Populated Place|01638|U6|0146|360146067|36|NY|1|067|Onondaga|43.069511|-76.2724287|01/23/1980|
942420|Amboy Center|Populated Place|01660|U6|||36|NY|1|075|Oswego|43.3689585|-75.9418611|01/23/1980|10/24/2007
942425|Amenia|Populated Place|01682|U5|0147|360147027|36|NY|1|027|Dutchess|41.8492599|-73.5567919|01/23/1980|07/13/2009
942426|Amenia Union|Populated Place|01704|U6|||36|NY|1|027|Dutchess|41.8245378|-73.5051244|01/23/1980|09/19/2007
942431|Ames|Populated Place|01737|P1|0150|360150057|36|NY|1|057|Montgomery|42.8375737|-74.6015301|01/23/1980|03/17/2008
942435|Amity|Populated Place|02022|U6|0159|360159071|36|NY|1|071|Orange|41.2681501|-74.4548793|01/23/1980|09/19/2007
942438|Amity Harbor|Populated Place|02033|U6|||36|NY|1|103|Suffolk|40.6634339|-73.398178|01/23/1980|
942440|Amityville|Populated Place|02044|P1|0160|360160103|36|NY|1|103|Suffolk|40.6789893|-73.4170673|01/23/1980|03/17/2008
942450|Amsterdam|Populated Place|02066|P1|0170|360170057|36|NY|1|057|Montgomery|42.9386856|-74.1881858|01/23/1980|03/17/2008
942451|Anaquassacook|Populated Place|02082|U6|||36|NY|1|115|Washington|43.0747992|-73.3123325|01/23/1980|
942454|Ancram|Populated Place|02088|U6|0175|360175021|36|NY|1|021|Columbia|42.0506467|-73.6362361|01/23/1980|
942456|Ancramdale|Populated Place|02110|U6|0177|360177021|36|NY|1|021|Columbia|42.0181473|-73.5912358|01/23/1980|
942457|Anderson|Populated Place|02115|U6|||36|NY|1|105|Sullivan|41.9031455|-74.7068254|01/23/1980|
942462|Andes|Populated Place|02121|U5|0180|360180025|36|NY|1|025|Delaware|42.1886976|-74.7857138|01/23/1980|01/29/2011
942463|Andover|Populated Place|02143|P1|0190|360190003|36|NY|1|003|Allegany|42.1564581|-77.7955509|01/23/1980|03/17/2008
942478|Angelica|Populated Place|02176|P1|0200|360200003|36|NY|1|003|Allegany|42.3067345|-78.0158388|01/23/1980|09/22/2008
942483|Angola|Populated Place|02198|P1|0210|360210029|36|NY|1|029|Erie|42.6383925|-79.0278156|01/23/1980|07/01/2009
942484|Angola Lake Shore Addition|Populated Place|02215|U6|||36|NY|1|029|Erie|42.6181143|-79.0983725|01/23/1980|
942490|Annadale|Populated Place|02231|U4|||36|NY|1|085|Richmond|40.5445496|-74.1765324|01/23/1980|
942492|Annandale-on-Hudson|Populated Place|02242|U6|0215|360215027|36|NY|1|027|Dutchess|42.0128695|-73.9081901|01/23/1980|
942493|Annsville|Populated Place|02264|U6|||36|NY|1|119|Westchester|41.3075939|-73.927916|01/23/1980|
942512|Antrim|Populated Place|02280|U6|||36|NY|1|087|Rockland|41.1239845|-74.1412554|01/23/1980|
942514|Antwerp|Populated Place|02286|P1|0220|360220045|36|NY|1|045|Jefferson|44.1992272|-75.6068791|01/23/1980|03/17/2008
942517|Apalachin|Populated Place|02308|U5|0221|360221107|36|NY|1|107|Tioga|42.0695189|-76.1546504|01/23/1980|03/17/2008
942518|Apaquogue|Populated Place|02313|U6|||36|NY|1|103|Suffolk|40.9428778|-72.2120243|01/23/1980|
942520|Applegate Corner|Populated Place|02327|U6|||36|NY|1|109|Tompkins|42.4514615|-76.6113346|01/23/1980|
942521|Appleton|Populated Place|02330|U6|0224|360224063|36|NY|1|063|Niagara|43.3275563|-78.6480878|01/23/1980|09/19/2007
942523|Aquebogue|Populated Place|02374|U5|0227|360227103|36|NY|1|103|Suffolk|40.9445438|-72.6270382|01/23/1980|03/17/2008
942524|Aqueduct|Populated Place|02385|U6|||36|NY|1|093|Schenectady|42.8481321|-73.8890119|01/23/1980|
942525|Aquetuck|Populated Place|02396|U6|||36|NY|1|001|Albany|42.4606372|-73.8384585|01/23/1980|
942534|Arcade|Populated Place|02407|P1|0230|360230121|36|NY|1|121|Wyoming|42.5339513|-78.4230737|01/23/1980|09/22/2014
942540|Archville|Populated Place|02462|U6|||36|NY|1|119|Westchester|41.1217626|-73.8612466|01/23/1980|
942543|Ardonia|Populated Place|02495|U6|||36|NY|1|111|Ulster|41.6759268|-74.0726425|01/23/1980|10/03/2014
942544|Ardsley|Populated Place|02506|P1|0240|360240119|36|NY|1|119|Westchester|41.0106531|-73.8437452|01/23/1980|03/17/2008
942546|Ardsley-on-Hudson|Populated Place|02517|U4|||36|NY|1|119|Westchester|41.0250973|-73.8704127|01/23/1980|06/08/2007
942547|Arena|Populated Place|02522|U6|||36|NY|1|025|Delaware|42.1156434|-74.7373795|01/23/1980|11/13/2009
942549|Argusville|Populated Place|02539|U6|||36|NY|1|095|Schoharie|42.7906299|-74.519027|01/23/1980|09/19/2007
942550|Argyle|Populated Place|02550|P1|0250|360250115|36|NY|1|115|Washington|43.2378519|-73.4915018|01/23/1980|03/17/2008
942552|Arietta|Populated Place|02566|U6|||36|NY|1|041|Hamilton|43.246181|-74.5176433|01/23/1980|
942554|Arkport|Populated Place|02583|P1|0260|360260101|36|NY|1|101|Steuben|42.3945133|-77.6966596|01/23/1980|03/17/2008
942556|Arkville|Populated Place|02594|U6|0265|360265025|36|NY|1|025|Delaware|42.1478659|-74.6198771|01/23/1980|12/03/2014
942560|Arlington|Populated Place|02627|U4|||36|NY|1|085|Richmond|40.6323257|-74.1651437|01/23/1980|
942561|Arlington|Populated Place|02616|U5|0270|360270027|36|NY|1|027|Dutchess|41.6959269|-73.8968025|01/23/1980|03/17/2008
942567|Armonk|Populated Place|02649|U5|0275|360275119|36|NY|1|119|Westchester|41.1264849|-73.7140195|01/23/1980|10/24/2014
942568|Armor|Populated Place|02660|U6|||36|NY|1|029|Erie|42.7406149|-78.7989204|01/23/1980|
942574|Arnett|Populated Place|02667|U6|||36|NY|1|055|Monroe|43.1439511|-77.6405576|01/23/1980|
942586|Arrochar|Populated Place|02671|U4|||36|NY|1|085|Richmond|40.5984379|-74.0726412|01/23/1980|
942589|Arsenal Hill|Populated Place|02676|U6|||36|NY|1|069|Ontario|42.8833978|-77.2963721|01/23/1980|
942592|Art Village|Populated Place|02710|U6|||36|NY|1|103|Suffolk|40.8839893|-72.4231417|01/23/1980|
942595|Arthur Manor|Populated Place|02693|U4|||36|NY|1|119|Westchester|40.9767648|-73.7929104|01/23/1980|
942598|Arthursburg|Populated Place|02704|U6|||36|NY|1|027|Dutchess|41.6284269|-73.7715204|01/23/1980|03/02/2007
942602|Arverne|Populated Place|02715|U4|||36|NY|1|081|Queens|40.591216|-73.7959669|01/23/1980|
942604|Asbury|Populated Place|02718|U6|||36|NY|1|109|Tompkins|42.5267389|-76.4918843|01/23/1980|
942620|Ashantee|Populated Place|02726|U6|||36|NY|1|051|Livingston|42.8970072|-77.7647254|01/23/1980|
942621|Asharoken|Populated Place|02737|P1|0280|360280103|36|NY|1|103|Suffolk|40.9278757|-73.3598395|01/23/1980|03/17/2008
942629|Ashford|Populated Place|02748|U6|||36|NY|1|009|Cattaraugus|42.3203418|-78.6080818|01/23/1980|
942631|Ashford Hollow|Populated Place|02770|U6|||36|NY|1|009|Cattaraugus|42.403396|-78.6853057|01/23/1980|
942632|Ashland|Populated Place|02792|U6|0281|360281039|36|NY|1|039|Greene|42.3036956|-74.3334789|01/23/1980|09/19/2007
942633|Ashland|Populated Place|02778|U6|||36|NY|1|011|Cayuga|42.7628479|-76.4779931|01/23/1980|
942639|Ashokan|Populated Place|02814|U6|0282|360282111|36|NY|1|111|Ulster|41.975648|-74.1968117|01/23/1980|
942643|Ashville|Populated Place|02825|U6|0283|360283013|36|NY|1|013|Chautauqua|42.096446|-79.3756044|01/23/1980|
942645|Ashwood|Populated Place|02858|U6|||36|NY|1|073|Orleans|43.3278355|-78.3100235|01/23/1980|
942650|Assembly Park|Populated Place|02863|U6|||36|NY|1|067|Onondaga|42.7797898|-76.1302038|01/23/1980|
942661|Astoria|Populated Place|02891|U4|||36|NY|1|081|Queens|40.7720458|-73.9301374|01/23/1980|09/19/2007
942663|Athens|Populated Place|02902|P1|0290|360290039|36|NY|1|039|Greene|42.2603648|-73.8095707|01/23/1980|03/17/2008
942666|Athol Springs|Populated Place|02935|U6|0292|360292029|36|NY|1|029|Erie|42.769781|-78.8664229|01/23/1980|
942668|Atlanta|Populated Place|02946|U6|0294|360294101|36|NY|1|101|Steuben|42.5542347|-77.4724875|01/23/1980|09/19/2007
942673|Atlantic Beach|Populated Place|02968|P1|0295|360295059|36|NY|1|059|Nassau|40.5889936|-73.7290207|01/23/1980|03/17/2008
942675|Atlantique|Populated Place|02990|U6|||36|NY|1|103|Suffolk|40.6417665|-73.1706705|01/23/1980|
942677|Attica|Populated Place|03001|P1|0300|360300121|36|NY|1|121|Wyoming|42.8642267|-78.2802946|01/23/1980|09/22/2014
942678|Attica Center|Populated Place|03023|U6|||36|NY|1|121|Wyoming|42.8156159|-78.2344591|01/23/1980|
942681|Attlebury|Populated Place|03034|U6|||36|NY|1|027|Dutchess|41.9173148|-73.6684608|01/23/1980|
942685|Atwaters|Populated Place|03045|U6|||36|NY|1|011|Cayuga|42.6309045|-76.6496688|01/23/1980|02/26/2007
942686|Atwell|Populated Place|03056|U6|||36|NY|1|043|Herkimer|43.5239572|-74.9443282|01/23/1980|
942687|Atwell Corners|Populated Place|03060|U6|||36|NY|1|053|Madison|42.9247889|-75.9063052|01/23/1980|
942687|Atwell Corners|Populated Place|03060|U6|||36|NY|2|067|Onondaga|42.9247889|-75.9063052|01/23/1980|
942688|Atwood|Populated Place|03067|U6|||36|NY|1|111|Ulster|41.8928705|-74.1598667|01/23/1980|
942692|Auburn|Populated Place|03078|P1|0310|360310011|36|NY|1|011|Cayuga|42.9317335|-76.5660529|01/23/1980|10/15/2008
942699|Augusta|Populated Place|03144|U6|0312|360312065|36|NY|1|065|Oneida|42.9747916|-75.5012871|01/23/1980|
942705|Auriesville|Populated Place|03177|U6|0313|360313057|36|NY|1|057|Montgomery|42.9295183|-74.3165222|01/23/1980|
942707|Aurora|Populated Place|03188|P1|0330|360330011|36|NY|1|011|Cayuga|42.7539591|-76.7024485|01/23/1980|03/17/2008
942709|Ausable Chasm|Populated Place|03232|U6|0316|360316019|36|NY|1|019|Clinton|44.5225475|-73.4651344|01/23/1980|
942712|Austerlitz|Populated Place|03276|U6|0332|360332021|36|NY|1|021|Columbia|42.3117536|-73.4731684|01/23/1980|09/19/2007
942720|Ava|Populated Place|03298|U6|0334|360334065|36|NY|1|065|Oneida|43.4189585|-75.4793436|01/23/1980|09/19/2007
942730|Averill Park|Populated Place|03320|U5|||36|NY|1|083|Rensselaer|42.6339685|-73.5537257|01/23/1980|03/17/2008
942735|Avoca|Populated Place|03331|P1|0340|360340101|36|NY|1|101|Steuben|42.4095147|-77.4213729|01/23/1980|03/17/2008
942736|Avon|Populated Place|03353|P1|0350|360350051|36|NY|1|051|Livingston|42.9120072|-77.7455584|01/23/1980|05/13/2014
942749|Babcock Hill|Populated Place|03386|U6|||36|NY|1|065|Oneida|42.9317372|-75.2207181|01/23/1980|10/22/2007
942753|Babcock Lake|Populated Place|03397|U6|||36|NY|1|083|Rensselaer|42.8134115|-73.4045566|01/23/1980|
942756|Babylon|Populated Place|03408|P1|||36|NY|1|103|Suffolk|40.6956552|-73.3256753|01/23/1980|03/17/2008
942764|Bacon Hill|Populated Place|04011|U6|||36|NY|1|091|Saratoga|43.1334082|-73.6056718|01/23/1980|10/24/2014
942770|Bagdad|Populated Place|04015|U6|||36|NY|1|029|Erie|42.4828389|-78.920034|01/23/1980|
942773|Bailey|Populated Place|04024|U6|||36|NY|1|055|Monroe|43.0725624|-77.6600021|01/23/1980|
942800|Baileys Gap|Populated Place|04026|U6|||36|NY|1|111|Ulster|41.6920378|-74.0001398|01/23/1980|
942802|Baileys Settlement|Populated Place|04028|U6|||36|NY|1|067|Onondaga|42.8870112|-76.1560368|01/23/1980|
942803|Baileyville|Populated Place|04030|U6|||36|NY|1|071|Orange|41.472316|-74.4834921|01/23/1980|
942805|Bainbridge|Populated Place|04033|P1|||36|NY|1|017|Chenango|42.2934131|-75.4793477|01/23/1980|04/28/2014
942807|Bains Corner|Populated Place|04048|U6|||36|NY|1|027|Dutchess|41.7389829|-73.5620704|01/23/1980|
942809|Baird Corners|Populated Place|04052|U6|||36|NY|1|067|Onondaga|43.2222901|-76.4602153|01/23/1980|
942815|Baiting Hollow|Populated Place|04055|U5|||36|NY|1|103|Suffolk|40.9562092|-72.7442665|01/23/1980|03/17/2008
942826|Baker Corners|Populated Place|04062|U6|||36|NY|1|043|Herkimer|43.1095141|-75.1421057|01/23/1980|
942845|Balcom|Populated Place|04088|U6|||36|NY|1|013|Chautauqua|42.3697819|-79.096429|01/23/1980|
942846|Balcom Beach|Populated Place|04099|U6|||36|NY|1|003|Allegany|42.386454|-78.2014004|01/23/1980|
942857|Bald Mountain|Populated Place|04121|U6|||36|NY|1|115|Washington|43.1295197|-73.5381702|01/23/1980|
942888|Baldwin|Populated Place|04143|U5|||36|NY|1|059|Nassau|40.6564913|-73.6092953|01/23/1980|03/17/2008
942889|Baldwin|Populated Place|04137|U6|||36|NY|1|031|Essex|43.809227|-73.4459527|01/23/1980|
942894|Baldwin Corner|Populated Place|04148|U6|||36|NY|1|073|Orleans|43.3386692|-78.1908541|01/23/1980|
942898|Baldwin Harbor|Populated Place|04154|U5|||36|NY|1|059|Nassau|40.6395471|-73.6084621|01/23/1980|03/17/2008
942900|Baldwin Heights|Populated Place|04165|U4|||36|NY|1|009|Cattaraugus|42.0992319|-78.4225195|01/23/1980|
942908|Baldwin Place|Populated Place|04176|U6|||36|NY|1|079|Putnam|41.3475938|-73.7620772|01/23/1980|
942909|Baldwinsville|Populated Place|04198|P1|||36|NY|1|067|Onondaga|43.1586786|-76.3327095|01/23/1980|04/09/2009
942923|Ballard Corners|Populated Place|04203|U6|||36|NY|1|091|Saratoga|43.1531297|-73.681507|01/23/1980|
942927|Ballina|Populated Place|04209|U6|||36|NY|1|053|Madison|42.8978447|-75.847136|01/23/1980|
942932|Ballston Center|Populated Place|04231|U6|||36|NY|1|091|Saratoga|42.955909|-73.8654004|01/23/1980|11/02/2007
942934|Ballston Lake|Populated Place|04242|U6|0389|360389091|36|NY|1|091|Saratoga|42.9117428|-73.8681782|01/23/1980|
942937|Balltown|Populated Place|04264|U6|||36|NY|1|013|Chautauqua|42.4906154|-79.0764267|01/23/1980|
942941|Balmville|Populated Place|04286|U5|||36|NY|1|071|Orange|41.5348159|-74.0148626|01/23/1980|03/17/2008
942957|Baltimore|Populated Place|04290|U6|||36|NY|1|023|Cortland|42.7353458|-76.1257596|01/23/1980|
942959|Bangall|Populated Place|04303|U6|||36|NY|1|067|Onondaga|43.1122891|-76.3829891|01/23/1980|
942960|Bangall|Populated Place|04297|U6|0394|360394027|36|NY|1|027|Dutchess|41.8756486|-73.6912393|01/23/1980|
942962|Bangor|Populated Place|04308|U6|0395|360395033|36|NY|1|033|Franklin|44.8122731|-74.3973963|01/23/1980|07/15/2009
942968|Banksville|Populated Place|04345|U6|||36|NY|1|119|Westchester|41.1412071|-73.6395723|01/23/1980|
942968|Banksville|Populated Place|04345|U6|||09|CT|2|001|Fairfield|41.1412071|-73.6395723|01/23/1980|
942971|Baptist Corners|Populated Place|04350|U6|||36|NY|1|011|Cayuga|42.9036786|-76.4682701|01/23/1980|
942987|Barberville|Populated Place|04355|U6|||36|NY|1|083|Rensselaer|42.6834122|-73.5406701|01/23/1980|
942989|Barcelona|Populated Place|04374|U6|||36|NY|1|013|Chautauqua|42.3403356|-79.5958808|01/23/1980|10/22/2007
942994|Bardeen Corners|Populated Place|04390|U6|||36|NY|1|075|Oswego|43.3453469|-76.1518695|01/23/1980|12/11/2014
942996|Bardonia|Populated Place|04396|U5|0398|360398087|36|NY|1|087|Rockland|41.1095403|-73.9962505|01/23/1980|03/17/2008
943010|Barker|Populated Place|04440|P1|||36|NY|1|063|Niagara|43.3300567|-78.5547512|01/23/1980|03/17/2008
943016|Barkers Grove|Populated Place|04451|U6|||36|NY|1|115|Washington|42.9878549|-73.5517822|01/23/1980|
943017|Barkersville|Populated Place|04462|U6|||36|NY|1|091|Saratoga|43.0884072|-74.0395723|01/23/1980|
943028|Barnard|Populated Place|04484|U4|||36|NY|1|055|Monroe|43.2125619|-77.6427806|01/23/1980|10/22/2007
943033|Barnerville|Populated Place|04495|U6|||36|NY|1|095|Schoharie|42.6875752|-74.426526|01/23/1980|
943043|Barnes Corners|Populated Place|04506|U6|0402|360402049|36|NY|1|049|Lewis|43.8170121|-75.8176949|01/23/1980|
943049|Barnes Hole|Populated Place|04517|U6|||36|NY|1|103|Suffolk|40.9992673|-72.1325769|01/23/1980|
943052|Barnes Landing|Locale|04520|U6|||36|NY|1|103|Suffolk|41.004545|-72.1250767|01/23/1980|02/12/2007
943066|Barnum Corners|Populated Place|04545|U6|||36|NY|1|079|Putnam|41.4589829|-73.5556812|01/23/1980|
943075|Barre Center|Populated Place|04583|U6|||36|NY|1|073|Orleans|43.1861702|-78.1941865|01/23/1980|10/24/2007
943080|Barrett Corners|Populated Place|04586|U6|||36|NY|1|077|Otsego|42.7186843|-75.1729403|01/23/1980|
943085|Barrington|Populated Place|04590|U6|||36|NY|1|123|Yates|42.547015|-77.0560796|01/23/1980|08/18/2009
943089|Barrytown|Populated Place|04605|U6|0405|360405027|36|NY|1|027|Dutchess|41.9984252|-73.9240242|01/23/1980|06/13/2007
943090|Barryville|Populated Place|04616|U6|0404|360404105|36|NY|1|105|Sullivan|41.4775904|-74.911|01/23/1980|
943093|Bartlett|Populated Place|04627|U6|||36|NY|1|065|Oneida|43.1345139|-75.4418403|01/23/1980|
943096|Bartlett Corners|Populated Place|04638|U6|||36|NY|1|055|Monroe|43.3103381|-77.7944536|01/23/1980|
943098|Bartlett Hollow|Populated Place|04649|U6|||36|NY|1|025|Delaware|42.3198043|-75.1818365|01/23/1980|
943110|Barton|Populated Place|04660|U6|0406|360406107|36|NY|1|107|Tioga|42.042852|-76.4485515|01/23/1980|
943138|Basom|Populated Place|04704|U6|0407|360407037|36|NY|1|037|Genesee|43.0672812|-78.3914111|01/23/1980|
943150|Batavia|Populated Place|04715|P1|||36|NY|1|037|Genesee|42.9981156|-78.1875167|01/23/1980|12/24/2008
943156|Batchellerville|Populated Place|04737|U6|||36|NY|1|091|Saratoga|43.211739|-74.0817962|01/23/1980|08/10/2009
943157|Bates|Populated Place|04748|U6|||36|NY|1|095|Schoharie|42.4464677|-74.2743082|01/23/1980|
943162|Bath|Populated Place|04759|P1|||36|NY|1|101|Steuben|42.3370164|-77.3177577|01/23/1980|09/26/2014
943163|Bath Beach|Populated Place|04781|U4|||36|NY|1|047|Kings|40.6045491|-74.004306|01/23/1980|
943165|Battenville|Populated Place|04792|U6|||36|NY|1|115|Washington|43.1092429|-73.4240012|01/23/1980|10/22/2007
943176|Baxter Estates|Populated Place|04803|P1|0430|360430059|36|NY|1|059|Nassau|40.8348225|-73.6954078|01/23/1980|03/17/2008
943182|Bay Colony|Populated Place|04880|U6|||36|NY|1|059|Nassau|40.6295472|-73.5954062|01/23/1980|
943183|Bay Park|Populated Place|04891|U5|||36|NY|1|059|Nassau|40.633159|-73.6704081|01/23/1980|03/17/2008
943184|Bay Point|Populated Place|04902|U6|||36|NY|1|103|Suffolk|41.0034329|-72.3150823|01/23/1980|
943187|Bay Ridge|Populated Place|04924|U4|||36|NY|1|047|Kings|40.6339929|-74.0145841|01/23/1980|10/22/2007
943194|Bay Shore|Populated Place|04935|U5|||36|NY|1|103|Suffolk|40.7250986|-73.2453946|01/23/1980|03/17/2008
943196|Bay Shores|Populated Place|04946|U6|||36|NY|1|067|Onondaga|42.8622894|-76.2740961|01/23/1980|
943199|Bay View|Populated Place|04990|U6|||36|NY|1|029|Erie|42.7792255|-78.8578116|01/23/1980|
943200|Bay View|Populated Place|05012|U6|||36|NY|1|055|Monroe|43.1972847|-77.5327763|01/23/1980|
943202|Bayberry Dunes|Populated Place|04836|U6|||36|NY|1|103|Suffolk|40.6898212|-72.9892749|01/23/1980|
943203|Bayberry Park|Populated Place|04847|U4|||36|NY|1|119|Westchester|40.9467654|-73.7740211|01/23/1980|
943205|Baychester|Populated Place|04869|U4|||36|NY|1|005|Bronx|40.8612112|-73.8412456|01/23/1980|
943209|Bayport|Populated Place|04913|U5|||36|NY|1|103|Suffolk|40.7384317|-73.0506656|01/23/1980|03/17/2008
943210|Bayside|Populated Place|04957|U4|||36|NY|1|081|Queens|40.7684351|-73.7770774|01/23/1980|08/07/2009
943213|Bayview|Populated Place|04985|U6|||36|NY|1|013|Chautauqua|42.1767243|-79.3978254|01/23/1980|
943216|Bayville|Populated Place|05034|P1|||36|NY|1|059|Nassau|40.9106541|-73.562069|01/23/1980|03/17/2008
943221|Beach Hampton|Populated Place|05045|U6|||36|NY|1|103|Suffolk|40.9781566|-72.107576|01/23/1980|
943227|Beacon Hills|Populated Place|05111|U6|||36|NY|1|027|Dutchess|41.509538|-73.9284707|01/23/1980|
943328|Beards Hollow|Populated Place|05133|U6|||36|NY|1|095|Schoharie|42.6064646|-74.554033|01/23/1980|
943336|Bearsville|Populated Place|05155|U6|0479|360479111|36|NY|1|111|Ulster|42.040647|-74.1551429|01/23/1980|
943382|Beaver Dams|Populated Place|05199|U6|||36|NY|1|097|Schuyler|42.2911853|-76.9596855|01/23/1980|10/22/2007
943383|Beaver Falls|Populated Place|05210|U6|||36|NY|1|049|Lewis|43.8870133|-75.4274083|01/23/1980|10/22/2007
943399|Beaver Meadow|Populated Place|05243|U6|||36|NY|1|017|Chenango|42.6595133|-75.6801871|01/23/1980|
943444|Beaver River|Populated Place|05254|U6|||36|NY|1|043|Herkimer|43.9036755|-74.9099025|01/23/1980|
943464|Beaverkill|Populated Place|05232|U6|||36|NY|1|105|Sullivan|41.9814779|-74.835438|01/23/1980|
943475|Beckers Corners|Populated Place|05265|U6|||36|NY|1|001|Albany|42.5484135|-73.8109566|01/23/1980|02/20/2007
943476|Becks Grove|Populated Place|05276|U4|||36|NY|1|065|Oneida|43.2553471|-75.6037918|01/23/1980|
943484|Bedford-Stuyvesant|Populated Place|05364|U4|||36|NY|1|047|Kings|40.6834364|-73.9412488|01/23/1980|
943485|Bedford|Populated Place|05309|U5|0472|360472119|36|NY|1|119|Westchester|41.204262|-73.6437397|01/23/1980|03/17/2008
943487|Bedford Center|Populated Place|05325|U6|||36|NY|1|119|Westchester|41.220095|-73.6581848|01/23/1980|
943489|Bedford Corners|Populated Place|05330|U6|||36|NY|1|009|Cattaraugus|42.05451|-78.3114042|01/23/1980|
943491|Bedford Hills|Populated Place|05342|U5|||36|NY|1|119|Westchester|41.2367613|-73.6945751|01/23/1980|01/29/2011
943492|Bedford Park|Populated Place|05353|U4|||36|NY|1|005|Bronx|40.8700999|-73.8856912|01/23/1980|
943503|Beech Hill|Populated Place|05386|U4|||36|NY|1|119|Westchester|40.9864868|-73.8165221|01/23/1980|
943531|Beechford|Populated Place|05382|U6|||36|NY|1|111|Ulster|42.021203|-74.2704248|01/23/1980|
943532|Beechhurst|Populated Place|05390|U4|||36|NY|1|081|Queens|40.7914903|-73.8045781|01/23/1980|12/14/2017
943533|Beechmont|Populated Place|05397|U4|||36|NY|1|119|Westchester|40.9309323|-73.7842992|01/23/1980|
943535|Beechmont Woods|Populated Place|05408|U4|||36|NY|1|119|Westchester|40.9345433|-73.7740211|01/23/1980|
943544|Beekman|Populated Place|05445|U6|||36|NY|1|027|Dutchess|41.6109269|-73.7129076|01/23/1980|07/13/2009
943554|Beekmantown|Populated Place|05474|U6|0475|360475019|36|NY|1|019|Clinton|44.7708742|-73.4920802|01/23/1980|
943564|Beixedon Estates|Populated Place|05507|U6|||36|NY|1|103|Suffolk|41.0684332|-72.410918|01/23/1980|
943566|Belcher|Populated Place|05529|U6|||36|NY|1|115|Washington|43.280352|-73.3878885|01/23/1980|
943567|Belcoda|Populated Place|05540|U6|||36|NY|1|055|Monroe|43.024784|-77.8461189|01/23/1980|
943568|Belden|Populated Place|05551|U6|||36|NY|1|007|Broome|42.2036891|-75.6749099|01/23/1980|
943574|Belfast|Populated Place|05562|U5|0476|360476003|36|NY|1|003|Allegany|42.3428443|-78.1113975|01/23/1980|01/29/2011
943577|Belgium|Populated Place|05595|U6|0477|360477067|36|NY|1|067|Onondaga|43.1764566|-76.2746515|01/23/1980|
943599|Bellaire|Populated Place|05606|U4|||36|NY|1|081|Queens|40.7139917|-73.7540212|01/23/1980|
943606|Belle Terre|Populated Place|05672|P1|0490|360490103|36|NY|1|103|Suffolk|40.9598208|-73.067884|01/23/1980|03/17/2008
943608|Bellerose|Populated Place|05639|P1|0480|360480059|36|NY|1|059|Nassau|40.724269|-73.7151313|01/23/1980|03/17/2008
943609|Bellerose Terrace|Populated Place|05661|U5|||36|NY|1|059|Nassau|40.7206581|-73.7259649|01/23/1980|03/17/2008
943610|Belleview|Populated Place|05678|U6|||36|NY|1|013|Chautauqua|42.1292242|-79.3386593|01/23/1980|
943612|Belleville|Populated Place|05683|U5|||36|NY|1|045|Jefferson|43.7833992|-76.1193694|01/23/1980|01/29/2011
943613|Bellevue|Populated Place|05705|U4|||36|NY|1|093|Schenectady|42.7942432|-73.9695694|01/23/1980|
943614|Bellevue|Populated Place|05694|U6|||36|NY|1|029|Erie|42.8933919|-78.7339195|01/23/1980|
943619|Bellmore|Populated Place|05738|U5|||36|NY|1|059|Nassau|40.6687125|-73.5270709|01/23/1980|03/17/2008
943621|Bellona|Populated Place|05760|U6|||36|NY|1|123|Yates|42.757013|-77.0146893|01/23/1980|10/22/2007
943622|Bellona Station|Locale|05749|U6|||36|NY|1|123|Yates|42.7464574|-77.0419128|01/23/1980|
943626|Bellport|Populated Place|05771|P1|0500|360500103|36|NY|1|103|Suffolk|40.7570429|-72.9392727|01/23/1980|07/01/2009
943630|Bellvale|Populated Place|05782|U6|0505|360505071|36|NY|1|071|Orange|41.2503717|-74.3107068|01/23/1980|10/06/2014
943645|Belvidere|Populated Place|05826|U6|||36|NY|1|003|Allegany|42.2542352|-78.0591739|01/23/1980|
943646|Bemis Heights|Populated Place|05837|U6|||36|NY|1|091|Saratoga|42.9711878|-73.6334505|01/23/1980|08/18/2009
943649|Bemus Point|Populated Place|05848|P1|0520|360520013|36|NY|1|013|Chautauqua|42.1617242|-79.3917144|01/23/1980|03/24/2008
943657|Benedict|Populated Place|05854|U6|||36|NY|1|035|Fulton|43.1184064|-74.1431863|01/23/1980|
943658|Benedict Beach|Populated Place|05859|U6|||36|NY|1|055|Monroe|43.3486707|-77.8722341|01/23/1980|
943684|Bennetts Corners|Populated Place|05907|U6|||36|NY|1|067|Onondaga|43.0347884|-76.3649324|01/23/1980|
943685|Bennetts Corners|Populated Place|05903|U4|||36|NY|1|053|Madison|43.0434019|-75.6032354|01/23/1980|07/20/2009
943686|Bennetts Corners|Populated Place|05910|U6|||36|NY|1|073|Orleans|43.1950599|-78.0172374|01/23/1980|
943688|Bennettsville|Populated Place|05914|U6|||36|NY|1|017|Chenango|42.2556368|-75.446569|01/23/1980|
943693|Bennington|Populated Place|05925|U6|||36|NY|1|121|Wyoming|42.8370044|-78.3975195|01/23/1980|10/22/2007
943699|Bensonhurst|Populated Place|05969|U4|||36|NY|1|047|Kings|40.6017715|-73.9940279|01/23/1980|06/12/2008
943706|Bentleys Corners|Populated Place|05990|U6|||36|NY|1|045|Jefferson|44.2289464|-75.6938307|01/23/1980|
943707|Benton Center|Populated Place|06013|U6|||36|NY|1|123|Yates|42.7172908|-77.0666362|01/23/1980|11/14/2007
943709|Benton Corners|Populated Place|06020|U6|||36|NY|1|111|Ulster|41.6984268|-74.1920913|01/23/1980|05/12/2014
943720|Bergen|Populated Place|06046|P1|0530|360530037|36|NY|1|037|Genesee|43.0853387|-77.9422336|01/23/1980|07/15/2009
943722|Bergen Beach|Populated Place|06068|U4|||36|NY|1|047|Kings|40.6203822|-73.9068033|01/23/1980|
943727|Bergholtz|Populated Place|06101|U6|||36|NY|1|063|Niagara|43.1031119|-78.9067059|01/23/1980|10/22/2007
943730|Berkshire|Populated Place|06134|U6|||36|NY|1|107|Tioga|42.3042403|-76.1865965|01/23/1980|10/22/2007
943731|Berkshire|Populated Place|06112|U6|0526|360526035|36|NY|1|035|Fulton|43.0492397|-74.3190238|01/23/1980|
943733|Berlin|Populated Place|06178|U6|0528|360528083|36|NY|1|083|Rensselaer|42.6931351|-73.3720549|01/23/1980|
943738|Berne|Populated Place|06200|U6|||36|NY|1|001|Albany|42.6253546|-74.1334647|01/23/1980|10/24/2014
943742|Bernhards Bay|Populated Place|06222|U6|||36|NY|1|075|Oswego|43.2445133|-75.933527|01/23/1980|10/24/2007
943758|Berryville|Populated Place|06227|U6|||36|NY|1|057|Montgomery|42.96174|-74.4151364|01/23/1980|
943759|Besemer|Populated Place|06237|U6|||36|NY|1|109|Tompkins|42.3961841|-76.4099376|01/23/1980|
943761|Best|Populated Place|06244|U6|||36|NY|1|083|Rensselaer|42.6156354|-73.6373393|01/23/1980|
943780|Bethel|Populated Place|06288|U6|||36|NY|1|027|Dutchess|41.9545367|-73.6337376|01/23/1980|03/02/2007
943781|Bethel|Populated Place|06299|U6|0532|360532105|36|NY|1|105|Sullivan|41.6834224|-74.8712753|01/23/1980|
943790|Bethel Corners|Populated Place|06327|U6|||36|NY|1|075|Oswego|43.5720133|-76.1871493|01/23/1980|
943791|Bethel Corners|Populated Place|06321|U6|||36|NY|1|011|Cayuga|43.2492344|-76.5827221|01/23/1980|
943793|Bethel Grove|Populated Place|06332|U6|||36|NY|1|109|Tompkins|42.4053507|-76.4293827|01/23/1980|
943797|Bethlehem Center|Populated Place|06365|U6|||36|NY|1|001|Albany|42.6020241|-73.7915109|01/23/1980|10/22/2007
943801|Bethlehem Heights|Populated Place|06376|U6|||36|NY|1|001|Albany|42.5342468|-73.8326242|01/23/1980|
943803|Bethpage|Populated Place|06387|U5|||36|NY|1|059|Nassau|40.7442664|-73.4820687|01/23/1980|03/17/2008
943815|Beukendaal|Populated Place|06398|U6|||36|NY|1|093|Schenectady|42.855076|-73.9804031|01/23/1980|
943822|Beyers Corners|Populated Place|06415|U6|||36|NY|1|035|Fulton|42.9981301|-74.1148515|01/23/1980|
943837|Big Bay|Populated Place|06434|U6|||36|NY|1|075|Oswego|43.2461798|-76.1202012|01/23/1980|
943840|Big Bend|Populated Place|06437|U6|||36|NY|1|067|Onondaga|42.8775669|-76.0896461|01/23/1980|
943883|Big Flats|Populated Place|06464|U5|0535|360535015|36|NY|1|015|Chemung|42.1372967|-76.9369067|01/23/1980|03/17/2008
943904|Big Indian|Populated Place|06497|U6|0536|360536111|36|NY|1|111|Ulster|42.10259|-74.4437624|01/23/1980|
943919|Big Island|Populated Place|06508|U6|||36|NY|1|071|Orange|41.3206498|-74.4043219|01/23/1980|
943929|Big Moose|Populated Place|06519|U6|||36|NY|1|043|Herkimer|43.8183991|-74.9151774|01/23/1980|10/22/2007
943962|Big Tree|Populated Place|06530|U6|||36|NY|1|029|Erie|42.7697813|-78.8114211|01/23/1980|03/02/2007
943977|Billings|Populated Place|06552|U6|0539|360539027|36|NY|1|027|Dutchess|41.6712049|-73.7631865|01/23/1980|
943982|Billsboro Corners|Populated Place|06585|U6|||36|NY|1|069|Ontario|42.810623|-77.007745|01/23/1980|10/24/2007
943984|Biltmore Shores|Populated Place|06596|U6|||36|NY|1|059|Nassau|40.6637121|-73.4662358|01/23/1980|
943985|Binghamton|Populated Place|06607|P1|||36|NY|1|007|Broome|42.0986867|-75.9179738|01/23/1980|03/17/2008
943986|Bingley|Populated Place|06651|U6|||36|NY|1|053|Madison|42.9617335|-75.8307455|01/23/1980|
943988|Binnewater|Populated Place|06662|U6|||36|NY|1|111|Ulster|41.8564817|-74.0854198|01/23/1980|
944014|Birchton|Populated Place|06667|U6|||36|NY|1|091|Saratoga|43.0009084|-73.9681811|01/23/1980|
944029|Birdsall|Populated Place|06706|U6|||36|NY|1|003|Allegany|42.391456|-77.9202792|01/23/1980|
944033|Birmingham Corners|Populated Place|06720|U6|||36|NY|1|043|Herkimer|42.8886824|-75.1376603|01/23/1980|
944056|Bishopville|Populated Place|06739|U6|||36|NY|1|003|Allegany|42.36868|-77.7472166|01/23/1980|
944077|Black Brook|Populated Place|06750|U6|0546|360546019|36|NY|1|019|Clinton|44.45838|-73.7423633|01/23/1980|
944095|Black Corners|Populated Place|06766|U6|||36|NY|1|013|Chautauqua|42.3942252|-79.1980974|01/23/1980|
944096|Black Creek|Populated Place|06772|U6|||36|NY|1|003|Allegany|42.2756225|-78.2264021|01/23/1980|10/22/2007
944140|Black Lake|Populated Place|06778|U6|||36|NY|1|105|Sullivan|41.6453673|-74.861831|01/23/1980|
944178|Black River|Populated Place|06794|P1|||36|NY|1|045|Jefferson|44.0125639|-75.7943671|01/23/1980|03/17/2008
944202|Blackmans Corners|Populated Place|06788|U6|||36|NY|1|065|Oneida|43.1589581|-75.5474004|01/23/1980|
944210|Blairville|Populated Place|06825|U6|||36|NY|1|063|Niagara|43.2339438|-79.0169897|01/23/1980|
944216|Blakeley|Populated Place|06838|U6|||36|NY|1|029|Erie|42.7356157|-78.5953026|01/23/1980|10/22/2007
944218|Blakeslee|Populated Place|06844|U6|||36|NY|1|053|Madison|43.0070113|-75.8146332|01/23/1980|
944230|Blasdell|Populated Place|06849|P1|||36|NY|1|029|Erie|42.797281|-78.8233661|01/23/1980|03/17/2008
944231|Blauvelt|Populated Place|06860|U5|||36|NY|1|087|Rockland|41.0634299|-73.9576378|01/23/1980|03/17/2008
944234|Bleecker|Populated Place|06871|U6|||36|NY|1|035|Fulton|43.1197942|-74.3676371|01/23/1980|
944258|Bliss|Populated Place|06904|U5|0563|360563121|36|NY|1|121|Wyoming|42.5770065|-78.2527907|01/23/1980|01/29/2011
944268|Blockville|Populated Place|06926|U6|||36|NY|1|013|Chautauqua|42.0817234|-79.4122714|01/23/1980|
944270|Blodgett Mills|Populated Place|06937|U5|0565|360565023|36|NY|1|023|Cortland|42.5684039|-76.1257608|01/23/1980|01/29/2011
944284|Bloomerville|Populated Place|06943|U6|||36|NY|1|101|Steuben|42.4309031|-77.4597079|01/23/1980|
944285|Bloomfield|Populated Place|06948|U4|||36|NY|1|085|Richmond|40.6126039|-74.1781995|01/23/1980|
944287|Bloomfield Park|Populated Place|06954|U6|||36|NY|1|065|Oneida|43.2147917|-75.4396186|01/23/1980|
944289|Bloomingdale|Populated Place|06981|U6|0580|360580031|36|NY|1|031|Essex|44.4078279|-74.0870965|01/23/1980|
944292|Bloomington|Populated Place|07014|U6|0582|360582111|36|NY|1|111|Ulster|41.8789815|-74.0440293|01/23/1980|
944294|Bloomville|Populated Place|07025|U5|||36|NY|1|025|Delaware|42.3334161|-74.8076575|01/23/1980|01/29/2011
944295|Blossom|Populated Place|07030|U6|||36|NY|1|029|Erie|42.8561701|-78.6930845|01/23/1980|
944297|Blossvale|Populated Place|07036|U6|||36|NY|1|065|Oneida|43.2797915|-75.6435156|01/23/1980|10/22/2007
944314|Blue Mountain|Populated Place|07047|U6|||36|NY|1|111|Ulster|42.1084234|-74.019859|01/23/1980|
944319|Blue Mountain Lake|Populated Place|07058|U6|0588|360588041|36|NY|1|041|Hamilton|43.8553412|-74.4434931|01/23/1980|
944323|Blue Point|Populated Place|07069|U5|||36|NY|1|103|Suffolk|40.7439872|-73.0345539|01/23/1980|03/17/2008
944334|Blue Store|Populated Place|07091|U6|||36|NY|1|021|Columbia|42.1089788|-73.8176294|01/23/1980|
944359|Bluff Point|Populated Place|07113|U6|||36|NY|1|123|Yates|42.6142362|-77.1035822|01/23/1980|08/18/2009
944373|Boardmanville|Populated Place|07135|U4|||36|NY|1|009|Cattaraugus|42.0906207|-78.4264085|01/23/1980|
944394|Boght Corners|Populated Place|07146|U6|||36|NY|1|001|Albany|42.7831334|-73.7442862|01/23/1980|10/24/2014
944396|Bohemia|Populated Place|07157|U5|0597|360597103|36|NY|1|103|Suffolk|40.7692649|-73.1151118|01/23/1980|03/17/2008
944398|Boiceville|Populated Place|07168|U6|0598|360598111|36|NY|1|111|Ulster|42.0050923|-74.2659804|01/23/1980|
944401|Bolivar|Populated Place|07190|P1|0600|360600003|36|NY|1|003|Allegany|42.0667332|-78.1677879|01/23/1980|03/17/2008
944402|Bolivar|Populated Place|07210|U6|||36|NY|1|053|Madison|43.0711783|-75.8888033|01/23/1980|
944409|Bolton|Populated Place|07223|U6|0601|360601113|36|NY|1|113|Warren|43.5364569|-73.6676183|01/23/1980|
944411|Bolton Landing|Populated Place|07245|U5|0602|360602113|36|NY|1|113|Warren|43.5572898|-73.6548408|01/23/1980|01/29/2011
944413|Bombay|Populated Place|07267|U6|0605|360605033|36|NY|1|033|Franklin|44.9389348|-74.5676877|01/23/1980|07/15/2009
944427|Bonila|Populated Place|07300|U6|||36|NY|1|013|Chautauqua|42.1153355|-79.2817149|01/23/1980|
944430|Bonni Castle|Populated Place|07322|U6|||36|NY|1|117|Wayne|43.2381214|-76.9341316|01/23/1980|
944431|Bonnie Crest|Populated Place|07333|U4|||36|NY|1|119|Westchester|40.9598206|-73.7859659|01/23/1980|
944443|Boonville|Populated Place|07355|P1|||36|NY|1|065|Oneida|43.4836801|-75.3365607|01/23/1980|03/17/2008
944453|Borden|Populated Place|07377|U6|||36|NY|1|101|Steuben|42.0417393|-77.3274802|01/23/1980|
944455|Borden Estate|Populated Place|07383|U6|||36|NY|1|111|Ulster|41.5939826|-74.1712576|01/23/1980|
944457|Border City|Populated Place|07399|U6|||36|NY|1|099|Seneca|42.8786772|-76.9605203|01/23/1980|
944463|Borodino|Populated Place|07410|U6|||36|NY|1|067|Onondaga|42.8589565|-76.3379875|01/23/1980|
944465|Borodino Landing|Populated Place|07415|U6|||36|NY|1|067|Onondaga|42.8570121|-76.3529881|01/23/1980|
944466|Borough Park|Populated Place|07432|U4|||36|NY|1|047|Kings|40.633993|-73.9968059|01/23/1980|10/22/2007
944470|Boston|Populated Place|07443|U6|0611|360611029|36|NY|1|029|Erie|42.6289495|-78.7375289|01/23/1980|
944472|Boston Corner|Populated Place|07476|U6|||36|NY|1|021|Columbia|42.0528691|-73.521233|01/23/1980|
944476|Boswell Corners|Populated Place|07484|U6|||36|NY|1|069|Ontario|42.718677|-77.424432|01/23/1980|
944488|Bouckville|Populated Place|07509|U6|||36|NY|1|053|Madison|42.8892358|-75.5512901|01/23/1980|10/22/2007
944495|Boultons Beach|Populated Place|07553|U4|||36|NY|1|045|Jefferson|43.9356155|-76.1343708|01/23/1980|
944498|Bournes Beach|Populated Place|07575|U6|||36|NY|1|013|Chautauqua|42.3597799|-79.5508807|01/23/1980|
944500|Boutonville|Populated Place|07580|U6|||36|NY|1|119|Westchester|41.2570395|-73.5645705|01/23/1980|
944503|Bovina Center|Populated Place|07608|U6|0609|360609025|36|NY|1|025|Delaware|42.2620297|-74.7846024|01/23/1980|
944505|Bowen|Populated Place|07619|U6|||36|NY|1|009|Cattaraugus|42.1295045|-79.0153189|01/23/1980|
944510|Bowens Corners|Populated Place|07630|U6|||36|NY|1|075|Oswego|43.275346|-76.4635491|01/23/1980|10/24/2007
944516|Bowerstown|Populated Place|07641|U6|||36|NY|1|077|Otsego|42.6859082|-74.9176545|01/23/1980|
944530|Bowmansville|Populated Place|07663|U6|0612|360612029|36|NY|1|029|Erie|42.9383918|-78.6847515|01/23/1980|
944550|Boyntonville|Populated Place|07696|U6|||36|NY|1|083|Rensselaer|42.8450779|-73.4559467|01/23/1980|01/08/2009
944566|Braddock Heights|Populated Place|07718|U6|||36|NY|1|055|Monroe|43.3070053|-77.6994503|01/23/1980|
944568|Bradford|Populated Place|07729|U6|0616|360616101|36|NY|1|101|Steuben|42.3711837|-77.1088596|01/23/1980|
944573|Bradley|Populated Place|07751|U6|||36|NY|1|105|Sullivan|41.8239792|-74.6762708|01/23/1980|
944590|Bradtville|Populated Place|07756|U6|||36|NY|1|035|Fulton|43.0725718|-74.5068068|01/23/1980|
944598|Braeside|Populated Place|07762|U6|||36|NY|1|083|Rensselaer|42.5370253|-73.608727|01/23/1980|
944601|Brainard|Populated Place|07773|U6|||36|NY|1|083|Rensselaer|42.4959149|-73.5120564|01/23/1980|08/07/2009
944604|Brainardsville|Populated Place|07795|U6|0623|360623033|36|NY|1|033|Franklin|44.8578221|-74.0334864|01/23/1980|
944611|Braman Corners|Populated Place|07806|U6|||36|NY|1|093|Schenectady|42.808686|-74.21874|01/23/1980|11/02/2007
944613|Bramanville|Populated Place|07817|U6|||36|NY|1|095|Schoharie|42.6861863|-74.4012475|01/23/1980|
944617|Branch|Populated Place|07822|U6|||36|NY|1|111|Ulster|41.994259|-74.470153|01/23/1980|
944621|Branchport|Populated Place|07828|U6|||36|NY|1|123|Yates|42.5986805|-77.1538624|01/23/1980|10/22/2007
944628|Brandreth|Populated Place|07861|U6|||36|NY|1|043|Herkimer|43.9375632|-74.8526795|01/23/1980|
944646|Brant|Populated Place|07883|U6|0613|360613029|36|NY|1|029|Erie|42.5883931|-79.017815|01/23/1980|
944649|Brant Lake|Populated Place|07916|U6|||36|NY|1|113|Warren|43.6764553|-73.7495703|01/23/1980|11/09/2007
944651|Brantingham|Populated Place|07905|U6|0624|360624049|36|NY|1|049|Lewis|43.6886801|-75.2921223|01/23/1980|
944669|Breakabeen|Populated Place|07993|U6|||36|NY|1|095|Schoharie|42.524243|-74.4095876|01/23/1980|08/13/2009
944682|Breesport|Populated Place|08004|U5|0621|360621015|36|NY|1|015|Chemung|42.173408|-76.733841|01/23/1980|01/29/2011
944686|Breezy Point|Populated Place|08015|U4|||36|NY|1|081|Queens|40.5564945|-73.9262483|01/23/1980|
944688|Brentwood|Populated Place|08026|U5|0620|360620103|36|NY|1|103|Suffolk|40.7812093|-73.2462273|01/23/1980|03/17/2008
944698|Brewerton|Populated Place|08059|U5|0625|360625067|36|NY|1|067|Onondaga|43.2381242|-76.1407575|01/23/1980|04/13/2009
944699|Brewster|Populated Place|08070|P1|||36|NY|1|079|Putnam|41.3973163|-73.6170721|01/23/1980|05/14/2010
944701|Brewster Heights|Populated Place|08081|U6|||36|NY|1|079|Putnam|41.4062051|-73.6326282|01/23/1980|
944716|Brick House Corners|Populated Place|08118|U6|||36|NY|1|037|Genesee|42.993115|-78.4058548|01/23/1980|
944725|Bridgehampton|Populated Place|08136|U5|||36|NY|1|103|Suffolk|40.9378777|-72.3009158|01/23/1980|03/17/2008
944727|Bridgeport|Populated Place|08147|U5|0645|360645053|36|NY|1|053|Madison|43.1553457|-75.9693622|01/23/1980|03/17/2008
944728|Bridgeport|Populated Place|08152|U6|||36|NY|1|099|Seneca|42.9158999|-76.7524523|01/23/1980|
944730|Bridgeville|Populated Place|08158|U6|||36|NY|1|105|Sullivan|41.6342587|-74.6190494|01/23/1980|
944731|Bridgewater|Populated Place|08169|U5|||36|NY|1|065|Oneida|42.8792376|-75.2509971|01/23/1980|05/20/2015
944744|Brighton|Populated Place|08268|U6|||36|NY|1|077|Otsego|42.8678498|-75.0287683|01/23/1980|
944745|Brighton|Populated Place|08210|U6|||36|NY|1|029|Erie|42.9911685|-78.8369796|01/23/1980|11/27/2006
944746|Brighton|Populated Place|08257|U5|0652|360652055|36|NY|1|055|Monroe|43.1475626|-77.5505543|01/23/1980|03/17/2008
944747|Brighton Beach|Populated Place|08279|U4|||36|NY|1|047|Kings|40.577883|-73.9595826|01/23/1980|12/29/2009
944762|Brisben|Populated Place|08345|U6|0662|360662017|36|NY|1|017|Chenango|42.3650744|-75.6815779|01/23/1980|
944763|Briscoe|Populated Place|08356|U6|||36|NY|1|105|Sullivan|41.7642553|-74.878497|01/23/1980|
944767|Bristol|Populated Place|08367|U6|0666|360666069|36|NY|1|069|Ontario|42.8453424|-77.424156|01/23/1980|04/28/2014
944768|Bristol Center|Populated Place|08389|U6|||36|NY|1|069|Ontario|42.8089539|-77.3905426|01/23/1980|10/24/2007
944772|Bristol Springs|Populated Place|08400|U6|||36|NY|1|069|Ontario|42.7061774|-77.3799853|01/23/1980|10/22/2007
944781|Broad Channel|Populated Place|08444|U4|||36|NY|1|081|Queens|40.6031603|-73.820412|01/23/1980|
944788|Broadalbin|Populated Place|08422|P1|||36|NY|1|035|Fulton|43.0586846|-74.1965206|01/23/1980|03/17/2008
944793|Broadway Junction|Populated Place|08460|U6|||36|NY|1|047|Kings|40.67677|-73.9001366|01/23/1980|
944801|Brockport|Populated Place|08466|P1|||36|NY|1|055|Monroe|43.2136713|-77.9391797|01/23/1980|03/17/2008
944804|Brockville|Populated Place|08477|U6|||36|NY|1|073|Orleans|43.2611703|-78.0905736|01/23/1980|
944808|Brocton|Populated Place|08488|P1|||36|NY|1|013|Chautauqua|42.3886688|-79.4411573|01/23/1980|07/10/2009
944810|Brodhead|Populated Place|08499|U6|||36|NY|1|111|Ulster|41.9437038|-74.2573697|01/23/1980|10/22/2007
944823|Bronxdale|Populated Place|08521|U4|||36|NY|1|005|Bronx|40.8506558|-73.8665241|01/23/1980|
944824|Bronxville|Populated Place|08532|P1|||36|NY|1|119|Westchester|40.9381544|-73.8320784|01/23/1980|03/17/2008
944825|Bronxville Heights|Populated Place|08543|U4|||36|NY|1|119|Westchester|40.9662094|-73.8429119|01/23/1980|
944832|Brookfield|Populated Place|08576|U6|0703|360703053|36|NY|1|053|Madison|42.8128488|-75.3176677|01/23/1980|07/20/2009
944833|Brookfield|Populated Place|08595|U6|||36|NY|1|065|Oneida|43.3000695|-75.5693463|01/23/1980|
944835|Brookhaven|Populated Place|09000|U5|||36|NY|1|103|Suffolk|40.7792653|-72.9153827|01/23/1980|03/17/2008
944840|Brooklyn|Populated Place|10016|U6|0706|360706025|36|NY|1|025|Delaware|42.3442482|-75.1704468|01/23/1980|
944841|Brooklyn|Populated Place|10011|U6|0706|360706009|36|NY|1|009|Cattaraugus|42.4331178|-78.7483629|01/23/1980|
944845|Brooklyn Heights|Populated Place|10033|U4|||36|NY|1|047|Kings|40.6953806|-73.9937503|01/23/1980|07/22/2008
944848|Brooklyn Manor|Populated Place|10035|U6|||36|NY|1|081|Queens|40.6948252|-73.8476351|01/23/1980|
944853|Brookman Corners|Populated Place|10050|U6|||36|NY|1|057|Montgomery|42.9172947|-74.7262569|01/23/1980|
944857|Brooks Grove|Populated Place|10066|U6|||36|NY|1|051|Livingston|42.6306192|-77.9280587|01/23/1980|10/22/2007
944865|Brooksburg|Populated Place|10055|U6|||36|NY|1|039|Greene|42.3028626|-74.2068079|01/23/1980|
944882|Brooktondale|Populated Place|10077|U6|||36|NY|1|109|Tompkins|42.3806287|-76.3946593|01/23/1980|10/22/2007
944885|Brookview|Populated Place|10110|U6|||36|NY|1|083|Rensselaer|42.5411919|-73.7198423|01/23/1980|10/22/2007
944887|Brookville|Populated Place|10132|P1|||36|NY|1|059|Nassau|40.8131553|-73.5673482|01/23/1980|03/17/2008
944888|Brookville|Populated Place|10121|U6|||36|NY|1|037|Genesee|42.9211712|-78.2125159|01/23/1980|
944893|Broome Center|Populated Place|10165|U6|||36|NY|1|095|Schoharie|42.4631337|-74.3512545|01/23/1980|08/13/2009
944910|Brown Center|Populated Place|10173|U6|||36|NY|1|067|Onondaga|43.1695124|-76.0385316|01/23/1980|
944939|Browns Corners|Populated Place|10180|U6|||36|NY|1|045|Jefferson|44.2992188|-75.8574497|01/23/1980|
944945|Browns Hollow|Populated Place|10198|U6|||36|NY|1|057|Montgomery|42.8075742|-74.5068045|01/23/1980|
944962|Brownsell Corner|Populated Place|10193|U6|||36|NY|1|087|Rockland|41.1637063|-73.9881952|01/23/1980|
944963|Brownsville|Populated Place|10209|U4|||36|NY|1|047|Kings|40.6609369|-73.9201371|01/23/1980|06/12/2008
944964|Brownsville|Populated Place|10220|U6|||36|NY|1|069|Ontario|43.0117299|-77.3663775|01/23/1980|07/30/2009
944965|Brownville|Populated Place|10231|P1|0720|360720045|36|NY|1|045|Jefferson|44.0070026|-75.9840923|01/23/1980|03/17/2008
944968|Bruceville|Populated Place|10253|U6|||36|NY|1|111|Ulster|41.8314819|-74.1215324|01/23/1980|
944972|Brunswick Center|Populated Place|10280|U6|1036|361036083|36|NY|1|083|Rensselaer|42.7570224|-73.6162279|01/23/1980|10/27/2014
944982|Brushton|Populated Place|10286|P1|0730|360730033|36|NY|1|033|Franklin|44.8303288|-74.5135123|01/23/1980|07/15/2009
945003|Bryn Mawr Park|Populated Place|10330|U4|||36|NY|1|119|Westchester|40.9462097|-73.8645792|01/23/1980|
945006|Buchanan|Populated Place|10341|P1|0740|360740119|36|NY|1|119|Westchester|41.2620383|-73.9381943|01/23/1980|03/17/2008
945076|Buckhout Corners|Populated Place|10352|U4|||36|NY|1|119|Westchester|41.1331514|-73.8187454|01/23/1980|
945082|Buckleyville|Populated Place|10374|U6|||36|NY|1|021|Columbia|42.3459187|-73.6048397|01/23/1980|
945093|Bucyrus Heights|Populated Place|10407|U6|||36|NY|1|029|Erie|43.0300573|-78.7989231|01/23/1980|
945103|Buel|Populated Place|10418|U6|||36|NY|1|057|Montgomery|42.8492402|-74.6590321|01/23/1980|
945106|Buellville|Populated Place|10429|U6|||36|NY|1|067|Onondaga|42.9867331|-75.9496399|01/23/1980|
945108|Buffalo Corners|Populated Place|11008|U6|||36|NY|1|121|Wyoming|42.778117|-78.0077851|01/23/1980|
945125|Bull Hill|Populated Place|11055|U6|||36|NY|1|043|Herkimer|43.2639577|-74.9098777|01/23/1980|
945140|Bullet Hole|Populated Place|11050|U6|||36|NY|1|079|Putnam|41.3903715|-73.7893001|01/23/1980|
945167|Bulls Head|Populated Place|11077|U4|||36|NY|1|085|Richmond|40.6070484|-74.1620879|01/23/1980|
945169|Bullville|Populated Place|11088|U6|0755|360755071|36|NY|1|071|Orange|41.5442604|-74.3615429|01/23/1980|10/03/2014
945212|Burk Hill|Populated Place|11182|U6|||36|NY|1|121|Wyoming|42.7781169|-78.026119|01/23/1980|
945213|Burke Center|Populated Place|11176|U6|||36|NY|1|033|Franklin|44.9189347|-74.1796204|01/23/1980|10/22/2007
945221|Burlingham|Populated Place|11187|U6|0761|360761105|36|NY|1|105|Sullivan|41.5900936|-74.382099|01/23/1980|
945222|Burlington|Populated Place|11198|U6|||36|NY|1|077|Otsego|42.7228512|-75.1254387|01/23/1980|10/22/2007
945224|Burlington Flats|Populated Place|11220|U6|0762|360762077|36|NY|1|077|Otsego|42.7453504|-75.1829401|01/23/1980|
945232|Burnhams|Populated Place|11231|U4|||36|NY|1|013|Chautauqua|42.3356136|-79.3231004|01/23/1980|
945234|Burns|Populated Place|11242|U6|||36|NY|1|003|Allegany|42.4297905|-77.7249941|01/23/1980|10/22/2007
945234|Burns|Populated Place|11242|U6|||36|NY|2|101|Steuben|42.4297905|-77.7249941|01/23/1980|10/22/2007
945241|Burnside|Populated Place|11265|U6|||36|NY|1|071|Orange|41.4567605|-74.2087593|01/23/1980|10/22/2007
945251|Burnt Hills|Populated Place|11286|U6|||36|NY|1|091|Saratoga|42.9097982|-73.8951234|01/23/1980|11/02/2007
945279|Burrs Mills|Populated Place|11308|U6|||36|NY|1|045|Jefferson|43.9328419|-75.85881|01/23/1980|10/22/2007
945287|Burt|Populated Place|11330|U6|||36|NY|1|063|Niagara|43.3164449|-78.7139235|01/23/1980|10/22/2007
945298|Burtonsville|Populated Place|11341|U6|||36|NY|1|057|Montgomery|42.8050747|-74.2592963|01/23/1980|
945306|Bush Corner|Populated Place|11346|U6|||36|NY|1|069|Ontario|42.9045083|-77.5202727|01/23/1980|
945315|Bushes Landing|Populated Place|11352|U6|||36|NY|1|049|Lewis|43.7775691|-75.4090715|01/23/1980|
945318|Bushnell Basin|Populated Place|11363|U6|||36|NY|1|055|Monroe|43.0595075|-77.4741613|01/23/1980|10/22/2007
945323|Bushnellsville|Populated Place|11374|U6|||36|NY|1|111|Ulster|42.1534221|-74.4148722|01/23/1980|
945325|Bushville|Populated Place|11407|U6|||36|NY|1|105|Sullivan|41.7150894|-74.7459955|01/23/1980|
945326|Bushville|Populated Place|11396|U6|||36|NY|1|037|Genesee|43.0020041|-78.2583518|01/23/1980|
945327|Bushwick|Populated Place|11418|U4|||36|NY|1|047|Kings|40.6942696|-73.9187482|01/23/1980|11/19/2010
945330|Bushwick Junction|Populated Place|11424|U6|||36|NY|1|081|Queens|40.7153803|-73.9081923|01/23/1980|
945334|Buskirk|Populated Place|11429|U6|||36|NY|1|083|Rensselaer|42.9536888|-73.4342797|01/23/1980|01/08/2009
945336|Busti|Populated Place|11440|U5|0769|360769013|36|NY|1|013|Chautauqua|42.038113|-79.2833831|01/23/1980|01/29/2011
945341|Butler Center|Populated Place|11484|U6|||36|NY|1|117|Wayne|43.1686771|-76.7713438|01/23/1980|11/14/2007
945351|Butlerville|Populated Place|11495|U6|||36|NY|1|119|Westchester|41.3492608|-73.6723519|01/23/1980|
945383|Butternut Grove|Populated Place|11517|U6|||36|NY|1|025|Delaware|41.9573103|-74.9904422|01/23/1980|
945390|Butterville|Populated Place|11540|U6|||36|NY|1|111|Ulster|41.7612044|-74.1187551|01/23/1980|
945391|Button City|Populated Place|11543|U6|||36|NY|1|017|Chenango|42.7217386|-75.3248912|01/23/1980|
945396|Butts Corner|Populated Place|11547|U6|||36|NY|1|025|Delaware|42.4756338|-74.8212669|01/23/1980|
945400|Byersville|Populated Place|11550|U5|||36|NY|1|051|Livingston|42.5833989|-77.7908315|01/23/1980|01/29/2011
945402|Byrdcliffe|Populated Place|11555|U6|||36|NY|1|111|Ulster|42.0525911|-74.1465312|01/23/1980|
945405|Byron|Populated Place|11561|U6|0771|360771037|36|NY|1|037|Genesee|43.0797824|-78.0639037|01/23/1980|
945420|Cadiz|Populated Place|11594|U6|||36|NY|1|009|Cattaraugus|42.3206205|-78.4672434|01/23/1980|
945423|Cadosia|Populated Place|11605|U6|||36|NY|1|025|Delaware|41.9759199|-75.2668384|01/23/1980|10/22/2007
945429|Cadyville|Populated Place|11616|U6|0774|360774019|36|NY|1|019|Clinton|44.6980977|-73.631528|01/23/1980|
945432|Cagwin Corners|Populated Place|11622|U6|||36|NY|1|065|Oneida|43.1497913|-75.575457|01/23/1980|
945435|Cahoonzie|Populated Place|11627|U6|||36|NY|1|071|Orange|41.4500927|-74.7121072|01/23/1980|10/24/2014
945438|Cains Corners|Populated Place|11632|U6|||36|NY|1|075|Oswego|43.3053454|-76.5968902|01/23/1980|
945440|Cairo|Populated Place|11638|U5|||36|NY|1|039|Greene|42.2989749|-73.9984659|01/23/1980|03/17/2008
945447|Calcium|Populated Place|11671|U5|||36|NY|1|045|Jefferson|44.0217286|-75.8460356|01/23/1980|03/17/2008
945448|Calcutta|Populated Place|11682|U6|||36|NY|1|077|Otsego|42.6328534|-74.6762582|01/23/1980|
945451|Caledonia|Populated Place|11704|P1|||36|NY|1|051|Livingston|42.9731175|-77.852785|01/23/1980|08/08/2014
945476|Callicoon|Populated Place|11748|U5|||36|NY|1|105|Sullivan|41.7673105|-75.0562785|01/23/1980|03/17/2008
945477|Callicoon Center|Populated Place|11770|U6|||36|NY|1|105|Sullivan|41.8367551|-74.946553|01/23/1980|10/22/2007
945505|Calverton|Populated Place|11781|U5|||36|NY|1|103|Suffolk|40.9064873|-72.7434331|01/23/1980|03/17/2008
945507|Cambria Center|Populated Place|11808|U6|||36|NY|1|063|Niagara|43.1778342|-78.8194813|01/23/1980|
945508|Cambria Heights|Populated Place|11814|U4|||36|NY|1|081|Queens|40.6945474|-73.7384653|01/23/1980|
945510|Cambridge|Populated Place|11825|P1|||36|NY|1|115|Washington|43.0281329|-73.3812231|01/23/1980|03/17/2008
945512|Camden|Populated Place|11847|P1|||36|NY|1|065|Oneida|43.3345138|-75.747964|01/23/1980|03/30/2009
945525|Cameron|Populated Place|11869|U6|0801|360801101|36|NY|1|101|Steuben|42.199239|-77.4063715|01/23/1980|
945533|Camillus|Populated Place|11902|P1|||36|NY|1|067|Onondaga|43.039233|-76.3040965|01/23/1980|05/13/2014
945597|Camp Hill|Populated Place|11979|U4|||36|NY|1|087|Rockland|41.1864837|-74.0537531|01/23/1980|
945613|Camp Lakeland|Populated Place|11983|U6|||36|NY|1|029|Erie|42.6678365|-79.0600388|01/23/1980|
945643|Camp Pioneer|Populated Place|11987|U6|||36|NY|1|029|Erie|42.6331143|-79.0808723|01/23/1980|
945694|Campbell|Populated Place|11935|U5|0813|360813101|36|NY|1|101|Steuben|42.2331295|-77.1974748|01/23/1980|01/29/2011
945700|Campbell Hall|Populated Place|11957|U6|0814|360814071|36|NY|1|071|Orange|41.4553716|-74.2626503|01/23/1980|
945701|Campbell Hall Junction|Populated Place|11960|U6|||36|NY|1|071|Orange|41.4603716|-74.2609836|01/23/1980|
945713|Campville|Populated Place|12023|U6|||36|NY|1|107|Tioga|42.0875745|-76.148817|01/23/1980|10/22/2007
945714|Camroden|Populated Place|12034|U6|||36|NY|1|065|Oneida|43.2528474|-75.3551712|01/23/1980|
945715|Canaan|Populated Place|12045|U6|0818|360818021|36|NY|1|021|Columbia|42.4120287|-73.4470553|01/23/1980|
945727|Canada Lake|Populated Place|12078|U6|||36|NY|1|035|Fulton|43.1742374|-74.5115308|01/23/1980|
945734|Canajoharie|Populated Place|12111|P1|0820|360820057|36|NY|1|057|Montgomery|42.9056288|-74.5718073|01/23/1980|03/17/2008
945739|Canandaigua|Populated Place|12144|P1|0830|360830069|36|NY|1|069|Ontario|42.8742314|-77.2880382|01/23/1980|04/13/2009
945743|Canarsie|Populated Place|12166|U4|||36|NY|1|047|Kings|40.643715|-73.9006921|01/23/1980|
945753|Canaseraga|Populated Place|12177|P1|||36|NY|1|003|Allegany|42.4614564|-77.7769405|01/23/1980|03/17/2008
945755|Canastota|Populated Place|12188|P1|0850|360850053|36|NY|1|053|Madison|43.0795121|-75.7507413|01/23/1980|03/17/2008
945759|Canawaugus|Populated Place|12199|U6|||36|NY|1|051|Livingston|42.927007|-77.7794486|01/23/1980|
945764|Candor|Populated Place|12210|P1|0860|360860107|36|NY|1|107|Tioga|42.2328518|-76.3424357|01/23/1980|03/05/2015
945766|Caneadea|Populated Place|12232|U6|0861|360861003|36|NY|1|003|Allegany|42.3864543|-78.1536209|01/23/1980|09/22/2008
945774|Canisteo|Populated Place|12254|P1|0870|360870101|36|NY|1|101|Steuben|42.2703487|-77.6058225|01/23/1980|04/28/2014
945786|Canoe Place|Populated Place|12298|U6|||36|NY|1|103|Suffolk|40.8889894|-72.5039771|01/23/1980|
945789|Canoga|Populated Place|12309|U6|||36|NY|1|099|Seneca|42.8534013|-76.7485627|01/23/1980|
945795|Canterbury Hill|Populated Place|12320|U4|||36|NY|1|065|Oneida|43.2567362|-75.4154513|01/23/1980|
945801|Cape Vincent|Populated Place|12353|P1|0890|360890045|36|NY|1|045|Jefferson|44.1278299|-76.3330006|01/23/1980|03/17/2008
945817|Cardiff|Populated Place|12408|U6|||36|NY|1|067|Onondaga|42.889789|-76.1432586|01/23/1980|
945823|Cards Corners|Populated Place|12410|U6|||36|NY|1|067|Onondaga|42.9892327|-76.250483|01/23/1980|
945829|Careys Corners|Populated Place|12416|U6|||36|NY|1|065|Oneida|43.1472919|-75.2954451|01/23/1980|
945835|Carle Place|Populated Place|12419|U5|0898|360898059|36|NY|1|059|Nassau|40.7526008|-73.6104058|01/23/1980|03/17/2008
945841|Carlisle|Populated Place|12441|U6|0899|360899095|36|NY|1|095|Schoharie|42.7570191|-74.4456909|01/23/1980|
945842|Carlisle Center|Populated Place|12463|U6|||36|NY|1|095|Schoharie|42.7247971|-74.4279134|01/23/1980|11/06/2007
945843|Carlisle Gardens|Populated Place|12474|U6|||36|NY|1|063|Niagara|43.179224|-78.6558642|01/23/1980|
945848|Carlton|Populated Place|12485|U6|||36|NY|1|073|Orleans|43.327836|-78.1908541|01/23/1980|10/22/2007
945852|Carman|Populated Place|12507|U6|||36|NY|1|093|Schenectady|42.7706325|-73.9334573|01/23/1980|
945857|Carmel|Populated Place|12518|U6|0900|360900079|36|NY|1|079|Putnam|41.4300937|-73.6801297|01/23/1980|
945858|Carmel Hills|Populated Place|12535|U6|||36|NY|1|079|Putnam|41.4045383|-73.670685|01/23/1980|
945860|Carmel Park Estates|Populated Place|12540|U6|||36|NY|1|079|Putnam|41.4920377|-73.7348534|01/23/1980|
945866|Carnegie|Populated Place|12562|U6|||36|NY|1|029|Erie|42.7472813|-78.8453109|01/23/1980|
945874|Caroga Lake|Populated Place|12584|U5|||36|NY|1|035|Fulton|43.137849|-74.4812516|01/23/1980|01/29/2011
945875|Caroline|Populated Place|12595|U6|||36|NY|1|109|Tompkins|42.3711843|-76.3996595|01/23/1980|
945877|Caroline Center|Populated Place|12617|U6|||36|NY|1|109|Tompkins|42.3520176|-76.3185455|01/23/1980|11/08/2007
945880|Caroline Depot|Populated Place|12620|U6|||36|NY|1|109|Tompkins|42.3700732|-76.4035486|01/23/1980|
945894|Carpenters Corners|Populated Place|12625|U6|||36|NY|1|035|Fulton|43.218683|-74.1540206|01/23/1980|
945913|Carrollton|Populated Place|12650|U6|||36|NY|1|009|Cattaraugus|42.1083969|-78.651695|01/23/1980|04/15/2011
945943|Cascade|Populated Place|12705|U6|||36|NY|1|011|Cayuga|42.755348|-76.4732707|01/23/1980|
945970|Cassadaga|Populated Place|12749|P1|0920|360920013|36|NY|1|013|Chautauqua|42.3442247|-79.309489|01/23/1980|03/17/2008
945979|Cassville|Populated Place|12760|U6|||36|NY|1|065|Oneida|42.9459036|-75.2543302|01/23/1980|10/22/2007
945981|Castile|Populated Place|12771|P1|||36|NY|1|121|Wyoming|42.6289515|-78.0544514|01/23/1980|04/15/2011
945984|Castle Creek|Populated Place|12815|U6|0934|360934007|36|NY|1|007|Broome|42.2275753|-75.918253|01/23/1980|
945995|Castle Point|Populated Place|12837|U6|0935|360935027|36|NY|1|027|Dutchess|41.5462048|-73.9595828|01/23/1980|
946000|Castleton Corners|Populated Place|12848|U4|||36|NY|1|085|Richmond|40.6131597|-74.1223647|01/23/1980|10/01/2009
946006|Castorland|Populated Place|12881|P1|0950|360950049|36|NY|1|049|Lewis|43.8884026|-75.5112979|01/23/1980|05/13/2014
946032|Catatonk|Populated Place|12892|U6|||36|NY|1|107|Tioga|42.1570185|-76.3074345|01/23/1980|
946033|Catawba|Populated Place|12895|U6|||36|NY|1|101|Steuben|42.4956263|-77.1599733|01/23/1980|
946035|Catfish Corners|Populated Place|12900|U6|||36|NY|1|075|Oswego|43.3700691|-76.2068718|01/23/1980|11/27/2006
946037|Catharine|Populated Place|12903|U6|||36|NY|1|097|Schuyler|42.312852|-76.7846764|01/23/1980|08/13/2009
946053|Cato|Populated Place|12958|P1|||36|NY|1|011|Cayuga|43.1681226|-76.5729987|01/23/1980|03/17/2008
946055|Caton|Populated Place|12980|U6|0965|360965101|36|NY|1|101|Steuben|42.0561853|-77.0277448|01/23/1980|
946058|Cator Corners|Populated Place|12996|U6|||36|NY|1|117|Wayne|43.0939521|-77.3019305|01/23/1980|
946061|Catskill|Populated Place|13002|P1|||36|NY|1|039|Greene|42.2173102|-73.8645734|01/23/1980|03/17/2008
946066|Cattaraugus|Populated Place|13024|P1|0980|360980009|36|NY|1|009|Cattaraugus|42.3292287|-78.8680903|01/23/1980|09/22/2008
946071|Cattown|Populated Place|13046|U6|||36|NY|1|077|Otsego|42.7303518|-75.0029348|01/23/1980|
946072|Caughdenoy|Populated Place|13057|U6|||36|NY|1|075|Oswego|43.2725687|-76.2071491|01/23/1980|10/22/2007
946076|Cauterskill|Populated Place|13062|U6|||36|NY|1|039|Greene|42.220088|-73.891241|01/23/1980|
946081|Cayuga|Populated Place|13068|P1|0990|360990011|36|NY|1|011|Cayuga|42.9189555|-76.7263397|01/23/1980|03/17/2008
946089|Cayuta|Populated Place|13101|U6|1003|361003097|36|NY|1|097|Schuyler|42.2817412|-76.6968945|01/23/1980|08/13/2009
946090|Cazenovia|Populated Place|13145|P1|1010|361010053|36|NY|1|053|Madison|42.9300668|-75.8526915|01/23/1980|03/17/2008
946094|Cecil Park|Populated Place|13167|U4|||36|NY|1|119|Westchester|40.9750981|-73.8184667|01/23/1980|
946100|Cedar Bluffs|Populated Place|13175|U6|||36|NY|1|091|Saratoga|43.0392421|-73.7131744|01/23/1980|
946105|Cedar Flats|Populated Place|13211|U6|||36|NY|1|087|Rockland|41.2409273|-74.0240304|01/23/1980|
946108|Cedar Hill|Populated Place|13222|U6|||36|NY|1|001|Albany|42.5445249|-73.7734553|01/23/1980|
946119|Cedar Knolls|Populated Place|13244|U4|||36|NY|1|119|Westchester|40.9481542|-73.8404119|01/23/1980|
946121|Cedar Lake|Populated Place|13250|U6|||36|NY|1|043|Herkimer|42.958126|-75.1793279|01/23/1980|
946124|Cedar Manor|Populated Place|13254|U6|||36|NY|1|081|Queens|40.6906588|-73.7904112|01/23/1980|
946155|Cedarcrest|Populated Place|13200|U6|||36|NY|1|051|Livingston|42.8056191|-77.7005549|01/23/1980|
946156|Cedarhurst|Populated Place|13233|P1|||36|NY|1|059|Nassau|40.6228819|-73.7242983|01/23/1980|03/17/2008
946158|Cedarvale|Populated Place|13266|U6|||36|NY|1|067|Onondaga|42.9658995|-76.2493721|01/23/1980|
946160|Cedarville|Populated Place|13277|U6|1022|361022043|36|NY|1|043|Herkimer|42.9306265|-75.1126594|01/23/1980|
946161|Cedarville Station|Populated Place|13282|U6|||36|NY|1|043|Herkimer|42.902849|-75.1207153|01/23/1980|
946168|Celoron|Populated Place|13288|P1|1030|361030013|36|NY|1|013|Chautauqua|42.1095021|-79.2831039|01/23/1980|03/17/2008
946172|Cementon|Populated Place|13299|U6|1034|361034039|36|NY|1|039|Greene|42.1350895|-73.9245772|01/23/1980|06/21/2007
946180|Centenary|Populated Place|13310|U6|||36|NY|1|087|Rockland|41.1778728|-73.9656946|01/23/1980|
946186|Center Berlin|Populated Place|13332|U6|||36|NY|1|083|Rensselaer|42.6609134|-73.3687211|01/23/1980|11/02/2007
946191|Center Cambridge|Populated Place|13365|U6|||36|NY|1|115|Washington|42.9947997|-73.4559469|01/23/1980|11/09/2007
946192|Center Falls|Populated Place|13387|U6|||36|NY|1|115|Washington|43.0992429|-73.4584464|01/23/1980|
946196|Center Lisle|Populated Place|13409|U6|||36|NY|1|007|Broome|42.3584065|-76.0615923|01/23/1980|11/14/2007
946202|Center Valley|Populated Place|13447|U6|||36|NY|1|077|Otsego|42.7578522|-74.6856993|01/23/1980|10/31/2007
946206|Centereach|Populated Place|13376|U5|1039|361039103|36|NY|1|103|Suffolk|40.8584316|-73.0995539|01/23/1980|03/17/2008
946208|Centerfield|Populated Place|13398|U6|||36|NY|1|069|Ontario|42.8814533|-77.3588754|01/23/1980|10/24/2007
946209|Centerport|Populated Place|13431|U6|||36|NY|1|011|Cayuga|43.040899|-76.5927214|01/23/1980|
946210|Centerport|Populated Place|13442|U5|||36|NY|1|103|Suffolk|40.885376|-73.3762297|01/23/1980|03/17/2008
946214|Centerville|Populated Place|13500|U6|||36|NY|1|103|Suffolk|40.969543|-72.6917637|01/23/1980|
946215|Centerville|Populated Place|13486|U6|||36|NY|1|025|Delaware|42.0150871|-75.1318346|01/23/1980|
946216|Centerville|Populated Place|13504|U6|||36|NY|1|111|Ulster|42.0842572|-74.0131925|01/23/1980|
946220|Central Bridge|Populated Place|13530|U5|1048|361048095|36|NY|1|095|Schoharie|42.7111862|-74.3387443|01/23/1980|01/29/2011
946246|Central Islip|Populated Place|13552|U5|1050|361050103|36|NY|1|103|Suffolk|40.7906538|-73.2017811|01/23/1980|03/17/2008
946251|Central Nyack|Populated Place|13563|U6|1055|361055087|36|NY|1|087|Rockland|41.0939851|-73.9501379|01/23/1980|
946322|Central Square|Populated Place|13585|P1|1060|361060075|36|NY|1|075|Oswego|43.2867356|-76.1460357|01/23/1980|03/17/2008
946324|Central Valley|Populated Place|13596|U6|1061|361061071|36|NY|1|071|Orange|41.3317605|-74.120978|01/23/1980|
946326|Centralia|Populated Place|13541|U6|||36|NY|1|013|Chautauqua|42.2586693|-79.3478237|01/23/1980|
946329|Centre Island|Populated Place|13618|P1|1070|361070059|36|NY|1|059|Nassau|40.9017651|-73.5198453|01/23/1980|03/17/2008
946333|Ceres|Populated Place|13651|U6|1071|361071003|36|NY|1|003|Allegany|41.9995099|-78.2689024|01/23/1980|
946336|Chadwicks|Populated Place|13662|U5|||36|NY|1|065|Oneida|43.0278475|-75.2715534|01/23/1980|01/29/2011
946337|Chaffee|Populated Place|13673|U6|1075|361075029|36|NY|1|029|Erie|42.5681176|-78.4789091|01/23/1980|
946350|Chambers|Populated Place|13695|U6|||36|NY|1|015|Chemung|42.2622968|-76.9566297|01/23/1980|
946358|Champion|Populated Place|13706|U6|1077|361077045|36|NY|1|045|Jefferson|43.9622893|-75.6901951|01/23/1980|
946361|Champlain|Populated Place|13739|P1|1080|361080019|36|NY|1|019|Clinton|44.9864273|-73.4465251|01/23/1980|10/30/2014
946384|Chapin|Populated Place|13794|U6|||36|NY|1|069|Ontario|42.9186753|-77.2347026|01/23/1980|10/22/2007
946388|Chapinville|Populated Place|13800|U6|||36|NY|1|077|Otsego|42.7350728|-75.1823847|01/23/1980|
946393|Chappaqua|Populated Place|13805|U5|1083|361083119|36|NY|1|119|Westchester|41.1595399|-73.764855|01/23/1980|03/17/2008
946403|Charleston|Populated Place|13827|U4|||36|NY|1|085|Richmond|40.5367719|-74.2373672|01/23/1980|
946404|Charleston|Populated Place|13810|U6|||36|NY|1|057|Montgomery|42.8459076|-74.341244|01/23/1980|10/22/2007
946406|Charleston Four Corners|Populated Place|13838|U6|||36|NY|1|057|Montgomery|42.8028522|-74.3990231|01/23/1980|
946407|Charlesworth Corners|Populated Place|13845|U6|||36|NY|1|057|Montgomery|42.966461|-74.685978|01/23/1980|
946412|Charlotte|Populated Place|13871|U4|||36|NY|1|055|Monroe|43.2550618|-77.6169467|01/23/1980|10/22/2007
946414|Charlotte Center|Populated Place|13882|U6|||36|NY|1|013|Chautauqua|42.3045027|-79.237822|01/23/1980|02/26/2007
946420|Charlotteville|Populated Place|13904|U6|1086|361086095|36|NY|1|095|Schoharie|42.5453541|-74.664594|01/23/1980|
946421|Charlton|Populated Place|13915|U6|||36|NY|1|091|Saratoga|42.9334089|-73.9690142|01/23/1980|10/22/2007
946442|Chaseville|Populated Place|13959|U6|||36|NY|1|077|Otsego|42.5406326|-74.8562666|01/23/1980|
946443|Chateaugay|Populated Place|13981|P1|1090|361090033|36|NY|1|033|Franklin|44.9264337|-74.0796081|01/23/1980|03/17/2008
946447|Chatfield Corner|Populated Place|14000|U6|||36|NY|1|091|Saratoga|43.1081295|-73.9426252|01/23/1980|
946448|Chatham|Populated Place|14003|P1|||36|NY|1|021|Columbia|42.3642517|-73.5948391|01/23/1980|03/17/2008
946449|Chatham Center|Populated Place|14025|U6|||36|NY|1|021|Columbia|42.4181391|-73.6140058|01/23/1980|03/02/2007
946459|Chautauqua|Populated Place|14058|U5|||36|NY|1|013|Chautauqua|42.2097798|-79.466714|01/23/1980|01/29/2011
946462|Chazy|Populated Place|14102|U5|1116|361116019|36|NY|1|019|Clinton|44.889762|-73.4359687|01/23/1980|01/29/2011
946464|Chazy Landing|Populated Place|14135|U6|||36|NY|1|019|Clinton|44.8872626|-73.3781892|01/23/1980|10/22/2007
946474|Chelsea|Populated Place|15055|U4|||36|NY|1|085|Richmond|40.6006596|-74.1948665|01/23/1980|10/02/2009
946475|Chelsea|Populated Place|15044|U6|||36|NY|1|027|Dutchess|41.5537048|-73.9668053|01/23/1980|10/15/2014
946477|Chemung|Populated Place|15066|U6|||36|NY|1|015|Chemung|42.0084073|-76.6238369|01/23/1980|07/10/2009
946480|Chenango Bridge|Populated Place|15121|U5|1119|361119007|36|NY|1|007|Broome|42.1667426|-75.8624167|01/23/1980|01/29/2011
946482|Chenango Forks|Populated Place|15132|U6|1118|361118007|36|NY|1|007|Broome|42.2356313|-75.8482503|01/23/1980|
946487|Chenango Lake|Populated Place|15143|U6|||36|NY|1|017|Chenango|42.5850732|-75.4351769|01/23/1980|
946502|Cheningo|Populated Place|15165|U6|||36|NY|1|023|Cortland|42.6597911|-75.9985345|01/23/1980|
946509|Cherry Creek|Populated Place|15187|P1|||36|NY|1|013|Chautauqua|42.2945042|-79.0997635|01/23/1980|03/17/2008
946512|Cherry Grove|Populated Place|15209|U6|||36|NY|1|103|Suffolk|40.6589884|-73.0890008|01/23/1980|
946532|Cherry Valley|Populated Place|15242|P1|1130|361130077|36|NY|1|077|Otsego|42.7956295|-74.7532018|01/23/1980|03/30/2015
946536|Cheshire|Populated Place|15286|U6|||36|NY|1|069|Ontario|42.8214541|-77.327484|01/23/1980|
946539|Chester|Populated Place|15297|P1|1140|361140071|36|NY|1|071|Orange|41.3625937|-74.2712613|01/23/1980|10/03/2014
946542|Chester Hill Park|Populated Place|15352|U4|||36|NY|1|119|Westchester|40.9234323|-73.8223559|01/23/1980|
946543|Chestertown|Populated Place|15363|U5|1141|361141113|36|NY|1|113|Warren|43.6525664|-73.8009597|01/23/1980|01/29/2011
946554|Chestnut Ridge|Populated Place|15385|U6|||36|NY|1|027|Dutchess|41.7309273|-73.6295719|01/23/1980|
946566|Cheviot|Populated Place|15407|U6|||36|NY|1|021|Columbia|42.1250897|-73.9037433|01/23/1980|04/15/2011
946567|Chichester|Populated Place|15418|U6|1142|361142111|36|NY|1|111|Ulster|42.1017567|-74.3093139|01/23/1980|
946575|Childs|Populated Place|15429|U6|||36|NY|1|073|Orleans|43.2867252|-78.1916875|01/23/1980|
946578|Chili Center|Populated Place|15473|U6|1146|361146055|36|NY|1|055|Monroe|43.1072841|-77.7455612|01/23/1980|
946580|Chilson|Populated Place|15495|U6|||36|NY|1|031|Essex|43.8772808|-73.5287342|01/23/1980|10/22/2007
946583|Chimney Corners|Populated Place|15502|U6|||36|NY|1|119|Westchester|41.2298165|-73.9081933|01/23/1980|
946588|Chinatown|Populated Place|15517|U4|||36|NY|1|061|New York|40.7164913|-73.9962504|01/23/1980|
946589|Chipman Corners|Populated Place|15530|U6|||36|NY|1|011|Cayuga|42.6328484|-76.3752127|01/23/1980|
946590|Chipmunk|Populated Place|15539|U6|||36|NY|1|009|Cattaraugus|42.0570083|-78.575303|01/23/1980|
946605|Choconut Center|Populated Place|15594|U6|||36|NY|1|007|Broome|42.1428531|-75.9435309|01/23/1980|02/20/2007
946629|Christian Hill|Populated Place|15602|U6|||36|NY|1|113|Warren|43.7372868|-74.0787492|01/23/1980|
946629|Christian Hill|Populated Place|15602|U6|||36|NY|2|041|Hamilton|43.7372868|-74.0787492|01/23/1980|
946661|Chuckery Corners|Populated Place|15605|U6|||36|NY|1|065|Oneida|43.0322919|-75.3290563|01/23/1980|
946676|Church Corners|Populated Place|15610|U6|||36|NY|1|057|Montgomery|42.9789628|-74.2812443|01/23/1980|
946687|Churchtown|Populated Place|15627|U6|||36|NY|1|021|Columbia|42.1761997|-73.7187357|01/23/1980|
946689|Churchville|Populated Place|15649|U6|||36|NY|1|065|Oneida|43.1897914|-75.5762906|01/23/1980|
946690|Churchville|Populated Place|15638|P1|1160|361160055|36|NY|1|055|Monroe|43.1042278|-77.8844543|01/23/1980|03/17/2008
946693|Churubusco|Populated Place|15671|U6|||36|NY|1|019|Clinton|44.9539315|-73.9315417|01/23/1980|04/19/2011
946694|Cicero|Populated Place|15693|U6|||36|NY|1|067|Onondaga|43.1756235|-76.1193678|01/23/1980|10/22/2007
946695|Cicero Center|Populated Place|15715|U6|||36|NY|1|067|Onondaga|43.178957|-76.0407538|01/23/1980|
946699|Cincinnatus|Populated Place|15737|U6|1168|361168023|36|NY|1|023|Cortland|42.5422923|-75.8957534|01/23/1980|
946713|City Island|Populated Place|15770|U4|||36|NY|1|005|Bronx|40.8473226|-73.7865218|01/23/1980|
946735|Clarence|Populated Place|15814|U5|||36|NY|1|029|Erie|42.9767255|-78.5919709|01/23/1980|01/29/2011
946736|Clarence Center|Populated Place|15836|U5|||36|NY|1|029|Erie|43.0106139|-78.6375283|01/23/1980|03/17/2008
946741|Clarendon|Populated Place|15869|U6|||36|NY|1|073|Orleans|43.193393|-78.0647387|01/23/1980|08/03/2009
946742|Clark|Populated Place|15882|U6|||36|NY|1|013|Chautauqua|42.1245037|-79.0983769|01/23/1980|
946752|Clark Corners|Populated Place|15886|U6|||36|NY|1|075|Oswego|43.4375687|-76.4260486|01/23/1980|
946753|Clark Corners|Populated Place|15884|U6|||36|NY|1|049|Lewis|43.8836793|-75.6607474|01/23/1980|
946758|Clark Heights|Populated Place|15891|U6|||36|NY|1|027|Dutchess|41.7317604|-73.8431892|01/23/1980|
946769|Clark Mills|Populated Place|15902|U5|||36|NY|1|065|Oneida|43.0922918|-75.379615|01/23/1980|07/28/2009
946773|Clark Point|Populated Place|15907|U6|||36|NY|1|045|Jefferson|43.8253415|-76.2690965|01/23/1980|
946783|Clarks Corner|Populated Place|15917|U6|||36|NY|1|091|Saratoga|43.2214623|-73.6415059|01/23/1980|10/24/2014
946785|Clarks Mills|Populated Place|15935|U6|||36|NY|1|115|Washington|43.1181309|-73.5687266|01/23/1980|
946788|Clarksburg|Populated Place|15913|U6|||36|NY|1|029|Erie|42.6197825|-78.8314207|01/23/1980|03/02/2007
946789|Clarkson|Populated Place|15946|U5|1174|361174055|36|NY|1|055|Monroe|43.2331158|-77.9275129|01/23/1980|01/29/2011
946794|Clarksville|Populated Place|15979|U6|||36|NY|1|001|Albany|42.5759119|-73.9640169|01/23/1980|10/22/2007
946797|Claryville|Populated Place|16001|U6|1181|361181105|36|NY|1|105|Sullivan|41.918425|-74.5723786|01/23/1980|
946802|Claverack|Populated Place|16034|U3|1173|361173021|36|NY|1|021|Columbia|42.2250876|-73.7345686|01/23/1980|
946803|Clay|Populated Place|16056|U6|||36|NY|1|067|Onondaga|43.1859013|-76.1724254|01/23/1980|10/22/2007
946809|Clayton|Populated Place|16089|P1|||36|NY|1|045|Jefferson|44.239491|-76.0857759|01/23/1980|03/17/2008
946810|Clayville|Populated Place|16111|P1|||36|NY|1|065|Oneida|42.98007|-75.2509966|01/23/1980|03/17/2008
946812|Clear Creek|Populated Place|16122|U6|||36|NY|1|013|Chautauqua|42.2208934|-79.0603192|01/23/1980|02/26/2007
946812|Clear Creek|Populated Place|16122|U6|||36|NY|2|009|Cattaraugus|42.2208934|-79.0603192|01/23/1980|02/26/2007
946842|Clemons|Populated Place|16155|U6|1194|361194115|36|NY|1|115|Washington|43.6364539|-73.4453928|01/23/1980|
946844|Clermont|Populated Place|16166|U6|1195|361195021|36|NY|1|021|Columbia|42.0850903|-73.8270746|01/23/1980|
946846|Cleveland|Populated Place|16188|P1|1200|361200075|36|NY|1|075|Oswego|43.2403467|-75.8838027|01/23/1980|03/17/2008
946851|Cleveland Hill|Populated Place|16199|U6|||36|NY|1|029|Erie|42.9447802|-78.7841994|01/23/1980|
946862|Cleverdale|Populated Place|16210|U6|1205|361205113|36|NY|1|113|Warren|43.4772914|-73.6426164|01/23/1980|
946863|Cliff Haven|Populated Place|16221|U6|||36|NY|1|019|Clinton|44.6586551|-73.4409676|01/23/1980|
946872|Cliffside|Populated Place|16243|U6|||36|NY|1|077|Otsego|42.513967|-74.982382|01/23/1980|
946874|Clifton|Populated Place|16276|U4|||36|NY|1|085|Richmond|40.6201041|-74.0770857|01/23/1980|
946875|Clifton|Populated Place|16265|U6|||36|NY|1|055|Monroe|43.052284|-77.8147294|01/23/1980|10/22/2007
946877|Clifton Heights|Populated Place|16309|U6|||36|NY|1|029|Erie|42.7358922|-78.9167019|01/23/1980|
946878|Clifton Park|Populated Place|16342|U6|||36|NY|1|091|Saratoga|42.8656325|-73.7709535|01/23/1980|06/09/2009
946879|Clifton Park Center|Populated Place|16364|U6|||36|NY|1|091|Saratoga|42.85841|-73.8203991|01/23/1980|
946882|Climax|Populated Place|16386|U6|1214|361214039|36|NY|1|039|Greene|42.3659174|-73.85096|01/23/1980|
946885|Clinton|Populated Place|16419|P1|||36|NY|1|065|Oneida|43.0484029|-75.3785034|01/23/1980|03/17/2008
946887|Clinton Corners|Populated Place|16430|U6|1221|361221027|36|NY|1|027|Dutchess|41.8300933|-73.7623524|01/23/1980|
946888|Clinton Heights|Populated Place|16463|U6|||36|NY|1|083|Rensselaer|42.6189687|-73.734009|01/23/1980|
946889|Clinton Hollow|Populated Place|16474|U6|||36|NY|1|027|Dutchess|41.8450931|-73.8159655|01/23/1980|
946893|Clinton Park|Populated Place|16496|U6|||36|NY|1|083|Rensselaer|42.6242464|-73.7284533|01/23/1980|
946900|Clintondale|Populated Place|16452|U5|1219|361219111|36|NY|1|111|Ulster|41.6948156|-74.0512528|01/23/1980|10/03/2014
946901|Clintondale Station|Populated Place|16441|U6|||36|NY|1|111|Ulster|41.7164823|-74.0593086|01/23/1980|
946903|Clintonville|Populated Place|16510|U6|||36|NY|1|067|Onondaga|42.9322889|-76.3493764|01/23/1980|
946904|Clintonville|Populated Place|16507|U6|1223|361223019|36|NY|1|019|Clinton|44.4656034|-73.5826369|01/23/1980|
946909|Clockville|Populated Place|16529|U6|||36|NY|1|053|Madison|43.0417341|-75.7446299|01/23/1980|10/24/2007
946919|Clove|Populated Place|16551|U6|||36|NY|1|095|Schoharie|42.6822973|-74.5820869|01/23/1980|
946928|Clove Valley|Populated Place|16565|U6|||36|NY|1|027|Dutchess|41.6353715|-73.6884625|01/23/1980|10/15/2014
946930|Clover Bank|Populated Place|16562|U6|||36|NY|1|029|Erie|42.7472811|-78.8897567|01/23/1980|
946938|Clums Corner|Populated Place|16567|U6|||36|NY|1|083|Rensselaer|42.7506336|-73.5720602|01/23/1980|01/08/2009
946939|Cluny Point|Populated Place|16570|U6|||36|NY|1|051|Livingston|42.8250633|-77.7094444|01/23/1980|
946941|Clyde|Populated Place|16573|P1|||36|NY|1|117|Wayne|43.0842314|-76.8694049|01/23/1980|03/17/2008
946943|Clymer|Populated Place|16584|U6|1232|361232013|36|NY|1|013|Chautauqua|42.0208881|-79.6300504|01/23/1980|
946944|Clymer Center|Populated Place|16600|U6|||36|NY|1|013|Chautauqua|42.0533888|-79.5778276|01/23/1980|
946956|Cobb|Populated Place|16617|U6|||36|NY|1|103|Suffolk|40.9012113|-72.3550841|01/23/1980|
946981|Cobleskill|Populated Place|16628|P1|1240|361240095|36|NY|1|095|Schoharie|42.677853|-74.4854172|01/23/1980|06/22/2009
946985|Cochecton|Populated Place|16650|U6|1242|361242105|36|NY|1|105|Sullivan|41.7059217|-75.0604458|01/23/1980|07/01/2009
946986|Cochecton Center|Populated Place|16672|U6|||36|NY|1|105|Sullivan|41.6548109|-74.9826663|01/23/1980|11/08/2007
947000|Coeymans|Populated Place|16683|U5|||36|NY|1|001|Albany|42.4739705|-73.7923456|01/23/1980|03/17/2008
947001|Coeymans Hollow|Populated Place|16705|U6|||36|NY|1|001|Albany|42.4717475|-73.8945716|01/23/1980|
947007|Cohocton|Populated Place|16727|P1|||36|NY|1|101|Steuben|42.5022907|-77.5072102|01/23/1980|05/12/2014
947009|Cohoes|Populated Place|16749|P1|1260|361260001|36|NY|1|001|Albany|42.7742446|-73.7001187|01/23/1980|09/24/2008
947011|Coila|Populated Place|16760|U6|||36|NY|1|115|Washington|43.0359105|-73.4009456|01/23/1980|10/24/2007
947014|Cokertown|Populated Place|16771|U6|||36|NY|1|027|Dutchess|42.0192582|-73.8212424|01/23/1980|
947019|Colburns|Populated Place|16776|U6|||36|NY|1|013|Chautauqua|42.1389463|-79.3597703|01/23/1980|
947024|Cold Brook|Populated Place|16835|U6|||36|NY|1|111|Ulster|42.0131477|-74.2698694|01/23/1980|
947025|Cold Brook|Populated Place|16815|P1|||36|NY|1|043|Herkimer|43.2417356|-75.0387702|01/23/1980|03/17/2008
947053|Cold Spring|Populated Place|16897|U6|||36|NY|1|009|Cattaraugus|42.0970059|-78.8647585|01/23/1980|
947054|Cold Spring|Populated Place|16914|U4|||36|NY|1|011|Cayuga|42.9497886|-76.5771646|01/23/1980|
947073|Cold Spring Harbor|Populated Place|16958|U5|||36|NY|1|103|Suffolk|40.8714873|-73.456788|01/23/1980|08/13/2009
947075|Cold Spring Harbor Station|Locale|16947|U6|||36|NY|1|103|Suffolk|40.8350987|-73.4515107|01/23/1980|
947081|Cold Springs|Populated Place|16980|U6|||36|NY|1|067|Onondaga|43.1328451|-76.2568727|01/23/1980|
947086|Coldbrook|Populated Place|16826|U6|||36|NY|1|093|Schenectady|42.7786879|-73.9437354|01/23/1980|
947089|Colden|Populated Place|16859|U6|||36|NY|1|029|Erie|42.6442273|-78.6847495|01/23/1980|10/24/2007
947092|Coldenham|Populated Place|16881|U6|||36|NY|1|071|Orange|41.5256494|-74.1529237|01/23/1980|
947094|Coldwater|Populated Place|17013|U6|||36|NY|1|055|Monroe|43.1358951|-77.7352834|01/23/1980|
947117|Coleman Station|Populated Place|17040|U6|||36|NY|1|027|Dutchess|41.9017595|-73.5184575|01/23/1980|
947118|Colemans Mills|Populated Place|17035|U6|||36|NY|1|065|Oneida|43.129514|-75.3460027|01/23/1980|
947132|Collamer|Populated Place|17090|U6|||36|NY|1|067|Onondaga|43.1047894|-76.0601992|01/23/1980|10/24/2007
947133|Collamer|Populated Place|17079|U6|||36|NY|1|055|Monroe|43.2972825|-77.8130652|01/23/1980|
947138|College Park|Populated Place|17112|U6|||36|NY|1|027|Dutchess|42.0192582|-73.8815223|01/23/1980|
947140|College Point|Populated Place|17134|U4|||36|NY|1|081|Queens|40.7876014|-73.8459682|01/23/1980|11/02/2007
947146|Colliersville|Populated Place|17156|U6|1287|361287077|36|NY|1|077|Otsego|42.4909119|-74.9821045|01/23/1980|
947150|Collingwood Estates|Populated Place|17178|U6|||36|NY|1|063|Niagara|43.2289437|-79.0481017|01/23/1980|
947151|Collins|Populated Place|17189|U6|1286|361286029|36|NY|1|029|Erie|42.49645|-78.9205893|01/23/1980|
947157|Collins Center|Populated Place|17211|U6|1288|361288029|36|NY|1|029|Erie|42.4936725|-78.8514207|01/23/1980|03/02/2007
947163|Collinsville|Populated Place|17233|U6|||36|NY|1|049|Lewis|43.610347|-75.384066|01/23/1980|10/24/2007
947171|Colonial Acres|Populated Place|17255|U4|||36|NY|1|119|Westchester|40.975376|-73.759854|01/23/1980|
947173|Colonial Heights|Populated Place|17277|U4|||36|NY|1|119|Westchester|40.9598206|-73.8412452|01/23/1980|
947174|Colonial Heights|Populated Place|17266|U6|||36|NY|1|027|Dutchess|41.7139826|-73.8581899|01/23/1980|
947176|Colonial Park|Populated Place|17299|U4|||36|NY|1|065|Oneida|43.2209028|-75.4357296|01/23/1980|
947178|Colonial Village|Populated Place|17321|U6|||36|NY|1|063|Niagara|43.1350558|-78.9658753|01/23/1980|
947179|Colonie|Populated Place|17332|P1|1290|361290001|36|NY|1|001|Albany|42.7178558|-73.8334554|01/23/1980|03/17/2008
947182|Colosse|Populated Place|17387|U6|||36|NY|1|075|Oswego|43.4203473|-76.1588146|01/23/1980|10/24/2007
947186|Columbia Center|Populated Place|17442|U6|||36|NY|1|043|Herkimer|42.9325712|-75.0371016|01/23/1980|07/16/2009
947196|Columbiaville|Populated Place|17464|U6|1294|361294021|36|NY|1|021|Columbia|42.3184188|-73.7531791|01/23/1980|
947197|Columbus|Populated Place|17475|U6|||36|NY|1|017|Chenango|42.6839611|-75.3726723|01/23/1980|07/06/2009
947204|Columbus Quarter|Populated Place|17502|U6|||36|NY|1|017|Chenango|42.71035|-75.317391|01/23/1980|
947221|Commack|Populated Place|17530|U5|1296|361296103|36|NY|1|103|Suffolk|40.8428759|-73.2928943|01/23/1980|10/10/2014
947249|Comstock Corners|Populated Place|17567|U6|||36|NY|1|063|Niagara|43.144779|-78.7822572|01/23/1980|
947254|Concord|Populated Place|17596|U4|||36|NY|1|085|Richmond|40.6081599|-74.0843081|01/23/1980|
947255|Concord|Populated Place|17580|U6|||36|NY|1|029|Erie|42.5353392|-78.7308615|01/23/1980|
947262|Conesus|Populated Place|17607|U6|||36|NY|1|051|Livingston|42.7189532|-77.6763859|01/23/1980|10/24/2007
947266|Conesville|Populated Place|17640|U6|||36|NY|1|095|Schoharie|42.3873033|-74.3762565|01/23/1980|08/13/2009
947267|Conewango|Populated Place|17673|U6|||36|NY|1|009|Cattaraugus|42.2386716|-79.0311516|01/23/1980|
947269|Conewango Valley|Populated Place|17706|U6|1299|361299013|36|NY|1|013|Chautauqua|42.2408935|-79.0608745|01/23/1980|
947269|Conewango Valley|Populated Place|17706|U6|1299|361299009|36|NY|2|009|Cattaraugus|42.2408935|-79.0608745|01/23/1980|
947270|Coney Island|Populated Place|17717|U4|||36|NY|1|047|Kings|40.5778831|-73.9940279|01/23/1980|02/15/2018
947279|Conger Corners|Populated Place|17728|U6|||36|NY|1|065|Oneida|42.9195143|-75.4110052|01/23/1980|
947282|Congers|Populated Place|17739|U5|1300|361300087|36|NY|1|087|Rockland|41.150651|-73.9454159|01/23/1980|03/17/2008
947286|Conklin|Populated Place|17761|U6|1302|361302007|36|NY|1|007|Broome|42.0342437|-75.803801|01/23/1980|
947289|Conklin Center|Populated Place|17778|U6|||36|NY|1|007|Broome|42.056188|-75.806857|01/23/1980|02/20/2007
947291|Conklin Forks|Populated Place|17794|U6|||36|NY|1|007|Broome|42.0236876|-75.8565811|01/23/1980|02/20/2007
947298|Conklin Station|Populated Place|17810|U6|||36|NY|1|007|Broome|42.0225771|-75.7971338|01/23/1980|
947300|Conklingville|Populated Place|17805|U6|||36|NY|1|091|Saratoga|43.3156265|-73.9348476|01/23/1980|08/10/2009
947303|Connelly|Populated Place|17816|U6|1303|361303111|36|NY|1|111|Ulster|41.9100924|-73.9912495|01/23/1980|
947304|Connelly Park|Populated Place|17827|U6|||36|NY|1|013|Chautauqua|42.1431129|-79.3986592|01/23/1980|
947315|Conquest|Populated Place|17838|U6|||36|NY|1|011|Cayuga|43.1211773|-76.6480028|01/23/1980|07/10/2009
947322|Constable|Populated Place|17860|U6|1305|361305033|36|NY|1|033|Franklin|44.9292125|-74.2971311|01/23/1980|07/15/2009
947326|Constableville|Populated Place|17882|P1|||36|NY|1|049|Lewis|43.566736|-75.4285106|01/23/1980|03/17/2008
947327|Constantia|Populated Place|17893|U5|||36|NY|1|075|Oswego|43.2478467|-76.0001965|01/23/1980|03/17/2008
947328|Constantia Center|Populated Place|17915|U6|||36|NY|1|075|Oswego|43.2806247|-75.9218599|01/23/1980|10/24/2007
947344|Cook Corners|Populated Place|17932|U6|||36|NY|1|013|Chautauqua|42.4772798|-79.2578196|01/23/1980|
947345|Cook Corners|Populated Place|17934|U6|||36|NY|1|057|Montgomery|42.9292397|-74.5518067|01/23/1980|
947357|Cooks Falls|Populated Place|17970|U6|1315|361315025|36|NY|1|025|Delaware|41.947866|-74.9804419|01/23/1980|
947363|Cooksburg|Populated Place|17948|U6|||36|NY|1|001|Albany|42.4206358|-74.2051396|01/23/1980|02/20/2007
947365|Cooley|Populated Place|17986|U6|||36|NY|1|105|Sullivan|41.8717565|-74.7090482|01/23/1980|
947368|Coolidge Beach|Populated Place|17992|U6|||36|NY|1|063|Niagara|43.3058885|-78.8672626|01/23/1980|
947383|Coonrod|Populated Place|18003|U4|||36|NY|1|065|Oneida|43.2484027|-75.5232333|01/23/1980|
947385|Coons|Populated Place|18006|U6|||36|NY|1|091|Saratoga|42.9186876|-73.7459528|01/23/1980|
947398|Coopers Corners|Populated Place|18028|U6|||36|NY|1|105|Sullivan|41.6714787|-74.7509957|01/23/1980|
947402|Cooperstown Junction|Populated Place|18058|U6|||36|NY|1|077|Otsego|42.4917452|-74.9571038|01/23/1980|
947403|Coopersville|Populated Place|18069|U6|||36|NY|1|019|Clinton|44.9430949|-73.4079125|01/23/1980|07/10/2009
947408|Copake|Populated Place|18091|U3|1327|361327021|36|NY|1|021|Columbia|42.1034238|-73.5501211|01/23/1980|03/24/2014
947409|Copake Falls|Populated Place|18113|U5|1328|361328021|36|NY|1|021|Columbia|42.1195347|-73.5251198|01/23/1980|03/24/2014
947413|Copenhagen|Populated Place|18135|P1|||36|NY|1|049|Lewis|43.8934013|-75.6735259|01/23/1980|03/17/2008
947414|Copiague|Populated Place|18146|U5|1335|361335103|36|NY|1|103|Suffolk|40.6814892|-73.3998445|01/23/1980|03/17/2008
947423|Coram|Populated Place|18157|U5|1337|361337103|36|NY|1|103|Suffolk|40.8687097|-73.0014946|01/23/1980|06/26/2009
947426|Corbett|Populated Place|18168|U6|||36|NY|1|025|Delaware|42.0434207|-75.0218316|01/23/1980|
947428|Corbettsville|Populated Place|18179|U6|1338|361338007|36|NY|1|007|Broome|42.0156328|-75.7904667|01/23/1980|
947440|Cordova|Populated Place|18185|U6|||36|NY|1|013|Chautauqua|42.4492243|-79.3542108|01/23/1980|
947445|Coreys|Populated Place|18190|U6|||36|NY|1|033|Franklin|44.21955|-74.3159|01/23/1980|04/29/2008
947446|Corfu|Populated Place|18201|P1|||36|NY|1|037|Genesee|42.9600595|-78.4055767|01/23/1980|03/17/2008
947476|Corning|Populated Place|18256|P1|1360|361360101|36|NY|1|101|Steuben|42.1428521|-77.0546903|01/23/1980|03/17/2008
947478|Corning Manor|Populated Place|18278|U6|||36|NY|1|101|Steuben|42.1209077|-77.0052436|01/23/1980|
947485|Cornwallville|Populated Place|18344|U6|1371|361371039|36|NY|1|039|Greene|42.3681382|-74.1581939|01/23/1980|
947488|Corona|Populated Place|18355|U4|||36|NY|1|081|Queens|40.7470464|-73.8601355|01/23/1980|
947496|Corrado Corners|Populated Place|18382|U6|||36|NY|1|043|Herkimer|43.0311812|-75.076825|01/23/1980|
947499|Cortland|Populated Place|18388|P1|1380|361380023|36|NY|1|023|Cortland|42.6011813|-76.1804843|01/23/1980|03/17/2008
947500|Corwin|Populated Place|18447|U6|||36|NY|1|063|Niagara|43.2525567|-78.6933664|01/23/1980|
947508|Coss Corners|Populated Place|18476|U6|||36|NY|1|101|Steuben|42.2814613|-77.3655368|01/23/1980|
947509|Cossayuna|Populated Place|18460|U6|||36|NY|1|115|Washington|43.1836864|-73.4267786|01/23/1980|10/24/2007
947513|Cottage|Populated Place|18487|U6|||36|NY|1|009|Cattaraugus|42.4239492|-79.0442048|01/23/1980|07/07/2009
947515|Cottage City|Populated Place|18498|U6|||36|NY|1|069|Ontario|42.8111767|-77.2594248|01/23/1980|
947517|Cottage Park|Populated Place|18509|U6|||36|NY|1|013|Chautauqua|42.097835|-79.3544932|01/23/1980|
947519|Cottekill|Populated Place|18520|U6|1382|361382111|36|NY|1|111|Ulster|41.8514817|-74.1020872|01/23/1980|
947533|Cottons|Populated Place|18523|U6|||36|NY|1|053|Madison|43.041734|-75.7818538|01/23/1980|10/22/2007
947534|Cottonwood Cove|Populated Place|18527|U6|||36|NY|1|051|Livingston|42.7603413|-77.726666|01/23/1980|
947536|Cottonwood Point|Populated Place|18531|U6|||36|NY|1|051|Livingston|42.7506191|-77.7263881|01/23/1980|
947555|County Line|Populated Place|18575|U6|||36|NY|1|063|Niagara|43.3464459|-78.4658598|01/23/1980|
947555|County Line|Populated Place|18575|U6|||36|NY|2|073|Orleans|43.3464459|-78.4658598|01/23/1980|
947567|Couse|Populated Place|18586|U6|||36|NY|1|083|Rensselaer|42.6195242|-73.7020636|01/23/1980|01/08/2009
947571|Cove Neck|Populated Place|18597|P1|1390|361390059|36|NY|1|059|Nassau|40.8823207|-73.5059562|01/23/1980|03/17/2008
947574|Coventry|Populated Place|18608|U6|||36|NY|1|017|Chenango|42.3159098|-75.6385205|01/23/1980|
947576|Coventryville|Populated Place|18641|U6|||36|NY|1|017|Chenango|42.3134106|-75.5982411|01/23/1980|
947582|Coveville|Populated Place|18668|U6|||36|NY|1|091|Saratoga|43.0603537|-73.595394|01/23/1980|
947586|Covington|Populated Place|18685|U6|||36|NY|1|121|Wyoming|42.8533945|-78.0102868|01/23/1980|
947602|Cowlesville|Populated Place|18707|U6|||36|NY|1|121|Wyoming|42.8433932|-78.4689105|01/23/1980|10/24/2007
947608|Coxsackie|Populated Place|18718|P1|1400|361400039|36|NY|1|039|Greene|42.3509179|-73.8029028|01/23/1980|03/17/2008
947632|Crafts|Populated Place|18751|U6|||36|NY|1|079|Putnam|41.392316|-73.6976304|01/23/1980|11/02/2007
947634|Cragsmoor|Populated Place|18762|U5|1403|361403111|36|NY|1|111|Ulster|41.6734269|-74.3854321|01/23/1980|03/17/2008
947644|Craigie Clair|Populated Place|18767|U6|||36|NY|1|105|Sullivan|41.9642555|-74.8662724|01/23/1980|11/08/2007
947645|Craigville|Populated Place|18784|U6|||36|NY|1|071|Orange|41.385927|-74.2387602|01/23/1980|
947648|Crains Mills|Populated Place|18795|U6|||36|NY|1|023|Cortland|42.7095125|-76.0054787|01/23/1980|
947654|Cranberry Creek|Populated Place|18806|U6|||36|NY|1|035|Fulton|43.1556279|-74.2195776|01/23/1980|
947688|Crandall Corners|Populated Place|18828|U6|||36|NY|1|115|Washington|42.9550771|-73.5715047|01/23/1980|11/09/2007
947708|Cranesville|Populated Place|18861|U6|||36|NY|1|057|Montgomery|42.9172971|-74.1348511|01/23/1980|
947711|Craryville|Populated Place|18894|U6|||36|NY|1|021|Columbia|42.1748115|-73.5828976|01/23/1980|10/10/2014
947712|Craterclub|Populated Place|18905|U6|||36|NY|1|031|Essex|44.2869959|-73.3501274|01/23/1980|
947730|Creeklocks|Populated Place|18927|U6|||36|NY|1|111|Ulster|41.8706483|-74.0440294|01/23/1980|
947731|Creekside|Populated Place|18938|U6|||36|NY|1|029|Erie|42.6917265|-78.7828085|01/23/1980|
947732|Crescent|Populated Place|18960|U6|||36|NY|1|091|Saratoga|42.8242441|-73.732897|01/23/1980|
947737|Crescent Beach|Populated Place|18971|U6|||36|NY|1|055|Monroe|43.2836724|-77.6625043|01/23/1980|
947741|Crescent Park|Populated Place|18985|U6|||36|NY|1|057|Montgomery|42.9606301|-74.1615188|01/23/1980|
947742|Crescent Station|Populated Place|18987|U6|||36|NY|1|001|Albany|42.798411|-73.7337305|01/23/1980|
947743|Crest View Heights|Populated Place|18993|U6|||36|NY|1|107|Tioga|42.0717413|-76.1171489|01/23/1980|
947744|Crestview|Populated Place|18990|U6|||36|NY|1|009|Cattaraugus|42.097287|-78.4869662|01/23/1980|
947745|Crestwood|Populated Place|19015|U4|||36|NY|1|119|Westchester|40.9600984|-73.8243003|01/23/1980|
947746|Crestwood Gardens|Populated Place|19026|U4|||36|NY|1|119|Westchester|40.9681539|-73.8204112|01/23/1980|
947753|Crittenden|Populated Place|19037|U6|1409|361409029|36|NY|1|029|Erie|42.9461705|-78.4847451|01/23/1980|
947754|Crittenden|Populated Place|19042|U6|||36|NY|1|055|Monroe|43.1036735|-77.640835|01/23/1980|
947759|Crocketts|Populated Place|19048|U6|||36|NY|1|011|Cayuga|43.3272896|-76.627448|01/23/1980|
947760|Crofts Corners|Populated Place|19059|U6|||36|NY|1|079|Putnam|41.364816|-73.8670805|01/23/1980|12/11/2014
947761|Croghan|Populated Place|19070|P1|1410|361410049|36|NY|1|049|Lewis|43.895902|-75.3924084|01/23/1980|03/17/2008
947765|Crompond|Populated Place|19092|U5|1412|361412119|36|NY|1|119|Westchester|41.2950939|-73.8654141|01/23/1980|03/17/2008
947770|Cronomer Valley|Populated Place|19098|U6|||36|NY|1|071|Orange|41.5528715|-74.0631978|01/23/1980|10/24/2007
947791|Cropseyville|Populated Place|19103|U6|1413|361413083|36|NY|1|083|Rensselaer|42.7489669|-73.5573377|01/23/1980|
947792|Crosby|Populated Place|19107|U6|||36|NY|1|123|Yates|42.5486814|-77.0966371|01/23/1980|
947798|Crosbyside|Populated Place|19110|U6|||36|NY|1|113|Warren|43.4181256|-73.6965069|01/23/1980|
947811|Cross River|Populated Place|19125|U6|||36|NY|1|119|Westchester|41.262317|-73.6145723|01/23/1980|11/14/2007
947824|Croton Falls|Populated Place|19169|U6|||36|NY|1|119|Westchester|41.3473164|-73.6609626|01/23/1980|06/09/2009
947826|Croton Heights|Populated Place|19191|U6|||36|NY|1|119|Westchester|41.2467609|-73.7834672|01/23/1980|
947832|Croton-on-Hudson|Populated Place|19213|P1|||36|NY|1|119|Westchester|41.2084279|-73.8912481|01/23/1980|04/20/2009
947834|Crotonville|Populated Place|19224|U6|||36|NY|1|119|Westchester|41.1875949|-73.8701362|01/23/1980|
947853|Crown Point|Populated Place|19235|U6|1425|361425031|36|NY|1|031|Essex|43.9503352|-73.4370667|01/23/1980|03/02/2007
947855|Crown Point Center|Populated Place|19257|U6|||36|NY|1|031|Essex|43.941724|-73.4690117|01/23/1980|03/02/2007
947856|Crowningshield|Populated Place|19233|U6|||36|NY|1|031|Essex|44.3206051|-73.513188|01/23/1980|
947860|Crugers|Populated Place|19290|U5|1426|361426119|36|NY|1|119|Westchester|41.2334275|-73.9226383|01/23/1980|03/17/2008
947862|Crum Creek|Populated Place|19301|U6|||36|NY|1|035|Fulton|43.0395156|-74.7137575|01/23/1980|
947884|Crystal Beach|Populated Place|19308|U5|||36|NY|1|069|Ontario|42.8136766|-77.2635918|01/23/1980|01/29/2011
947885|Crystal Brook|Populated Place|19312|U6|||36|NY|1|103|Suffolk|40.9478765|-73.04205|01/23/1980|
947911|Cuba|Populated Place|19356|P1|1430|361430003|36|NY|1|003|Allegany|42.2175668|-78.2752927|01/23/1980|03/17/2008
947921|Cuddebackville|Populated Place|19378|U6|1431|361431071|36|NY|1|071|Orange|41.4673154|-74.5937719|01/23/1980|10/30/2014
947922|Cullen|Populated Place|19389|U6|||36|NY|1|043|Herkimer|42.8822943|-74.9620992|01/23/1980|
947937|Cumminsville|Populated Place|19411|U5|||36|NY|1|051|Livingston|42.5714553|-77.719718|01/23/1980|01/29/2011
947945|Curriers|Populated Place|19422|U6|||36|NY|1|121|Wyoming|42.6206172|-78.4175185|01/23/1980|10/24/2007
947946|Curry|Populated Place|19433|U6|||36|NY|1|105|Sullivan|41.858425|-74.5812687|01/23/1980|
947948|Currytown|Populated Place|19444|U6|||36|NY|1|057|Montgomery|42.8581295|-74.4640257|01/23/1980|
947949|Curtis|Populated Place|19450|U6|||36|NY|1|043|Herkimer|43.1731253|-74.8109848|01/23/1980|
947961|Cutchogue|Populated Place|19466|U5|1432|361432103|36|NY|1|103|Suffolk|41.0106563|-72.4850859|01/23/1980|03/17/2008
947964|Cutchogue Station|Populated Place|19474|U6|||36|NY|1|103|Suffolk|41.0214897|-72.497864|01/23/1980|
947971|Cutting|Populated Place|19477|U6|||36|NY|1|013|Chautauqua|42.0242213|-79.6958836|01/23/1980|
947973|Cuyler|Populated Place|19488|U6|1433|361433023|36|NY|1|023|Cortland|42.7372897|-75.9485315|01/23/1980|
947974|Cuylerville|Populated Place|19510|U5|||36|NY|1|051|Livingston|42.7770068|-77.870837|01/23/1980|01/29/2011
947986|Dadville|Populated Place|19543|U6|||36|NY|1|049|Lewis|43.8067359|-75.4746286|01/23/1980|
947991|Dairyland|Populated Place|19565|U6|||36|NY|1|111|Ulster|41.7470373|-74.5373811|01/23/1980|
947992|Daisy|Populated Place|19570|U6|||36|NY|1|111|Ulster|42.0559243|-74.0876402|01/23/1980|
947997|Dale|Populated Place|19576|U6|1435|361435121|36|NY|1|121|Wyoming|42.8192273|-78.1727908|01/23/1980|
948001|Dalton|Populated Place|19587|U5|1436|361436051|36|NY|1|051|Livingston|42.5408977|-77.9525029|01/23/1980|10/30/2014
948006|Damascus|Populated Place|19598|U6|||36|NY|1|007|Broome|42.0559135|-75.6101829|01/23/1980|
948008|Dams Corner|Populated Place|19604|U6|||36|NY|1|065|Oneida|43.1314579|-75.5796238|01/23/1980|
948010|Danby|Populated Place|19609|U6|1437|361437109|36|NY|1|109|Tompkins|42.3522956|-76.4807737|01/23/1980|
948020|Danley Corners|Populated Place|19631|U6|||36|NY|1|121|Wyoming|42.84756|-78.321962|01/23/1980|
948021|Dannemora|Populated Place|19642|P1|1440|361440019|36|NY|1|019|Clinton|44.7214301|-73.7237529|01/23/1980|03/17/2008
948024|Dansville|Populated Place|19664|P1|1450|361450051|36|NY|1|051|Livingston|42.5609|-77.696106|01/23/1980|10/30/2014
948026|Danville|Populated Place|19697|U6|||36|NY|1|007|Broome|42.0089721|-75.4787888|01/23/1980|
948028|Darien|Populated Place|19708|U6|1451|361451037|36|NY|1|037|Genesee|42.9020042|-78.3502969|01/23/1980|12/24/2008
948029|Darien Center|Populated Place|19730|U6|||36|NY|1|037|Genesee|42.9011709|-78.3886312|01/23/1980|10/26/2007
948048|Davenport|Populated Place|19752|U6|1454|361454025|36|NY|1|025|Delaware|42.4717451|-74.8446009|01/23/1980|
948049|Davenport Center|Populated Place|19774|U5|1458|361458025|36|NY|1|025|Delaware|42.4481351|-74.9190477|01/23/1980|01/29/2011
948059|Davis Corners|Populated Place|19782|U6|||36|NY|1|111|Ulster|41.9178705|-74.2101461|01/23/1980|
948069|Davis Park|Populated Place|19785|U6|||36|NY|1|103|Suffolk|40.683988|-73.004831|01/23/1980|
948080|Daws|Populated Place|19796|U6|||36|NY|1|037|Genesee|43.0445042|-78.1922397|01/23/1980|
948082|Day Center|Populated Place|19810|U6|||36|NY|1|091|Saratoga|43.3089597|-74.0165167|01/23/1980|10/24/2014
948089|Days Corners|Populated Place|19814|U6|||36|NY|1|043|Herkimer|42.9828479|-75.1884947|01/23/1980|
