FEATURE_ID|FEATURE_NAME|FEATURE_CLASS|CENSUS_CODE|CENSUS_CLASS_CODE|GSA_CODE|OPM_CODE|STATE_NUMERIC|STATE_ALPHA|COUNTY_SEQUENCE|COUNTY_NUMERIC|COUNTY_NAME|PRIMARY_LATITUDE|PRIMARY_LONGITUDE|DATE_CREATED|DATE_EDITED
45773|Aberdeen|Populated Place|00160|U6|||05|AR|1|095|Monroe|34.6034302|-91.3417918|04/30/1980|
45796|Adona|Populated Place|00250|P1|0010|050010105|05|AR|1|105|Perry|35.0381433|-92.8979475|04/30/1980|03/20/2008
45802|Albion|Populated Place|00490|U6|||05|AR|1|145|White|35.3425829|-91.7895848|04/30/1980|
45823|Alicia|Populated Place|00700|P1|0040|050040075|05|AR|1|075|Lawrence|35.8931295|-91.0829015|04/30/1980|03/20/2008
45824|Alix|Populated Place|00730|U6|0045|050045047|05|AR|1|047|Franklin|35.4248078|-93.7304719|04/30/1980|
45838|Allport|Populated Place|00940|P1|||05|AR|1|085|Lonoke|34.5420393|-91.7840227|04/30/1980|03/20/2008
45845|Alpine|Populated Place|01090|U6|0073|050073019|05|AR|1|019|Clark|34.2289863|-93.3790695|04/30/1980|
45849|Altheimer|Populated Place|01150|P1|0080|050080069|05|AR|1|069|Jefferson|34.3192636|-91.8473565|04/30/1980|03/20/2008
45850|Altus|Populated Place|01210|P1|0090|050090047|05|AR|1|047|Franklin|35.4461965|-93.7624172|04/30/1980|03/20/2008
45854|Amboy|Populated Place|01330|U4|||05|AR|1|119|Pulaski|34.8059243|-92.2915397|04/30/1980|
45859|Amy|Populated Place|01390|U6|||05|AR|1|103|Ouachita|33.7320525|-92.8154405|04/30/1980|
45913|Arden|Populated Place|01840|U6|||05|AR|1|081|Little River|33.6895629|-94.2857555|04/30/1980|
45966|Atkins|Populated Place|02590|P1|0190|050190115|05|AR|1|115|Pope|35.2464719|-92.9365581|04/30/1980|03/20/2008
45979|Austin|Populated Place|02860|P1|0210|050210085|05|AR|1|085|Lonoke|34.9984206|-91.9837552|04/30/1980|03/20/2008
45989|Avoca|Populated Place|03040|P1|0212|050212007|05|AR|1|007|Benton|36.4020182|-94.0707581|04/30/1980|03/20/2008
45995|Back Gate|Populated Place|03130|U6|||05|AR|1|041|Desha|33.9326028|-91.3928981|04/30/1980|
46024|Baker|Populated Place|03190|U6|||05|AR|1|129|Searcy|35.9136863|-92.5976628|04/30/1980|
46076|Banks|Populated Place|03430|P1|0230|050230011|05|AR|1|011|Bradley|33.5748327|-92.2690344|04/30/1980|03/20/2008
46159|Baucum|Populated Place|04060|U6|||05|AR|1|119|Pulaski|34.7289805|-92.1301452|04/30/1980|
46250|Bearden|Populated Place|04420|P1|0280|050280103|05|AR|1|103|Ouachita|33.7245526|-92.6157139|04/30/1980|03/20/2008
46335|Beedeville|Populated Place|04720|P1|0304|050304067|05|AR|1|067|Jackson|35.4289722|-91.109845|04/30/1980|03/20/2008
46394|Benton|Populated Place|05290|P1|0330|050330125|05|AR|1|125|Saline|34.5645372|-92.586828|04/30/1980|03/20/2008
46413|Berryville|Populated Place|05560|P1|0350|050350015|05|AR|1|015|Carroll|36.364792|-93.5679667|04/30/1980|03/20/2008
46545|Big Creek Corner|Populated Place|05905|U6|||05|AR|1|077|Lee|34.6728763|-90.890115|04/30/1980|
46615|Bigelow|Populated Place|05920|P1|0360|050360105|05|AR|1|105|Perry|35.0011986|-92.6298847|04/30/1980|03/20/2008
46616|Biggers|Populated Place|06040|P1|0380|050380121|05|AR|1|121|Randolph|36.3325643|-90.8062287|04/30/1980|03/20/2008
46637|Birmac|Populated Place|06385|U6|||05|AR|1|069|Jefferson|34.1714876|-91.619571|04/30/1980|
46641|Birta|Populated Place|06400|U6|0390|050390149|05|AR|1|149|Yell|35.0173117|-93.1335098|04/30/1980|03/20/2008
46674|Black Oak|Populated Place|06640|U6|||05|AR|1|111|Poinsett|35.4550834|-90.4131572|04/30/1980|
46718|Blevins|Populated Place|07030|P1|0430|050430057|05|AR|1|057|Hempstead|33.8717784|-93.5771232|04/30/1980|03/20/2008
46771|Bluff City|Populated Place|07270|P1|0442|050442099|05|AR|1|099|Nevada|33.7184436|-93.1340555|04/30/1980|03/20/2008
46849|Boughton|Populated Place|07930|U6|||05|AR|1|099|Nevada|33.8501083|-93.3257273|04/30/1980|
46885|Bradford|Populated Place|08260|P1|0490|050490145|05|AR|1|145|White|35.4231381|-91.4559649|04/30/1980|03/20/2008
46925|Bredlow Corner|Populated Place|08560|U6|||05|AR|1|119|Pulaski|34.5342609|-92.1012554|04/30/1980|
47035|Brummitt|Populated Place|09340|U6|||05|AR|1|085|Lonoke|34.5389846|-91.6617976|04/30/1980|
47140|Buckeye|Populated Place|09520|U6|||05|AR|1|093|Mississippi|35.9600714|-90.1589838|04/30/1980|
47147|Buckner|Populated Place|09550|P1|0580|050580073|05|AR|1|073|Lafayette|33.3584581|-93.4360073|04/30/1980|03/20/2008
47186|Bunn|Populated Place|09820|U6|||05|AR|1|039|Dallas|34.0014898|-92.4954338|04/30/1980|
47243|Butterfield|Populated Place|10240|U6|||05|AR|1|059|Hot Spring|34.4273142|-92.8137801|04/30/1980|
47257|Byron|Populated Place|10270|U6|0598|050598049|05|AR|1|049|Fulton|36.3225657|-91.9576507|04/30/1980|
47266|Caddo Valley|Populated Place|10360|P1|0603|050603019|05|AR|1|019|Clark|34.1820388|-93.0710073|04/30/1980|03/20/2008
47275|Calamine|Populated Place|10420|U6|0606|050606135|05|AR|1|135|Sharp|36.0114607|-91.3990228|04/30/1980|
47305|Camp|Populated Place|10810|U6|0646|050646049|05|AR|1|049|Fulton|36.4142312|-91.7348682|04/30/1980|
47386|Caney|Populated Place|11140|U6|||05|AR|1|059|Hot Spring|34.2570369|-93.0757309|04/30/1980|
47444|Canfield|Populated Place|11290|U6|||05|AR|1|073|Lafayette|33.1829078|-93.6326765|04/30/1980|
47527|Cato|Populated Place|12130|U6|||05|AR|1|045|Faulkner|34.9284222|-92.2612616|04/30/1980|
47555|Caverna|Populated Place|12330|U6|||29|MO|1|119|McDonald|36.4996324|-94.2693472|04/30/1980|02/16/2012
47555|Caverna|Populated Place|12330|U6|||05|AR|2|007|Benton|36.4996324|-94.2693472|04/30/1980|02/16/2012
47557|Cecil|Populated Place|12370|U6|0715|050715047|05|AR|1|047|Franklin|35.438698|-93.9446447|04/30/1980|
47632|Center Grove|Populated Place|12580|U6|||05|AR|1|053|Grant|34.318152|-92.2923729|04/30/1980|
47710|Charlotte|Populated Place|13330|U6|0753|050753063|05|AR|1|063|Independence|35.8184088|-91.4387448|04/30/1980|
47789|Cincinnati|Populated Place|13960|U6|||05|AR|1|143|Washington|36.0373036|-94.5110517|04/30/1980|
47811|Clay|Populated Place|14170|U6|||05|AR|1|145|White|35.3967485|-91.7862521|04/30/1980|
47856|Clinton|Populated Place|14260|P1|0820|050820141|05|AR|1|141|Van Buren|35.5914666|-92.4604361|04/30/1980|03/20/2008
47876|Cobbs|Populated Place|14530|U6|||05|AR|1|085|Lonoke|34.628426|-92.00903|04/30/1980|
47890|Coffman|Populated Place|14650|U6|||05|AR|1|075|Lawrence|36.0636817|-91.0784574|04/30/1980|
47923|Colfax|Populated Place|14740|U6|||05|AR|1|005|Baxter|36.3109009|-92.4229378|04/30/1980|
47924|College City|Populated Place|14770|P1|0832|050832075|05|AR|1|075|Lawrence|36.1253469|-90.9392867|04/30/1980|03/20/2008
47925|College Heights|Populated Place|14800|U6|0838|050838043|05|AR|1|043|Drew|33.5903872|-91.8006862|04/30/1980|
47927|Collegeville|Populated Place|14890|U6|||05|AR|1|125|Saline|34.6367595|-92.4754354|04/30/1980|
47941|Columbus|Populated Place|14980|U6|0851|050851057|05|AR|1|057|Hempstead|33.7759509|-93.817128|04/30/1980|
47951|Concord|Populated Place|15100|P1|0854|050854023|05|AR|1|023|Cleburne|35.6636886|-91.8476443|04/30/1980|03/20/2008
47964|Connells Point|Populated Place|15145|U6|||05|AR|1|095|Monroe|34.4098235|-91.0015036|04/30/1980|
48039|Cord|Populated Place|15280|U6|0865|050865063|05|AR|1|063|Independence|35.81202|-91.3434645|04/30/1980|
48058|Cornerstone|Populated Place|15370|U6|||05|AR|1|069|Jefferson|34.2303755|-91.7451298|04/30/1980|
48203|Cross Roads|Populated Place|16510|U6|||05|AR|1|095|Monroe|34.4273228|-91.069561|04/30/1980|
48214|Crossroads|Populated Place|16405|U6|||05|AR|1|067|Jackson|35.6153572|-91.2598501|04/30/1980|
48236|Crows|Populated Place|16615|U6|||05|AR|1|125|Saline|34.6142581|-92.7693343|04/30/1980|
48278|Cushman|Populated Place|16930|P1|0940|050940063|05|AR|1|063|Independence|35.8728522|-91.7540319|04/30/1980|03/20/2008
48329|Daisy|Populated Place|17140|P1|0950|050950109|05|AR|1|109|Pike|34.237328|-93.7421328|04/30/1980|03/20/2008
48333|Dalark|Populated Place|17170|U6|0960|050960039|05|AR|1|039|Dallas|34.0373207|-92.886001|04/30/1980|03/20/2008
48354|Dansby|Populated Place|17300|U6|||05|AR|1|077|Lee|34.8942616|-90.6403849|04/30/1980|
48411|De Witt|Populated Place|18790|P1|1100|051100001|05|AR|1|001|Arkansas|34.2928774|-91.3378987|04/30/1980|03/20/2008
48468|Denning|Populated Place|18370|P1|1050|051050047|05|AR|1|047|Franklin|35.4292524|-93.7571394|04/30/1980|03/20/2008
48479|Denver|Populated Place|18430|U6|1055|051055015|05|AR|1|015|Carroll|36.3925675|-93.3149048|04/30/1980|
48531|Dixie|Populated Place|19090|U6|||05|AR|1|031|Craighead|35.9209056|-90.4514938|04/30/1980|
48569|Dorothy|Populated Place|19545|U6|||05|AR|1|031|Craighead|35.9086842|-90.8192825|04/30/1980|
48604|Driftwood|Populated Place|19735|U6|||05|AR|1|075|Lawrence|35.9711837|-91.2520741|04/30/1980|
48697|Dumas|Populated Place|19990|P1|1150|051150041|05|AR|1|041|Desha|33.8870477|-91.4917899|04/30/1980|03/20/2008
48708|Dunn|Populated Place|20015|U6|||05|AR|1|121|Randolph|36.240623|-91.1056819|04/30/1980|
48738|Earle|Populated Place|20320|P1|1170|051170035|05|AR|1|035|Crittenden|35.2750871|-90.4667694|04/30/1980|03/20/2008
48757|East End|Populated Place|20470|U5|||05|AR|1|125|Saline|34.5506494|-92.3409861|04/30/1980|03/20/2008
48775|East Richwoods|Populated Place|20560|U6|||05|AR|1|137|Stone|35.8459079|-92.1345967|04/30/1980|
48832|Elaine|Populated Place|20950|P1|1200|051200107|05|AR|1|107|Phillips|34.3084371|-90.8520531|04/30/1980|03/20/2008
48887|Emerson|Populated Place|21580|P1|1230|051230027|05|AR|1|027|Columbia|33.0976347|-93.1929441|04/30/1980|03/20/2008
48893|Emmet|Populated Place|21610|P1|1240|051240099|05|AR|1|099|Nevada|33.7262253|-93.4704521|04/30/1980|03/22/2011
48893|Emmet|Populated Place|21610|P1|1240|051240057|05|AR|2|057|Hempstead|33.7262253|-93.4704521|04/30/1980|03/22/2011
48913|Eros|Populated Place|21940|U6|||05|AR|1|089|Marion|36.1834052|-92.8507249|04/30/1980|
48920|Ethel|Populated Place|22060|U6|1265|051265001|05|AR|1|001|Arkansas|34.2864902|-91.1637278|04/30/1980|
48921|Euclid Heights|Populated Place|22150|U4|||05|AR|1|051|Garland|34.5025893|-93.0285116|04/30/1980|
48926|Eureka Springs|Populated Place|22240|P1|1280|051280015|05|AR|1|015|Carroll|36.4011825|-93.7379711|04/30/1980|03/20/2008
48952|Everton|Populated Place|22450|P1|1300|051300009|05|AR|1|009|Boone|36.1553504|-92.9068374|04/30/1980|03/20/2008
48964|Fairview|Populated Place|22870|U4|||05|AR|1|103|Ouachita|33.5365046|-92.8379405|04/30/1980|
48965|Fairview|Populated Place|22885|U6|||05|AR|1|119|Pulaski|34.7023146|-92.2770945|04/30/1980|
48966|Fairview|Populated Place|22840|U6|||05|AR|1|089|Marion|36.3334014|-92.6046086|04/30/1980|
49023|Felsenthal|Populated Place|23320|P1|1312|051312139|05|AR|1|139|Union|33.0595709|-92.1568025|04/30/1980|03/20/2008
49074|Fitzhugh|Populated Place|23860|U6|||05|AR|1|147|Woodruff|35.3581399|-91.3229058|04/30/1980|
49160|Fordyce|Populated Place|24220|P1|1340|051340039|05|AR|1|039|Dallas|33.8137161|-92.4129303|04/30/1980|03/20/2008
49198|Fourche|Populated Place|24760|P1|1400|051400105|05|AR|1|105|Perry|34.9939765|-92.6209955|04/30/1980|03/20/2008
49291|Fulton|Populated Place|25360|P1|1440|051440057|05|AR|1|057|Hempstead|33.6145649|-93.8135164|04/30/1980|03/20/2008
49307|Galet|Populated Place|25525|U6|||05|AR|1|035|Crittenden|35.1153695|-90.2131506|04/30/1980|
49319|Gammon|Populated Place|25660|U6|||05|AR|1|035|Crittenden|35.2481439|-90.1525935|04/30/1980|
49366|Genoa|Populated Place|26260|U6|1488|051488091|05|AR|1|091|Miller|33.3837368|-93.909628|04/30/1980|
49385|Gethsemane|Populated Place|26560|U6|||05|AR|1|069|Jefferson|34.4167628|-91.8673579|04/30/1980|
49401|Gifford|Populated Place|26770|U6|||05|AR|1|059|Hot Spring|34.3756489|-92.7443327|04/30/1980|
49404|Gilbert|Populated Place|26800|P1|1500|051500129|05|AR|1|129|Searcy|35.9878524|-92.7162763|04/30/1980|03/20/2008
49440|Glen Rose|Populated Place|27220|U6|||05|AR|1|059|Hot Spring|34.4556481|-92.7296104|04/30/1980|
49446|Glendale|Populated Place|27190|U6|||05|AR|1|079|Lincoln|33.9628786|-91.9593041|04/30/1980|
49549|Grandview|Populated Place|27880|U6|1558|051558015|05|AR|1|015|Carroll|36.4339581|-93.6213014|04/30/1980|
49579|Grassy Lake Bottom|Populated Place|28075|U6|||05|AR|1|035|Crittenden|35.2681432|-90.3959339|04/30/1980|
49602|Gravesville|Populated Place|28330|U6|||05|AR|1|141|Van Buren|35.3892464|-92.3479326|04/30/1980|
49615|Grays|Populated Place|28420|U6|||05|AR|1|147|Woodruff|35.2264762|-91.2340144|04/30/1980|
49632|Green Forest|Populated Place|28600|P1|1600|051600015|05|AR|1|015|Carroll|36.3353472|-93.4360189|04/30/1980|03/20/2008
49672|Greers Ferry|Populated Place|28810|P1|1631|051631023|05|AR|1|023|Cleburne|35.5770219|-92.1773746|04/30/1980|03/20/2008
49679|Griffithtown|Populated Place|28960|U6|||05|AR|1|019|Clark|34.0548197|-92.9596146|04/30/1980|
49696|Grubb Springs|Populated Place|29035|U6|||05|AR|1|009|Boone|36.2150717|-93.154622|04/30/1980|
49697|Grubbs|Populated Place|29020|P1|1650|051650067|05|AR|1|067|Jackson|35.6498009|-91.0740117|04/30/1980|03/20/2008
49742|Gurdon|Populated Place|29200|P1|1670|051670019|05|AR|1|019|Clark|33.9209365|-93.1540591|04/30/1980|03/20/2008
49746|Guy|Populated Place|29230|P1|1675|051675045|05|AR|1|045|Faulkner|35.3253588|-92.3343208|04/30/1980|03/20/2008
49808|Hampton|Populated Place|29650|P1|1710|051710013|05|AR|1|013|Calhoun|33.537892|-92.4698762|04/30/1980|03/20/2008
49856|Hardy|Populated Place|29920|P1|1720|051720135|05|AR|1|135|Sharp|36.3158994|-91.4826388|04/30/1980|03/20/2008
49873|Harmony Grove|Populated Place|30250|U6|||05|AR|1|103|Ouachita|33.6520556|-92.7809952|04/30/1980|
49884|Harrell|Populated Place|30310|P1|1730|051730013|05|AR|1|013|Calhoun|33.5101142|-92.3987619|04/30/1980|03/20/2008
49889|Harris|Populated Place|30370|U6|||05|AR|1|143|Washington|36.0311902|-94.0477005|04/30/1980|
49922|Hartman|Populated Place|30520|P1|1770|051770071|05|AR|1|071|Johnson|35.4325849|-93.6154676|04/30/1980|03/20/2008
49967|Haywood|Populated Place|30910|U6|||05|AR|1|069|Jefferson|34.3628743|-91.9248596|04/30/1980|
49971|Hazen|Populated Place|30940|P1|1810|051810117|05|AR|1|117|Prairie|34.7809263|-91.5809651|04/30/1980|03/20/2008
49975|Heafer|Populated Place|30970|U6|||05|AR|1|035|Crittenden|35.3664745|-90.3398213|04/30/1980|
49976|Healing Springs|Populated Place|31000|U6|||05|AR|1|007|Benton|36.2548003|-94.2782633|04/30/1980|
50003|Henderson|Populated Place|31270|U6|1835|051835005|05|AR|1|005|Baxter|36.3806216|-92.2276564|04/30/1980|
50037|Heubner|Populated Place|31705|U6|||05|AR|1|021|Clay|36.2170085|-90.3120455|04/30/1980|
50043|Hickman|Populated Place|31750|U6|||05|AR|1|093|Mississippi|35.9442408|-89.7331361|04/30/1980|
50053|Hickory Flat|Populated Place|31810|U6|||05|AR|1|145|White|35.4892467|-91.7537523|04/30/1980|
50091|Higden|Populated Place|32080|P1|1860|051860023|05|AR|1|023|Cleburne|35.5734108|-92.2032085|04/30/1980|03/20/2008
50098|Higginson|Populated Place|32140|P1|1870|051870145|05|AR|1|145|White|35.1948081|-91.7126368|04/30/1980|03/20/2008
50141|Hindsville|Populated Place|32470|P1|1875|051875087|05|AR|1|087|Madison|36.1442426|-93.8621399|04/30/1980|03/20/2008
50151|Hiram|Populated Place|32500|U6|||05|AR|1|023|Cleburne|35.4692466|-91.867922|04/30/1980|
50288|Hooker|Populated Place|33160|U6|||05|AR|1|069|Jefferson|34.1198212|-91.8809683|04/30/1980|
50300|Hopewell|Populated Place|33250|U6|||05|AR|1|075|Lawrence|35.9784055|-91.0890129|04/30/1980|
50302|Hopewell|Populated Place|33220|U6|||05|AR|1|055|Greene|36.2447856|-90.3534356|04/30/1980|
50355|Houston|Populated Place|33490|P1|1920|051920105|05|AR|1|105|Perry|35.0334202|-92.6946086|04/30/1980|03/20/2008
50405|Humnoke|Populated Place|33820|P1|1950|051950085|05|AR|1|085|Lonoke|34.5414839|-91.7570774|04/30/1980|03/20/2008
50422|Huntington|Populated Place|33940|P1|1980|051980131|05|AR|1|131|Sebastian|35.0823184|-94.2632668|04/30/1980|03/20/2008
50470|Hutchinson|Populated Place|34030|U6|||05|AR|1|063|Independence|35.6448007|-91.674306|04/30/1980|
50480|Ida|Populated Place|34120|U6|2005|052005023|05|AR|1|023|Cleburne|35.5881335|-91.9279242|04/30/1980|
50522|Iron Springs|Populated Place|34445|U3|||05|AR|1|119|Pulaski|34.5895379|-92.3257078|04/30/1980|
50524|Ironton|Populated Place|34450|U6|||05|AR|1|119|Pulaski|34.6320375|-92.2773725|04/30/1980|
50528|Island|Populated Place|34480|U6|||05|AR|1|131|Sebastian|35.4164773|-94.1279838|04/30/1980|
50531|Island Town|Populated Place|34495|U6|||05|AR|1|067|Jackson|35.5786912|-91.26485|04/30/1980|
50585|Jamestown|Populated Place|34810|U6|||05|AR|1|071|Johnson|35.4420283|-93.4626843|04/30/1980|
50655|Joan|Populated Place|35470|U6|||05|AR|1|019|Clark|34.1145405|-92.9404482|04/30/1980|
50752|Joy|Populated Place|35890|U6|||05|AR|1|145|White|35.2875833|-91.9504224|04/30/1980|
50759|Jumbo|Populated Place|36100|U6|||05|AR|1|065|Izard|36.0600705|-91.9795947|04/30/1980|
50762|Junction City|Populated Place|36130|P1|2100|052100139|05|AR|1|139|Union|33.0162501|-92.7243243|04/30/1980|03/20/2008
50774|Kedron|Populated Place|36280|U6|||05|AR|1|025|Cleveland|34.0445443|-92.1404219|04/30/1980|
50800|Kelso|Populated Place|36370|U6|2120|052120041|05|AR|1|041|Desha|33.7976062|-91.2706717|04/30/1980|03/20/2008
50819|Keo|Populated Place|36550|P1|2140|052140085|05|AR|1|085|Lonoke|34.6028709|-92.00903|04/30/1980|03/20/2008
50871|Kingsland|Populated Place|36880|P1|2160|052160025|05|AR|1|025|Cleveland|33.8584369|-92.2940372|04/30/1980|03/20/2008
50874|Kingston|Populated Place|36910|U6|2161|052161087|05|AR|1|087|Madison|36.0506315|-93.5185199|04/30/1980|
50883|Kirkland|Populated Place|37090|U6|||05|AR|1|103|Ouachita|33.4153988|-92.8137731|04/30/1980|
50908|Knoxville|Populated Place|37285|U6|||05|AR|1|019|Clark|34.1162066|-92.9921165|04/30/1980|
50951|Lake View|Populated Place|38080|U6|||05|AR|1|031|Craighead|35.8922952|-90.452605|04/30/1980|
50983|Langford|Populated Place|38605|U6|||05|AR|1|069|Jefferson|34.1675988|-91.5956816|04/30/1980|
51065|Lennie|Populated Place|39280|U6|||05|AR|1|093|Mississippi|35.767576|-90.1775949|04/30/1980|
51290|Little Italy|Populated Place|40150|U6|||05|AR|1|105|Perry|34.9375885|-92.5859946|04/30/1980|
51290|Little Italy|Populated Place|40150|U6|||05|AR|2|119|Pulaski|34.9375885|-92.5859946|04/30/1980|
51373|Locust Grove|Populated Place|41150|U6|2335|052335063|05|AR|1|063|Independence|35.720911|-91.7384746|04/30/1980|
51382|Lodge Corner|Populated Place|41180|U6|||05|AR|1|001|Arkansas|34.300098|-91.5251248|04/30/1980|
51400|Lone Pine|Populated Place|41330|U6|||05|AR|1|129|Searcy|35.9731296|-92.5626623|04/30/1980|
51448|Lono|Populated Place|41390|U6|||05|AR|1|059|Hot Spring|34.2081515|-92.7101637|04/30/1980|
51451|Lonsdale|Populated Place|41450|P1|2360|052360051|05|AR|1|051|Garland|34.5445356|-92.8082249|04/30/1980|03/20/2008
51525|Lynn|Populated Place|42260|P1|2395|052395075|05|AR|1|075|Lawrence|36.0072941|-91.2523521|04/30/1980|03/20/2008
51603|Magness|Populated Place|43370|P1|2480|052480063|05|AR|1|063|Independence|35.7022998|-91.4804119|04/30/1980|03/20/2008
51634|Mandeville|Populated Place|43730|U6|||05|AR|1|091|Miller|33.4817907|-93.9640754|04/30/1980|
51642|Manning|Populated Place|43850|U6|2525|052525039|05|AR|1|039|Dallas|34.0212107|-92.7929425|04/30/1980|
51650|Manson|Populated Place|43910|U6|||05|AR|1|121|Randolph|36.1942346|-90.9626211|04/30/1980|
51652|Many Islands|Populated Place|43920|U6|||05|AR|1|049|Fulton|36.3889535|-91.5293071|04/30/1980|
51716|Marvell|Populated Place|44420|P1|2590|052590107|05|AR|1|107|Phillips|34.5556555|-90.9128928|04/30/1980|03/20/2008
51787|McCaskill|Populated Place|42410|P1|2400|052400057|05|AR|1|057|Hempstead|33.9167782|-93.641569|04/30/1980|03/20/2008
51792|McClelland|Populated Place|42440|U6|||05|AR|1|147|Woodruff|35.1042558|-91.4067959|04/30/1980|
51846|McGregor|Populated Place|42820|U6|||05|AR|1|147|Woodruff|35.0173141|-91.2265144|04/30/1980|
51870|McNab|Populated Place|43070|P1|2430|052430057|05|AR|1|057|Hempstead|33.661231|-93.8326838|04/30/1980|03/20/2008
51882|McRae|Populated Place|43220|P1|2450|052450145|05|AR|1|145|White|35.1128642|-91.8223618|04/30/1980|03/20/2008
51898|Meeks Settlement|Populated Place|45040|U6|||05|AR|1|019|Clark|34.04177|-93.3918446|04/30/1980|
51943|Midway|Populated Place|45700|U6|||05|AR|1|145|White|35.5178579|-91.6009699|04/30/1980|
52113|Moark|Populated Place|46250|U6|||05|AR|1|021|Clay|36.4833923|-90.5251108|04/30/1980|
52133|Monnie Springs|Populated Place|46445|U6|||05|AR|1|119|Pulaski|34.9195332|-92.4859915|04/30/1980|
52144|Monticello|Populated Place|46580|P1|2680|052680043|05|AR|1|043|Drew|33.6289974|-91.7909639|04/30/1980|03/20/2008
52170|Moorefield|Populated Place|46730|P1|2695|052695063|05|AR|1|063|Independence|35.76841|-91.5704147|04/30/1980|03/20/2008
52183|Morgan|Populated Place|46780|U6|||05|AR|1|119|Pulaski|34.8864784|-92.3723764|04/30/1980|
52197|Morning Star|Populated Place|46850|U6|||05|AR|1|129|Searcy|35.972852|-92.5940518|04/30/1980|
52230|Moscow|Populated Place|47180|U6|2715|052715069|05|AR|1|069|Jefferson|34.1464876|-91.7951318|04/30/1980|
52249|Mounds|Populated Place|47270|U6|||05|AR|1|055|Greene|36.157288|-90.2939892|04/30/1980|
52270|Mount Carmel|Populated Place|47550|U6|||05|AR|1|063|Independence|35.7442437|-91.4406889|04/30/1980|
52438|Mount Zion|Populated Place|48080|U6|||05|AR|1|025|Cleveland|34.0267667|-92.1120874|04/30/1980|
52582|Natural Steps|Populated Place|48680|U5|||05|AR|1|119|Pulaski|34.8620342|-92.4754356|04/30/1980|01/29/2011
52597|Negro Head Corner|Populated Place|48875|U6|||05|AR|1|147|Woodruff|35.3439734|-91.3576287|04/30/1980|
52613|Nelsonville|Populated Place|48920|U6|||05|AR|1|135|Sharp|36.0700707|-91.426524|04/30/1980|
52656|New Hope|Populated Place|49325|U6|||05|AR|1|055|Greene|35.995626|-90.4873284|04/30/1980|
52751|Newark|Populated Place|49010|P1|2810|052810063|05|AR|1|063|Independence|35.7017444|-91.441522|04/30/1980|03/20/2008
52834|North Pitts|Populated Place|50510|U6|||05|AR|1|111|Poinsett|35.6781337|-91.0276216|04/30/1980|
52848|Norvell|Populated Place|50660|U4|2890|052890035|05|AR|1|035|Crittenden|35.2795314|-90.4776031|04/30/1980|
52878|Oak Grove|Populated Place|51050|U6|||05|AR|1|133|Sevier|33.8859498|-94.1335291|04/30/1980|
52879|Oak Grove|Populated Place|51020|U6|||05|AR|1|119|Pulaski|34.8423125|-92.3248745|04/30/1980|
52980|Okolona|Populated Place|51530|P1|2940|052940019|05|AR|1|019|Clark|33.9973256|-93.3379532|04/30/1980|03/20/2008
52982|Old Alabam|Populated Place|51590|U6|||05|AR|1|087|Madison|36.1345194|-93.6796353|04/30/1980|
52983|Old Austin|Populated Place|51620|U6|||05|AR|1|085|Lonoke|34.9867542|-91.9640322|04/30/1980|
53039|Olena|Populated Place|51930|U6|||05|AR|1|001|Arkansas|34.3362098|-91.4104007|04/30/1980|
53047|Olyphant|Populated Place|52070|U6|||05|AR|1|067|Jackson|35.5245251|-91.3823526|04/30/1980|
53063|Oppelo|Populated Place|52430|P1|2965|052965029|05|AR|1|029|Conway|35.1011965|-92.7676658|04/30/1980|03/20/2008
53108|Owensville|Populated Place|52850|U6|||05|AR|1|125|Saline|34.6159245|-92.8215587|04/30/1980|
53117|Oxford|Populated Place|52880|P1|2980|052980065|05|AR|1|065|Izard|36.2211783|-91.9293165|04/30/1980|03/20/2008
53119|Ozan|Populated Place|52940|P1|2990|052990057|05|AR|1|057|Hempstead|33.8478925|-93.7190695|04/30/1980|03/20/2008
53125|Ozark Lithia|Populated Place|53030|U6|||05|AR|1|051|Garland|34.595646|-93.0124|04/30/1980|
53129|Palatka|Populated Place|53120|U6|||05|AR|1|021|Clay|36.4664493|-90.6578929|04/30/1980|
53143|Pangburn|Populated Place|53240|P1|3020|053020145|05|AR|1|145|White|35.4267476|-91.8368095|04/30/1980|03/20/2008
53184|Park Grove|Populated Place|53565|U6|||05|AR|1|095|Monroe|34.6923189|-91.2117904|04/30/1980|
53205|Partee|Populated Place|53810|U6|||05|AR|1|027|Columbia|33.2423512|-93.2446118|04/30/1980|
53213|Patmos|Populated Place|53900|P1|3078|053078057|05|AR|1|057|Hempstead|33.5117873|-93.5662889|04/30/1980|03/20/2008
53239|Pea Ridge|Populated Place|54210|U6|||05|AR|1|041|Desha|33.9206589|-91.3367854|04/30/1980|
53285|Perla|Populated Place|54620|P1|3108|053108059|05|AR|1|059|Hot Spring|34.3645376|-92.7715558|04/30/1980|03/20/2008
53287|Perry|Populated Place|54650|P1|3110|053110105|05|AR|1|105|Perry|35.0475869|-92.7940557|04/30/1980|03/20/2008
53370|Pike City|Populated Place|55190|U6|3140|053140109|05|AR|1|109|Pike|34.1123272|-93.5751832|04/30/1980|
53506|Pisgah|Populated Place|55790|U6|||05|AR|1|109|Pike|33.9792747|-93.5260135|04/30/1980|
53605|Pleasant Valley|Populated Place|56360|U6|||05|AR|1|105|Perry|34.971477|-92.6743305|04/30/1980|
53639|Point Cedar|Populated Place|56570|U6|||05|AR|1|059|Hot Spring|34.3275938|-93.3074039|04/30/1980|
53673|Ponca|Populated Place|56630|U6|3204|053204101|05|AR|1|101|Newton|36.0242433|-93.3646264|04/30/1980|
53704|Portia|Populated Place|56720|P1|3210|053210075|05|AR|1|075|Lawrence|36.0864591|-91.0673461|04/30/1980|03/20/2008
53780|Prattsville|Populated Place|57230|P1|3255|053255053|05|AR|1|053|Grant|34.3148176|-92.5534927|04/30/1980|03/20/2008
53784|Prescott|Populated Place|57260|P1|3260|053260099|05|AR|1|099|Nevada|33.8026107|-93.3810057|04/30/1980|03/20/2008
53799|Prim|Populated Place|57470|U6|3265|053265023|05|AR|1|023|Cleburne|35.6939653|-92.1084844|04/30/1980|
53864|Quitman|Populated Place|57950|P1|3290|053290023|05|AR|1|023|Cleburne|35.3842471|-92.2157075|04/30/1980|03/20/2008
53864|Quitman|Populated Place|57950|P1|3290|053290045|05|AR|2|045|Faulkner|35.3842471|-92.2157075|04/30/1980|03/20/2008
53884|Ralph|Populated Place|58010|U6|||05|AR|1|089|Marion|36.1720157|-92.6743317|04/30/1980|
53912|Ravanna|Populated Place|58220|U6|||05|AR|1|091|Miller|33.0654105|-94.0410159|04/30/1980|
53926|Readland|Populated Place|58430|U6|3340|053340017|05|AR|1|017|Chicot|33.0656783|-91.213444|04/30/1980|
53994|Reydell|Populated Place|59150|U6|3368|053368069|05|AR|1|069|Jefferson|34.1573212|-91.5676252|04/30/1980|
54009|Rich|Populated Place|59240|U6|||05|AR|1|095|Monroe|34.7645408|-91.1373447|04/30/1980|
54160|Rogers|Populated Place|60410|P1|3390|053390007|05|AR|1|007|Benton|36.3320197|-94.1185366|04/30/1980|03/20/2008
54168|Roland|Populated Place|60470|U5|3405|053405119|05|AR|1|119|Pulaski|34.9006447|-92.4982142|04/30/1980|01/29/2011
54173|Rolla|Populated Place|60530|U6|3407|053407059|05|AR|1|059|Hot Spring|34.2081514|-92.7307199|04/30/1980|
54177|Romance|Populated Place|60560|U6|3415|053415145|05|AR|1|145|White|35.2409171|-92.051258|04/30/1980|
54180|Rondo|Populated Place|60590|P1|3410|053410077|05|AR|1|077|Lee|34.6592655|-90.8206687|04/30/1980|03/20/2008
54191|Rose Bud|Populated Place|60770|P1|3425|053425145|05|AR|1|145|White|35.3314708|-92.0812595|04/30/1980|03/20/2008
54210|Rosedale|Populated Place|60830|U6|||05|AR|1|119|Pulaski|34.7209255|-92.3729315|04/30/1980|
54216|Rosie|Populated Place|60980|U6|3423|053423063|05|AR|1|063|Independence|35.6684115|-91.5384688|04/30/1980|
54227|Rosston|Populated Place|61040|P1|3426|053426099|05|AR|1|099|Nevada|33.5926167|-93.276558|04/30/1980|03/20/2008
54228|Rottaken|Populated Place|61080|U6|||05|AR|1|119|Pulaski|34.5731493|-92.2109815|04/30/1980|
54297|Ryan|Populated Place|61700|U6|||05|AR|1|085|Lonoke|34.5437058|-91.8276352|04/30/1980|
54483|Salado|Populated Place|62120|U6|3499|053499063|05|AR|1|063|Independence|35.691189|-91.5956928|04/30/1980|
54484|Salem|Populated Place|62210|U5|||05|AR|1|125|Saline|34.6289814|-92.558216|04/30/1980|03/20/2008
54538|Sand Hill|Populated Place|62390|U6|||05|AR|1|117|Prairie|35.0087019|-91.4348518|04/30/1980|
54561|Sandtown|Populated Place|62450|U6|||05|AR|1|063|Independence|35.9047959|-91.6351399|04/30/1980|
54589|Sardis|Populated Place|62660|U6|||05|AR|1|125|Saline|34.5317605|-92.407933|04/30/1980|
54634|Scott|Populated Place|62900|U5|3515|053515085|05|AR|1|085|Lonoke|34.6964808|-92.0962552|04/30/1980|03/20/2008
54634|Scott|Populated Place|62900|U5|3515|053515119|05|AR|2|119|Pulaski|34.6964808|-92.0962552|04/30/1980|03/20/2008
54648|Scott Valley|Populated Place|62945|U6|||05|AR|1|077|Lee|34.7300979|-90.7678893|04/30/1980|
54743|Shaw|Populated Place|63545|U6|||05|AR|1|125|Saline|34.4981492|-92.5382152|04/30/1980|
54749|Shawnee|Populated Place|63575|U6|||05|AR|1|093|Mississippi|35.4953603|-90.1167588|04/30/1980|
54764|Sheridan|Populated Place|63710|P1|3550|053550053|05|AR|1|053|Grant|34.3070406|-92.4012654|04/30/1980|03/20/2008
54811|Shirley|Populated Place|63980|P1|3590|053590141|05|AR|1|141|Van Buren|35.6561884|-92.3193224|04/30/1980|03/20/2008
54838|Sidney|Populated Place|64280|P1|3600|053600135|05|AR|1|135|Sharp|36.003127|-91.6598637|04/30/1980|03/20/2008
54841|Sidon|Populated Place|64310|U6|3603|053603145|05|AR|1|145|White|35.3445266|-91.9393116|04/30/1980|
54915|Slovak|Populated Place|64670|U6|||05|AR|1|117|Prairie|34.6487059|-91.5820749|04/30/1980|
54993|Snyder|Populated Place|65090|U6|||05|AR|1|003|Ashley|33.2951181|-91.6223464|04/30/1980|
54998|Solgohachia|Populated Place|65150|U6|3645|053645029|05|AR|1|029|Conway|35.2561924|-92.6762737|04/30/1980|
55002|Sonora|Populated Place|65180|U6|||05|AR|1|143|Washington|36.1653547|-94.0449227|04/30/1980|
55033|South Lead Hill|Populated Place|65480|P1|||05|AR|1|009|Boone|36.3947902|-92.9107279|04/30/1980|03/20/2008
55130|Springfield|Populated Place|66110|U6|3673|053673029|05|AR|1|029|Conway|35.2675809|-92.5576595|04/30/1980|
55149|Standard Umpstead|Populated Place|66350|U6|||05|AR|1|103|Ouachita|33.3731782|-92.6748804|04/30/1980|
55199|Stegall|Populated Place|66815|U6|||05|AR|1|067|Jackson|35.6073018|-91.1401245|04/30/1980|
55200|Stella|Populated Place|66830|U6|||05|AR|1|065|Izard|36.0109044|-91.8004234|04/30/1980|
55203|Stephens|Populated Place|66860|P1|3710|053710103|05|AR|1|103|Ouachita|33.4112328|-93.0696101|04/30/1980|03/20/2008
55240|Stokes|Populated Place|67040|U6|||05|AR|1|121|Randolph|36.3558979|-90.9342886|04/30/1980|
55268|Strawberry|Populated Place|67250|P1|3717|053717075|05|AR|1|075|Lawrence|35.9675726|-91.3212426|04/30/1980|03/20/2008
55348|Sunset|Populated Place|68060|P1|3782|053782035|05|AR|1|035|Crittenden|35.2217558|-90.2056505|04/30/1980|03/20/2008
55413|Sylvania|Populated Place|68510|U6|||05|AR|1|085|Lonoke|34.9723101|-91.9284754|04/30/1980|
55438|Tarry|Populated Place|68600|U6|||05|AR|1|079|Lincoln|34.0759328|-91.8415224|04/30/1980|
55455|Taylor|Populated Place|68660|P1|3800|053800027|05|AR|1|027|Columbia|33.1004108|-93.4610066|04/30/1980|03/20/2008
55486|Temple|Populated Place|68710|U6|||05|AR|1|081|Little River|33.5823446|-93.9907439|04/30/1980|
55554|Thornton|Populated Place|69050|P1|3813|053813013|05|AR|1|013|Calhoun|33.7789952|-92.4918221|04/30/1980|03/20/2008
55557|Three Brothers|Populated Place|69080|U6|||05|AR|1|005|Baxter|36.4525656|-92.4657168|04/30/1980|
55580|Tinsman|Populated Place|69350|P1|3830|053830013|05|AR|1|013|Calhoun|33.629832|-92.3551494|04/30/1980|03/20/2008
55588|Tokalon|Populated Place|69425|U6|||05|AR|1|083|Logan|35.3764739|-93.471296|04/30/1980|
55592|Toltec|Populated Place|69560|U6|||05|AR|1|085|Lonoke|34.6512035|-92.0559761|04/30/1980|
55606|Toneyville|Populated Place|69680|U4|||05|AR|1|119|Pulaski|34.8995333|-92.1020904|04/30/1980|
55674|Tucker|Populated Place|70070|U6|3868|053868069|05|AR|1|069|Jefferson|34.44454|-91.9545832|04/30/1980|
55689|Tuckerman|Populated Place|70100|P1|3870|053870067|05|AR|1|067|Jackson|35.7306327|-91.1984601|04/30/1980|03/20/2008
55693|Tull|Populated Place|70220|P1|3873|053873053|05|AR|1|053|Grant|34.4478716|-92.5762718|04/30/1980|03/20/2008
55697|Tumbling Shoals|Populated Place|70310|U5|3876|053876023|05|AR|1|023|Cleburne|35.5420227|-91.9673696|04/30/1980|01/29/2011
55710|Turkey Creek|Populated Place|70370|U6|||05|AR|1|137|Stone|35.7664652|-92.2098758|04/30/1980|
55730|Turkey Scratch|Populated Place|70380|U6|||05|AR|1|107|Phillips|34.6439877|-90.927338|04/30/1980|
55730|Turkey Scratch|Populated Place|70380|U6|||05|AR|2|077|Lee|34.6439877|-90.927338|04/30/1980|
55754|Twentythree|Populated Place|70490|U6|||05|AR|1|145|White|35.3761941|-91.5595784|04/30/1980|
55773|Tyronza|Populated Place|70700|P1|3900|053900111|05|AR|1|111|Poinsett|35.4900827|-90.358711|04/30/1980|03/20/2008
55834|Union Valley|Populated Place|71070|U6|||05|AR|1|085|Lonoke|34.7648126|-92.0034748|04/30/1980|
55863|Urbana|Populated Place|71180|U6|3925|053925139|05|AR|1|139|Union|33.1595732|-92.4459795|04/30/1980|
55896|Velvet Ridge|Populated Place|71690|U6|||05|AR|1|145|White|35.4131378|-91.576246|04/30/1980|
55901|Vesta|Populated Place|71780|U6|||05|AR|1|047|Franklin|35.3792557|-94.0418704|04/30/1980|
55978|Wallace|Populated Place|72530|U6|||05|AR|1|081|Little River|33.6817843|-94.3585354|04/30/1980|
55995|Walnut Corner|Populated Place|72620|U6|||05|AR|1|107|Phillips|34.5551003|-90.7681675|04/30/1980|
56036|Ward|Populated Place|73130|P1|4020|054020085|05|AR|1|085|Lonoke|35.0303648|-91.950421|04/30/1980|03/20/2008
56070|Warsaw|Populated Place|73325|U6|||05|AR|1|119|Pulaski|34.9523104|-92.1551479|04/30/1980|
56106|Watson|Populated Place|73550|P1|4050|054050041|05|AR|1|041|Desha|33.8951043|-91.2562273|04/30/1980|03/20/2008
56120|Waverly|Populated Place|73700|U6|||05|AR|1|035|Crittenden|35.047038|-90.2389844|04/30/1980|
56157|Wesley Chapel|Populated Place|74120|U6|||05|AR|1|029|Conway|35.2689702|-92.7326641|04/30/1980|
56197|West Pangburn|Populated Place|74630|U6|||05|AR|1|023|Cleburne|35.4317473|-91.886811|04/30/1980|
56211|Westwood|Populated Place|74780|U4|||05|AR|1|119|Pulaski|34.706759|-92.3701536|04/30/1980|
56239|Whispering Springs|Populated Place|75005|U6|||05|AR|1|023|Cleburne|35.5542443|-92.2315424|04/30/1980|
56348|Wilburn|Populated Place|75590|U6|4175|054175023|05|AR|1|023|Cleburne|35.5073013|-91.8882008|04/30/1980|
56411|Willisville|Populated Place|75770|P1|4185|054185099|05|AR|1|099|Nevada|33.5170638|-93.2982259|04/30/1980|03/20/2008
56423|Wilmot|Populated Place|75890|P1|4200|054200003|05|AR|1|003|Ashley|33.0573469|-91.5734539|04/30/1980|03/20/2008
56453|Winchester|Populated Place|76010|P1|4230|054230043|05|AR|1|043|Drew|33.7745503|-91.4745673|04/30/1980|03/20/2008
56467|Wirth|Populated Place|76280|U6|||05|AR|1|135|Sharp|36.4506189|-91.3804141|04/30/1980|
56473|Wiville|Populated Place|76490|U6|||05|AR|1|147|Woodruff|35.1481446|-91.2409591|04/30/1980|
56520|Woodland Hills|Populated Place|76670|U6|||05|AR|1|049|Fulton|36.3783981|-91.4631941|04/30/1980|
56536|Woodson|Populated Place|76730|U5|4254|054254119|05|AR|1|119|Pulaski|34.5292609|-92.2109816|04/30/1980|03/20/2008
56551|Wright|Populated Place|76940|U6|4255|054255069|05|AR|1|069|Jefferson|34.4350955|-92.0662539|04/30/1980|
56563|Wrightsville|Populated Place|76970|P1|4256|054256119|05|AR|1|119|Pulaski|34.6023156|-92.216815|04/30/1980|03/20/2008
56583|Yarbro|Populated Place|77210|U6|||05|AR|1|093|Mississippi|35.9792388|-89.9103642|04/30/1980|
56609|Yorktown|Populated Place|77480|U6|4275|054275079|05|AR|1|079|Lincoln|34.0209335|-91.8167994|04/30/1980|
56626|Zion|Populated Place|77630|U6|4285|054285065|05|AR|1|065|Izard|36.0803476|-91.7698675|04/30/1980|
56724|Rena|Populated Place|59000|U6|3363|053363033|05|AR|1|033|Crawford|35.4870326|-94.3577123|01/01/2000|03/20/2008
56793|Smithton|Populated Place|64880|U6|||05|AR|1|019|Clark|33.9417688|-93.1268371|01/01/2000|
56839|Morrilton|Populated Place|46970|P1|2710|052710029|05|AR|1|029|Conway|35.1509173|-92.7440538|01/01/2000|03/22/2011
56905|Alread|Populated Place|01120|U6|||05|AR|1|141|Van Buren|35.632856|-92.6798857|04/30/1980|
56906|Appleby|Populated Place|01640|U6|||05|AR|1|143|Washington|36.0211918|-94.2463183|04/30/1980|
56908|Arbor Grove|Populated Place|01750|U6|||05|AR|1|075|Lawrence|36.0184047|-91.0476227|04/30/1980|
56909|Arcadia|Populated Place|01780|U6|||05|AR|1|057|Hempstead|33.842333|-93.4660093|04/30/1980|
56910|Arlberg|Populated Place|02220|U6|||05|AR|1|137|Stone|35.7336885|-92.3893244|04/30/1980|
56911|Austin|Populated Place|02830|U6|||05|AR|1|029|Conway|35.442023|-92.5265477|04/30/1980|
56912|Avilla|Populated Place|03010|U5|||05|AR|1|125|Saline|34.6825921|-92.5851613|04/30/1980|01/29/2011
56913|Azor|Populated Place|03100|U6|||05|AR|1|099|Nevada|33.5917843|-93.4248959|04/30/1980|
56914|Baker Ford|Populated Place|03230|U6|||05|AR|1|049|Fulton|36.3764538|-91.5612523|04/30/1980|
56915|Shady Grove|Populated Place|63260|U6|||05|AR|1|093|Mississippi|35.8303523|-90.1787062|04/30/1980|
56916|Barfield|Populated Place|03610|U6|||05|AR|1|093|Mississippi|35.9050747|-89.7678593|04/30/1980|
56917|Barham|Populated Place|03620|U6|||05|AR|1|103|Ouachita|33.72372|-93.0540551|04/30/1980|
56918|Barrentine Corner|Populated Place|03730|U6|||05|AR|1|145|White|35.0689754|-91.9451432|04/30/1980|
56919|Bayless|Populated Place|04195|U6|||05|AR|1|095|Monroe|34.8245393|-91.2245695|04/30/1980|
56920|Beasley|Populated Place|04460|U6|||05|AR|1|111|Poinsett|35.4678611|-90.3228765|04/30/1980|
56921|Beaty|Populated Place|04480|U6|||05|AR|1|007|Benton|36.4514649|-94.525218|04/30/1980|
56922|Beck|Populated Place|04580|U6|||05|AR|1|091|Miller|33.4092907|-93.7446244|04/30/1980|
56923|Becton|Populated Place|04590|U6|||05|AR|1|147|Woodruff|35.0642575|-91.2484594|04/30/1980|
56924|Belcher|Populated Place|04770|U6|||05|AR|1|145|White|35.081755|-91.6020779|04/30/1980|
56925|Belfast|Populated Place|04790|U6|||05|AR|1|053|Grant|34.4145393|-92.4590455|04/30/1980|
56927|Berea|Populated Place|05380|U6|||05|AR|1|003|Ashley|33.3392835|-91.7006822|04/30/1980|
56928|Beryl|Populated Place|05590|U6|||05|AR|1|045|Faulkner|35.0831417|-92.2601512|04/30/1980|
56929|Bethel|Populated Place|05670|U6|||05|AR|1|027|Columbia|33.4242893|-93.3276709|04/30/1980|
56930|Birdell|Populated Place|06265|U6|||05|AR|1|121|Randolph|36.2445117|-91.078181|04/30/1980|
56931|Black Oak|Populated Place|06670|U6|||05|AR|1|143|Washington|35.9834132|-94.079646|04/30/1980|
56933|Blue Bayou|Populated Place|07135|U6|||05|AR|1|061|Howard|33.9695587|-93.955744|04/30/1980|
56934|Boggy|Populated Place|07465|U6|||05|AR|1|091|Miller|33.2248512|-93.8868476|04/30/1980|
56935|Booker|Populated Place|07675|U6|||05|AR|1|035|Crittenden|35.3073093|-90.2895418|04/30/1980|
56936|Bowen|Populated Place|07990|U6|||05|AR|1|109|Pike|33.9692744|-93.4943464|04/30/1980|
56937|Brakebill|Populated Place|08425|U6|||05|AR|1|121|Randolph|36.4578406|-90.9631795|04/30/1980|
56938|Branchville|Populated Place|08450|U6|||05|AR|1|079|Lincoln|33.9023245|-91.880968|04/30/1980|
56939|Brandon|Populated Place|08455|U6|||05|AR|1|043|Drew|33.7192728|-91.9201354|04/30/1980|
56940|Brister|Populated Place|08980|U6|||05|AR|1|027|Columbia|33.1406886|-93.1921108|04/30/1980|
56941|Brittain|Populated Place|08990|U6|||05|AR|1|119|Pulaski|34.6570372|-92.3226519|04/30/1980|
56942|Brush Creek|Populated Place|09400|U6|||05|AR|1|053|Grant|34.2178739|-92.6534953|04/30/1980|
56943|Buckeye|Populated Place|09505|U6|||05|AR|1|087|Madison|36.1064657|-93.9021408|04/30/1980|
56944|Burnt Hill|Populated Place|10015|U6|||05|AR|1|031|Craighead|35.878129|-90.5153849|04/30/1980|
56945|Burton|Populated Place|10060|U6|||05|AR|1|093|Mississippi|35.9209071|-89.85564|04/30/1980|
56946|Cairo|Populated Place|10405|U6|||05|AR|1|139|Union|33.2201301|-92.8698841|04/30/1980|
56947|Calmer|Populated Place|10630|U6|||05|AR|1|025|Cleveland|33.9376013|-92.0306954|04/30/1980|
56948|Calumet|Populated Place|10660|U6|||05|AR|1|093|Mississippi|35.9817381|-89.9862|04/30/1980|
56949|Calvin|Populated Place|10690|U6|||05|AR|1|075|Lawrence|35.9300731|-91.058734|04/30/1980|
56950|Campbell|Populated Place|10870|U6|||05|AR|1|129|Searcy|35.8709088|-92.4751603|04/30/1980|
56951|Caney|Populated Place|11110|U6|||05|AR|1|045|Faulkner|35.0611972|-92.3845994|04/30/1980|
56952|Carmel|Populated Place|11530|U6|||05|AR|1|011|Bradley|33.5448325|-92.0715271|04/30/1980|
56953|Cedar Creek|Populated Place|12385|U6|||05|AR|1|029|Conway|35.3225801|-92.5354367|04/30/1980|
56954|Center Valley|Populated Place|12850|U6|||05|AR|1|115|Pope|35.330083|-93.0846176|04/30/1980|
56955|Centerville|Populated Place|12910|U6|||05|AR|1|057|Hempstead|33.6442833|-93.4893421|04/30/1980|
56956|Centerville|Populated Place|12880|U6|||05|AR|1|045|Faulkner|35.2731382|-92.2565407|04/30/1980|
56957|Chambersville|Populated Place|13185|U6|||05|AR|1|013|Calhoun|33.7478844|-92.431264|04/30/1980|
56958|Childers|Populated Place|13760|U6|||05|AR|1|117|Prairie|34.9206467|-91.5642988|04/30/1980|
56959|Chismville|Populated Place|13900|U6|||05|AR|1|083|Logan|35.217314|-93.9404799|04/30/1980|
56960|Claude|Populated Place|14155|U6|||05|AR|1|141|Van Buren|35.4728564|-92.602383|04/30/1980|
56962|Clipper|Populated Place|14275|U6|||05|AR|1|091|Miller|33.5720659|-93.8532397|04/30/1980|
56963|Cloar|Populated Place|14290|U6|||05|AR|1|035|Crittenden|35.3098086|-90.4578804|04/30/1980|
56964|Coffman|Populated Place|14620|U6|||05|AR|1|055|Greene|36.0381249|-90.4081592|04/30/1980|
56965|Cole Ridge|Populated Place|14700|U6|||05|AR|1|093|Mississippi|35.8428523|-89.9992556|04/30/1980|
56966|Coleman|Populated Place|14680|U6|||05|AR|1|043|Drew|33.7745494|-91.749019|04/30/1980|
56967|Conant|Populated Place|15085|U6|||05|AR|1|145|White|35.1548089|-91.6731912|04/30/1980|
56968|Cooney|Populated Place|15230|U6|||05|AR|1|039|Dallas|34.1323206|-92.5318245|04/30/1980|
56969|Corinth|Populated Place|15295|U6|||05|AR|1|061|Howard|34.0428891|-93.8412965|04/30/1980|
56971|Cornie|Populated Place|15445|U6|||05|AR|1|139|Union|33.0679146|-92.7259914|04/30/1980|
56972|Cottonwood Corner|Populated Place|15610|U6|||05|AR|1|031|Craighead|35.8311855|-90.3050996|04/30/1980|
56973|Cowlingsville|Populated Place|15760|U6|||05|AR|1|133|Sevier|33.8484506|-94.0679707|04/30/1980|
56974|Cricket|Populated Place|16000|U6|||05|AR|1|009|Boone|36.448955|-93.2024022|04/30/1980|04/22/2009
56975|Cross Lanes|Populated Place|16250|U6|||05|AR|1|033|Crawford|35.3900894|-94.2060418|04/30/1980|
56976|Cross Roads|Populated Place|16265|U6|||05|AR|1|011|Bradley|33.6031649|-92.185976|04/30/1980|
56977|Cross Roads|Populated Place|16300|U6|||05|AR|1|053|Grant|34.2248194|-92.4059875|04/30/1980|
56978|Cross Roads|Populated Place|16480|U6|||05|AR|1|087|Madison|36.0753551|-93.9085298|04/30/1980|
56979|Cummings Springs|Populated Place|16880|U6|||05|AR|1|099|Nevada|33.7528875|-93.1837779|04/30/1980|
56980|Cypress Corner|Populated Place|17020|U6|||05|AR|1|077|Lee|34.6570433|-90.7678895|04/30/1980|
56981|Cypress Valley|Populated Place|17050|U6|||05|AR|1|029|Conway|35.2709143|-92.6301614|04/30/1980|04/22/2009
56982|Dagmar|Populated Place|17130|U6|||05|AR|1|095|Monroe|34.8562051|-91.3006824|04/30/1980|
56983|Dave|Populated Place|17425|U6|||05|AR|1|057|Hempstead|33.6426205|-93.8810186|04/30/1980|
56984|Davis Ford|Populated Place|17455|U6|||05|AR|1|061|Howard|34.2353872|-94.0157501|04/30/1980|
56985|Day|Populated Place|17470|U6|||05|AR|1|065|Izard|36.2386782|-91.7276452|04/30/1980|
56986|Deep Elm|Populated Place|17830|U6|||05|AR|1|095|Monroe|34.5387097|-91.1740094|04/30/1980|
56987|Delmar|Populated Place|18190|U6|||05|AR|1|015|Carroll|36.1606288|-93.3410157|04/30/1980|
56988|Delta|Populated Place|18250|U6|||05|AR|1|099|Nevada|33.4717876|-93.2848921|04/30/1980|
56989|Dexter|Populated Place|18805|U6|||05|AR|1|069|Jefferson|34.3167635|-92.1084773|04/30/1980|
56991|Dodson|Populated Place|19210|U6|||05|AR|1|027|Columbia|33.2417955|-93.3462816|04/30/1980|
56992|Dogwood|Populated Place|19285|U6|||05|AR|1|053|Grant|34.2367632|-92.5265471|04/30/1980|
56993|Donnick|Populated Place|19520|U6|||05|AR|1|111|Poinsett|35.6459123|-90.446215|04/30/1980|
56994|Dooley|Populated Place|19530|U6|||05|AR|1|091|Miller|33.4687346|-93.8574057|04/30/1980|
56995|Dota|Populated Place|19550|U6|||05|AR|1|063|Independence|35.7945204|-91.3779098|04/30/1980|
56996|Dotson|Populated Place|19555|U6|||05|AR|1|057|Hempstead|33.9226107|-93.5985131|04/30/1980|
56997|Doylestown|Populated Place|19675|U6|||05|AR|1|069|Jefferson|34.2700972|-92.2037585|04/30/1980|
56998|Dunlap|Populated Place|20010|U6|||05|AR|1|057|Hempstead|33.8526116|-93.5390668|04/30/1980|
56999|Ebenezer|Populated Place|20620|U6|||05|AR|1|027|Columbia|33.3009597|-93.0584983|04/30/1980|
57000|Edwards|Populated Place|20850|U6|||05|AR|1|117|Prairie|35.023421|-91.7973606|04/30/1980|
57001|Eglantine|Populated Place|20890|U6|||05|AR|1|141|Van Buren|35.5795219|-92.3062662|04/30/1980|
57002|Elgin|Populated Place|21115|U6|||05|AR|1|067|Jackson|35.7639654|-91.2926296|04/30/1980|
57003|Elmo|Populated Place|21385|U6|||05|AR|1|063|Independence|35.6209124|-91.391798|04/30/1980|
57004|Elnora|Populated Place|21490|U6|||05|AR|1|121|Randolph|36.1722905|-90.9631766|04/30/1980|
57005|Emmons|Populated Place|21620|U6|||05|AR|1|095|Monroe|34.8087067|-91.1551231|04/30/1980|
57007|Fairbanks|Populated Place|22570|U6|||05|AR|1|141|Van Buren|35.4445233|-92.2720981|04/30/1980|
57008|Fairfield|Populated Place|22600|U6|||05|AR|1|069|Jefferson|34.212598|-91.8951356|04/30/1980|
57009|Farelly Lake|Populated Place|23110|U6|||05|AR|1|069|Jefferson|34.1048218|-91.5306798|04/30/1980|
57010|Farindale|Populated Place|23155|U6|||05|AR|1|039|Dallas|34.0928772|-92.4084868|04/30/1980|
57011|Farmville|Populated Place|23200|U6|||05|AR|1|011|Bradley|33.5156672|-92.1904199|04/30/1980|
57012|Feenyville|Populated Place|23300|U6|||05|AR|1|079|Lincoln|33.9773228|-91.9093025|04/30/1980|
57013|Ferda|Populated Place|23500|U6|||05|AR|1|069|Jefferson|34.4589843|-91.9545832|04/30/1980|
57015|Flag|Populated Place|23920|U6|||05|AR|1|137|Stone|35.8192429|-92.3943249|04/30/1980|
57016|Florence|Populated Place|24100|U6|||05|AR|1|043|Drew|33.7656612|-91.645683|04/30/1980|
57017|Formosa|Populated Place|24400|U6|1345|051345141|05|AR|1|141|Van Buren|35.4631338|-92.5101584|04/30/1980|
57018|Forrest Bonner|Populated Place|24415|U6|||05|AR|1|039|Dallas|33.8392716|-92.5446013|04/30/1980|
57019|Forty Four|Populated Place|24580|U6|1375|051375065|05|AR|1|065|Izard|36.1436802|-92.0609855|04/30/1980|
57020|Free Hope|Populated Place|25090|U6|||05|AR|1|027|Columbia|33.2917937|-93.1640554|04/30/1980|
57021|Fresno|Populated Place|25135|U6|||05|AR|1|079|Lincoln|33.963157|-91.7070735|04/30/1980|
57022|Friendship|Populated Place|25145|U6|||05|AR|1|025|Cleveland|33.9770449|-92.0434736|04/30/1980|
57023|Friendship|Populated Place|25165|U6|||05|AR|1|029|Conway|35.3753571|-92.5082139|04/30/1980|
57024|Frisco|Populated Place|25225|U6|||05|AR|1|007|Benton|36.2564647|-94.0782572|04/30/1980|
57025|Fryatt|Populated Place|25285|U6|||05|AR|1|049|Fulton|36.4636746|-91.651255|04/30/1980|
57026|Gainsboro|Populated Place|25490|U6|||05|AR|1|063|Independence|35.7967427|-91.531525|04/30/1980|
57027|Galloway|Populated Place|25600|U6|||05|AR|1|119|Pulaski|34.7798131|-92.1287566|04/30/1980|
57028|Garlandville|Populated Place|25870|U6|||05|AR|1|057|Hempstead|33.8117786|-93.4846203|04/30/1980|
57029|Garrett Grove|Populated Place|25996|U6|||05|AR|1|077|Lee|34.8006517|-91.0828989|04/30/1980|
57030|Gavin|Populated Place|26130|U6|||05|AR|1|035|Crittenden|35.1909233|-90.2198175|04/30/1980|
57031|Gid|Populated Place|26725|U6|||05|AR|1|065|Izard|35.9797941|-91.8565357|04/30/1980|
57032|Glencoe|Populated Place|27160|U6|1527|051527049|05|AR|1|049|Fulton|36.2942329|-91.7473681|04/30/1980|
57033|Gobbler|Populated Place|27370|U6|||05|AR|1|015|Carroll|36.1886838|-93.456297|04/30/1980|
57034|Goodman|Populated Place|27590|U6|||05|AR|1|125|Saline|34.5603713|-92.4701573|04/30/1980|
57035|Grants|Populated Place|27985|U6|||05|AR|1|073|Lafayette|33.1562419|-93.6573988|04/30/1980|
57036|Grapevine|Populated Place|28000|U6|1563|051563053|05|AR|1|053|Grant|34.1456543|-92.3154285|04/30/1980|
57038|Graysonia|Populated Place|28460|U6|||05|AR|1|019|Clark|34.1270461|-93.4399031|04/30/1980|
57039|Greenwood|Populated Place|28750|U6|||05|AR|1|047|Franklin|35.407864|-93.7713066|04/30/1980|
57040|Hagler|Populated Place|29330|U6|||05|AR|1|001|Arkansas|34.2542649|-91.5281799|04/30/1980|
57041|Halfway|Populated Place|29365|U6|||05|AR|1|019|Clark|34.0848227|-93.3218431|04/30/1980|
57042|Hallsville|Populated Place|29455|U6|||05|AR|1|117|Prairie|34.8167599|-91.4954082|04/30/1980|
57043|Hamil|Populated Place|29510|U6|||05|AR|1|121|Randolph|36.4031197|-91.0654042|04/30/1980|
57044|Hamilton|Populated Place|29530|U6|||05|AR|1|085|Lonoke|34.6220384|-91.7192995|04/30/1980|
57045|Hamiter|Populated Place|29560|U6|||05|AR|1|085|Lonoke|34.6623145|-92.0673654|04/30/1980|
57046|Happy|Populated Place|29800|U6|||05|AR|1|145|White|35.1653645|-91.6443016|04/30/1980|
57047|Harmony|Populated Place|30130|U6|||05|AR|1|027|Columbia|33.1426322|-93.3551705|04/30/1980|
57048|Harmony|Populated Place|30205|U6|||05|AR|1|099|Nevada|33.6542822|-93.3990614|04/30/1980|
57049|Harness|Populated Place|30280|U6|||05|AR|1|137|Stone|35.8431314|-92.4054363|04/30/1980|
57050|Haroldton|Populated Place|30290|U6|||05|AR|1|033|Crawford|35.3623124|-94.2602103|04/30/1980|
57051|Harwood|Populated Place|30625|U6|||05|AR|1|017|Chicot|33.1628986|-91.128164|04/30/1980|
57052|Hayley|Populated Place|30850|U6|||05|AR|1|117|Prairie|34.9959224|-91.6548567|04/30/1980|
57053|Heart|Populated Place|31060|U6|||05|AR|1|049|Fulton|36.3236769|-91.7148673|04/30/1980|
57054|Heelstring|Populated Place|31160|U6|||05|AR|1|021|Clay|36.3536741|-90.6945588|04/30/1980|
57055|Heffington|Populated Place|31170|U6|||05|AR|1|067|Jackson|35.4495261|-91.5131888|04/30/1980|
57056|Herbert|Populated Place|31450|U6|||05|AR|1|103|Ouachita|33.5512262|-92.8382183|04/30/1980|
57057|Hervey|Populated Place|31660|U6|||05|AR|1|091|Miller|33.4981778|-93.7771262|04/30/1980|
57058|Hill Creek|Populated Place|32320|U6|||05|AR|1|029|Conway|35.2114711|-92.6190501|04/30/1980|
57059|Hinkle|Populated Place|32485|U6|||05|AR|1|071|Johnson|35.4278627|-93.583522|04/30/1980|
57060|Holla Bend|Populated Place|32680|U6|||05|AR|1|115|Pope|35.1661968|-93.0518396|04/30/1980|
57061|Holland|Populated Place|32725|U6|||05|AR|1|085|Lonoke|34.9242551|-92.0534783|04/30/1980|
57062|Homan|Populated Place|33040|U6|||05|AR|1|091|Miller|33.5429001|-93.8862961|04/30/1980|
57063|Hopeville|Populated Place|33200|U6|||05|AR|1|013|Calhoun|33.7898283|-92.5573793|04/30/1980|
57065|Hoyt|Populated Place|33610|U6|||05|AR|1|071|Johnson|35.4264737|-93.5637991|04/30/1980|
57066|Huffman|Populated Place|33730|U6|||05|AR|1|093|Mississippi|35.9734068|-89.7339695|04/30/1980|
57067|Irma|Populated Place|34430|U6|||05|AR|1|099|Nevada|33.5553958|-93.2835029|04/30/1980|
57068|Ivy|Populated Place|34600|U6|||05|AR|1|039|Dallas|34.1281541|-92.5296021|04/30/1980|
57069|Jacinto|Populated Place|34630|U6|||05|AR|1|039|Dallas|33.9045476|-92.6382152|04/30/1980|
57070|Johnstown|Populated Place|35560|U6|||05|AR|1|067|Jackson|35.5784135|-91.1626249|04/30/1980|
57071|Johnsville|Populated Place|35620|U6|||05|AR|1|011|Bradley|33.3731706|-92.0159682|04/30/1980|
57072|Joyce City|Populated Place|35920|U6|||05|AR|1|103|Ouachita|33.3759556|-92.6490461|04/30/1980|
57073|Kansas|Populated Place|36210|U6|||05|AR|1|019|Clark|33.8581591|-92.9882233|04/30/1980|
57074|Kay|Populated Place|36235|U6|||05|AR|1|129|Searcy|35.7861884|-92.6921089|04/30/1980|
57075|Kellum|Populated Place|36340|U6|||05|AR|1|133|Sevier|34.1165005|-94.4399325|04/30/1980|
57076|Kerlin|Populated Place|36580|U6|||05|AR|1|027|Columbia|33.1837423|-93.2254449|04/30/1980|
57077|Kiblah|Populated Place|36640|U6|||05|AR|1|091|Miller|33.0515224|-93.8960127|04/30/1980|
57078|Killin|Populated Place|36680|U6|||05|AR|1|043|Drew|33.6123312|-91.7412402|04/30/1980|
57079|Kittlers|Populated Place|37135|U6|||05|AR|1|001|Arkansas|34.3728763|-91.4098456|04/30/1980|
57080|Kizer|Populated Place|37150|U6|||05|AR|1|073|Lafayette|33.0651335|-93.662676|04/30/1980|
57081|Knoxville Junction|Populated Place|37315|U6|||05|AR|1|071|Johnson|35.4089727|-93.3846261|04/30/1980|
57082|Kress City|Populated Place|37405|U6|||05|AR|1|073|Lafayette|33.2942935|-93.6048992|04/30/1980|
57083|Lakeside|Populated Place|38020|U6|||05|AR|1|103|Ouachita|33.5781696|-92.7382166|04/30/1980|
57084|Lakeway|Populated Place|38200|U6|||05|AR|1|089|Marion|36.3386799|-92.7685014|04/30/1980|
57085|Lanark|Populated Place|38470|U6|||05|AR|1|011|Bradley|33.5312228|-92.2645894|04/30/1980|
57086|Lanty|Populated Place|38680|U6|||05|AR|1|029|Conway|35.3364694|-92.6857185|04/30/1980|
57087|Lauratown|Populated Place|38870|U6|||05|AR|1|075|Lawrence|36.0200714|-91.0884575|04/30/1980|
57088|Ledwidge|Populated Place|39130|U6|||05|AR|1|105|Perry|34.9573103|-92.5662718|04/30/1980|
57089|Lenox|Populated Place|39295|U6|||05|AR|1|019|Clark|34.2489836|-93.2685106|04/30/1980|
57090|Lester Junction|Populated Place|39500|U6|||05|AR|1|103|Ouachita|33.6278899|-92.9371089|04/30/1980|
57091|Letchworth|Populated Place|39510|U6|||05|AR|1|117|Prairie|34.9109252|-91.4942972|04/30/1980|
57092|Lexa Junction|Populated Place|39685|U6|||05|AR|1|107|Phillips|34.5989886|-90.7681674|04/30/1980|
57093|Little Bay|Populated Place|40080|U6|||05|AR|1|013|Calhoun|33.7626068|-92.5323786|04/30/1980|
57094|Lone Grove|Populated Place|41290|U6|||05|AR|1|029|Conway|35.3150807|-92.70183|04/30/1980|
57095|Lone Star|Populated Place|41350|U6|||05|AR|1|065|Izard|36.0036828|-91.9898726|04/30/1980|
57096|Long|Populated Place|41355|U6|||05|AR|1|081|Little River|33.6584542|-94.026857|04/30/1980|
57097|Lost Corner|Populated Place|41570|U6|||05|AR|1|115|Pope|35.5717459|-92.8340563|04/30/1980|
57098|Love Creek|Populated Place|41675|U6|||05|AR|1|019|Clark|34.0253799|-93.3148974|04/30/1980|
57100|Lutherville|Populated Place|42140|U6|||05|AR|1|071|Johnson|35.4839707|-93.2779556|04/30/1980|
57101|Lydesdale|Populated Place|42200|U6|||05|AR|1|027|Columbia|33.320959|-93.1182216|04/30/1980|
57102|Macon|Populated Place|43130|U6|||05|AR|1|119|Pulaski|34.9203666|-92.1684813|04/30/1980|
57103|Madding|Populated Place|43250|U6|||05|AR|1|069|Jefferson|34.22482|-91.8337443|04/30/1980|
57104|Majors|Populated Place|43505|U6|||05|AR|1|019|Clark|34.2217661|-93.4732392|04/30/1980|
57105|Marysville|Populated Place|44480|U6|||05|AR|1|139|Union|33.2273519|-92.9573853|04/30/1980|
57106|Mayfield|Populated Place|44720|U6|||05|AR|1|143|Washington|36.1336877|-93.9440865|04/30/1980|
57107|Mayton|Populated Place|44830|U6|||05|AR|1|091|Miller|33.3765137|-93.7360129|04/30/1980|
57108|Mayview|Populated Place|44850|U6|||05|AR|1|001|Arkansas|34.2092668|-91.3567872|04/30/1980|
57109|McFadden|Populated Place|42710|U6|||05|AR|1|067|Jackson|35.4064727|-91.0920666|04/30/1980|
57110|McKinney|Populated Place|42935|U6|||05|AR|1|091|Miller|33.3890137|-93.7954588|04/30/1980|
57111|McKinney|Populated Place|42920|U6|||05|AR|1|011|Bradley|33.6367751|-92.1790317|04/30/1980|
57112|Meridian|Populated Place|45230|U6|||05|AR|1|003|Ashley|33.0348472|-91.9787421|04/30/1980|
57113|Meroney|Populated Place|45260|U6|||05|AR|1|079|Lincoln|33.9603793|-91.7340188|04/30/1980|
57114|Metalton|Populated Place|45350|U6|||05|AR|1|015|Carroll|36.2231279|-93.5299102|04/30/1980|
57115|Meto|Populated Place|45360|U6|||05|AR|1|085|Lonoke|34.7856458|-91.9959749|04/30/1980|
57116|Midway|Populated Place|45680|U6|||05|AR|1|099|Nevada|33.8112226|-93.4565639|04/30/1980|
57117|Midway|Populated Place|45660|U6|||05|AR|1|089|Marion|36.4106226|-92.6629438|04/30/1980|
57118|Milford|Populated Place|45740|U6|||05|AR|1|133|Sevier|33.9187271|-94.0854717|04/30/1980|
57120|Millerville|Populated Place|45870|U6|||05|AR|1|053|Grant|34.181209|-92.3987648|04/30/1980|
57121|Millville|Populated Place|45935|U6|||05|AR|1|103|Ouachita|33.7114977|-92.6565482|04/30/1980|
57122|Millwood|Populated Place|45950|U6|||05|AR|1|081|Little River|33.6715097|-93.9829667|04/30/1980|
57123|Milo|Populated Place|45980|U6|||05|AR|1|003|Ashley|33.2953952|-91.9501328|04/30/1980|
57124|Minorca|Populated Place|46070|U6|||05|AR|1|121|Randolph|36.4942279|-90.8462325|04/30/1980|
57126|Moko|Populated Place|46340|U6|2672|052672049|05|AR|1|049|Fulton|36.467564|-91.8398707|04/30/1980|
57127|Morris|Populated Place|47000|U6|||05|AR|1|099|Nevada|33.6701137|-93.2465565|04/30/1980|
57128|Mount Moriah|Populated Place|47740|U6|||05|AR|1|099|Nevada|33.6387265|-93.3143366|04/30/1980|
57129|Mount Olive|Populated Place|47780|U6|||05|AR|1|011|Bradley|33.4290025|-92.0590255|04/30/1980|
57130|Mount Olive|Populated Place|47825|U6|||05|AR|1|111|Poinsett|35.4825828|-90.4128795|04/30/1980|
57131|Mount Pleasant|Populated Place|47920|U6|||05|AR|1|099|Nevada|33.4587328|-93.4937874|04/30/1980|
57133|Mozart|Populated Place|48110|U6|||05|AR|1|041|Desha|34.0148267|-91.1098345|04/30/1980|
57134|Nasco|Populated Place|48525|U6|||05|AR|1|065|Izard|35.964239|-91.98515|04/30/1980|
57135|Needmore|Populated Place|48815|U6|||05|AR|1|065|Izard|36.040904|-91.6912538|04/30/1980|
57136|New Hope|Populated Place|49300|U6|||05|AR|1|039|Dallas|33.8959364|-92.7979415|04/30/1980|
57137|Nogal|Populated Place|49920|U6|||05|AR|1|105|Perry|35.0759188|-92.5673826|04/30/1980|
57138|North Bingen|Populated Place|50120|U6|||05|AR|1|057|Hempstead|33.9881675|-93.7879602|04/30/1980|
57139|O'Donnell Bend|Populated Place|51320|U6|||05|AR|1|093|Mississippi|35.797021|-89.8034156|04/30/1980|03/22/2011
57141|Old Lapile|Populated Place|51750|U6|||05|AR|1|139|Union|33.0687387|-92.2473604|04/30/1980|
57143|Orlando|Populated Place|52520|U6|||05|AR|1|025|Cleveland|33.7198283|-92.1412534|04/30/1980|
57144|Orton|Populated Place|52535|U6|||05|AR|1|081|Little River|33.6462319|-93.92352|04/30/1980|
57145|Ott|Populated Place|52610|U6|||05|AR|1|049|Fulton|36.4983333|-92.0786111|04/30/1980|03/08/2007
57145|Ott|Populated Place|52610|U6|||29|MO|2|091|Howell|36.4983333|-92.0786111|04/30/1980|03/08/2007
57146|Otto|Populated Place|52640|U6|||05|AR|1|045|Faulkner|35.0295314|-92.1926494|04/30/1980|
57147|Owens|Populated Place|52835|U6|||05|AR|1|027|Columbia|33.0254166|-93.0546071|04/30/1980|
57148|Pankov|Populated Place|53285|U6|||05|AR|1|081|Little River|33.704562|-94.339924|04/30/1980|
57149|Pansy|Populated Place|53300|U6|||05|AR|1|025|Cleveland|33.8220481|-92.0029164|04/30/1980|
57151|Parma|Populated Place|53720|U6|||05|AR|1|137|Stone|35.7192432|-92.1790417|04/30/1980|
57152|Paroquet|Populated Place|53790|U6|||05|AR|1|063|Independence|35.6745226|-91.363742|04/30/1980|
57153|Pastoria|Populated Place|53870|U6|||05|AR|1|069|Jefferson|34.358152|-92.0401416|04/30/1980|
57154|Paup|Populated Place|54040|U6|||05|AR|1|091|Miller|33.5020679|-93.9426863|04/30/1980|
57155|Pettus|Populated Place|54800|U6|||05|AR|1|085|Lonoke|34.6773144|-91.9126385|04/30/1980|
57156|Plainfield|Populated Place|55910|U6|||05|AR|1|027|Columbia|33.0479135|-93.3187804|04/30/1980|
57157|Plantersville|Populated Place|56010|U6|||05|AR|1|043|Drew|33.7670495|-91.88069|04/30/1980|
57158|Pleasant Hill|Populated Place|56105|U6|||05|AR|1|029|Conway|35.3850795|-92.5871047|04/30/1980|
57159|Pleasant Ridge|Populated Place|56285|U6|||05|AR|1|015|Carroll|36.4817354|-93.6440798|04/30/1980|
57160|Pleasant Valley|Populated Place|56330|U6|||05|AR|1|073|Lafayette|33.1087431|-93.8126785|04/30/1980|
57161|Poping|Populated Place|56675|U6|||05|AR|1|047|Franklin|35.452864|-93.889643|04/30/1980|
57164|Prosperity|Populated Place|57640|U6|||05|AR|1|149|Yell|35.1567534|-93.165454|04/30/1980|
57165|Rea Valley|Populated Place|58460|U6|||05|AR|1|089|Marion|36.2211806|-92.5412736|04/30/1980|
57166|Red Oak|Populated Place|58700|U6|||05|AR|1|051|Garland|34.4203679|-93.021288|04/30/1980|
57167|Red Springs|Populated Place|58760|U6|||05|AR|1|019|Clark|33.9023249|-93.0643359|04/30/1980|
57168|Ritchie|Populated Place|59510|U6|||05|AR|1|139|Union|33.2862368|-92.5418178|04/30/1980|
57169|Roark|Populated Place|59735|U6|||05|AR|1|003|Ashley|33.3617826|-91.8201298|04/30/1980|
57170|Rockhouse|Populated Place|59930|U6|||05|AR|1|087|Madison|36.2820169|-93.6729692|04/30/1980|
57171|Rocky Mound|Populated Place|60260|U6|||05|AR|1|027|Columbia|33.1409655|-93.364893|04/30/1980|
57172|Rosa|Populated Place|60710|U6|||05|AR|1|093|Mississippi|35.7695213|-89.849806|04/30/1980|
57173|Roseville|Populated Place|60950|U6|||05|AR|1|083|Logan|35.3825868|-93.7754737|04/30/1980|
57174|Rush|Populated Place|61580|U6|||05|AR|1|089|Marion|36.1331269|-92.5709962|04/30/1980|
57175|Rye|Populated Place|61730|U5|||05|AR|1|025|Cleveland|33.7462165|-91.997916|04/30/1980|01/29/2011
57176|Saginaw|Populated Place|61910|U6|||05|AR|1|059|Hot Spring|34.3003698|-92.9362837|04/30/1980|
57177|Saint Vincent|Populated Place|62090|U6|||05|AR|1|029|Conway|35.3011921|-92.731553|04/30/1980|
57178|Salem|Populated Place|62165|U6|||05|AR|1|103|Ouachita|33.6909428|-92.6573815|04/30/1980|
57179|Sayre|Populated Place|62720|U6|||05|AR|1|103|Ouachita|33.7520528|-93.0921108|04/30/1980|
57180|Scipio|Populated Place|62830|U6|||05|AR|1|043|Drew|33.396226|-91.7940182|04/30/1980|
57181|Screeton|Populated Place|62990|U6|||05|AR|1|117|Prairie|34.781481|-91.6673555|04/30/1980|
57182|Seba|Populated Place|63095|U6|||05|AR|1|007|Benton|36.3728545|-94.29382|04/30/1980|
57183|Self|Populated Place|63125|U6|||05|AR|1|009|Boone|36.3981233|-93.108233|04/30/1980|
57184|Selma|Populated Place|63140|U6|||05|AR|1|043|Drew|33.6973297|-91.5676252|04/30/1980|
57185|Shady Grove|Populated Place|63230|U6|||05|AR|1|071|Johnson|35.4628618|-93.5240752|04/30/1980|
57186|Shady Grove|Populated Place|63190|U6|||05|AR|1|005|Baxter|36.2514572|-92.3793254|04/30/1980|
57187|Sheppard Point|Populated Place|63695|U6|||05|AR|1|001|Arkansas|34.1912127|-91.2117837|04/30/1980|
57188|Shiloh|Populated Place|63920|U6|||05|AR|1|073|Lafayette|33.388735|-93.4598971|04/30/1980|
57189|Shuler|Populated Place|64190|U6|||05|AR|1|139|Union|33.1787431|-92.9015508|04/30/1980|
57190|Siedenstricker|Populated Place|64325|U6|||05|AR|1|117|Prairie|34.7284273|-91.5529088|04/30/1980|
57191|Simmons|Populated Place|64440|U6|||05|AR|1|063|Independence|35.8061872|-91.7229193|04/30/1980|
57192|Skaggs|Populated Place|64535|U6|||05|AR|1|121|Randolph|36.2378445|-90.9073418|04/30/1980|
57193|Sorrells|Populated Place|65195|U6|||05|AR|1|069|Jefferson|34.1609318|-92.0659752|04/30/1980|
57194|Sprudel|Populated Place|66245|U6|||05|AR|1|057|Hempstead|33.616509|-93.7665705|04/30/1980|
57195|Stimson|Populated Place|67025|U6|||05|AR|1|041|Desha|34.0295494|-91.0731669|04/30/1980|
57196|Stuart|Populated Place|67400|U6|||05|AR|1|135|Sharp|36.263956|-91.5184729|04/30/1980|
57197|Sulphur Springs|Populated Place|67820|U6|||05|AR|1|071|Johnson|35.4775839|-93.5640765|04/30/1980|
57199|Sumpter|Populated Place|67970|U6|||05|AR|1|011|Bradley|33.4856673|-92.0493035|04/30/1980|
57200|Sunshine|Populated Place|68120|U6|||05|AR|1|003|Ashley|33.1870653|-91.5295651|04/30/1980|
57201|Sweden|Populated Place|68300|U6|||05|AR|1|069|Jefferson|34.1931538|-91.7242961|04/30/1980|
57202|Sycamore|Populated Place|68375|U6|||05|AR|1|009|Boone|36.4450671|-92.9604518|04/30/1980|
57203|Tates Bluff|Populated Place|68645|U6|||05|AR|1|103|Ouachita|33.7989946|-92.9009982|04/30/1980|
57204|Temperanceville|Populated Place|68700|U6|||05|AR|1|061|Howard|33.9703912|-93.8829636|04/30/1980|
57205|Thiel|Populated Place|68960|U6|||05|AR|1|053|Grant|34.2453736|-92.6159944|04/30/1980|
57206|Thomasville|Populated Place|68975|U6|||05|AR|1|077|Lee|34.7459308|-90.9340055|04/30/1980|
57207|Thompson|Populated Place|68985|U6|||05|AR|1|087|Madison|35.921746|-93.9463085|04/30/1980|
57208|Tide Water|Populated Place|69180|U6|||05|AR|1|027|Columbia|33.2145745|-93.1398879|04/30/1980|
57209|Toad Suck|Populated Place|69375|U6|||05|AR|1|105|Perry|35.0756411|-92.5598824|04/30/1980|
57210|Toledo|Populated Place|69470|U6|||05|AR|1|025|Cleveland|33.9264908|-92.1612553|04/30/1980|
57211|Tollville|Populated Place|69530|U6|||05|AR|1|117|Prairie|34.7198164|-91.5354084|04/30/1980|
57212|Tomahawk|Populated Place|69590|U6|||05|AR|1|129|Searcy|36.060629|-92.7065541|04/30/1980|
57213|Trace|Populated Place|69780|U6|||05|AR|1|019|Clark|33.8370487|-92.9521109|04/30/1980|
57214|Trafalgar|Populated Place|69790|U6|||05|AR|1|003|Ashley|33.3542831|-91.5951239|04/30/1980|
57215|Turkey|Populated Place|70355|U6|||05|AR|1|089|Marion|36.244515|-92.7637783|04/30/1980|
57216|Tuttle|Populated Place|70460|U6|||05|AR|1|143|Washington|36.0336896|-93.9724203|04/30/1980|
57217|Urbanette|Populated Place|71210|U6|3926|053926015|05|AR|1|015|Carroll|36.4197904|-93.5335212|04/30/1980|
57218|Vaden|Populated Place|71255|U6|||05|AR|1|019|Clark|33.8720476|-92.9371111|04/30/1980|
57219|Van|Populated Place|71450|U6|3929|053929001|05|AR|1|001|Arkansas|34.326767|-91.2342858|04/30/1980|
57220|Varner|Populated Place|71600|U6|||05|AR|1|079|Lincoln|34.0384335|-91.6190155|04/30/1980|
57221|Vick|Populated Place|71870|U6|||05|AR|1|011|Bradley|33.3287285|-92.1056925|04/30/1980|
57222|Vidette|Populated Place|71920|U6|||05|AR|1|049|Fulton|36.4272872|-92.1184878|04/30/1980|
57223|Village Junction|Populated Place|71945|U6|||05|AR|1|027|Columbia|33.2492953|-93.0509979|04/30/1980|
57224|Vineyard|Populated Place|72080|U6|||05|AR|1|077|Lee|34.6578765|-90.8701144|04/30/1980|
57226|Walker|Populated Place|72440|U6|||05|AR|1|145|White|35.1220314|-91.6895803|04/30/1980|
57227|Walkerville|Populated Place|72500|U6|||05|AR|1|027|Columbia|33.0895786|-93.3140581|04/30/1980|
57228|Walnut Corner|Populated Place|72590|U6|||05|AR|1|055|Greene|36.0403479|-90.7756703|04/30/1980|
57229|Walnut Grove|Populated Place|72680|U6|||05|AR|1|063|Independence|35.8370196|-91.3859658|04/30/1980|
57230|Walnut Ridge|Populated Place|72875|U6|||05|AR|1|053|Grant|34.40204|-92.2376491|04/30/1980|
57231|Warner|Populated Place|73280|U6|||05|AR|1|103|Ouachita|33.6381673|-92.7976622|04/30/1980|
57232|Waterloo|Populated Place|73460|U6|4045|054045099|05|AR|1|099|Nevada|33.5431739|-93.2460019|04/30/1980|
57233|Wave|Populated Place|73650|U6|||05|AR|1|039|Dallas|34.0275999|-92.688495|04/30/1980|
57234|Westville|Populated Place|74750|U6|||05|AR|1|033|Crawford|35.4203668|-94.2585432|04/30/1980|
57235|Whitehall|Populated Place|75235|U6|||05|AR|1|149|Yell|35.1486968|-92.9971159|04/30/1980|
57236|Winington|Populated Place|76170|U6|||05|AR|1|009|Boone|36.3559021|-92.9076719|04/30/1980|
57237|Witherspoon|Populated Place|76370|U6|||05|AR|1|059|Hot Spring|34.1589833|-92.9890616|04/30/1980|
57237|Witherspoon|Populated Place|76370|U6|||05|AR|2|019|Clark|34.1589833|-92.9890616|04/30/1980|
57239|Wye|Populated Place|77030|U6|||05|AR|1|119|Pulaski|34.9392552|-92.6418296|04/30/1980|
57239|Wye|Populated Place|77030|U6|||05|AR|2|105|Perry|34.9392552|-92.6418296|04/30/1980|
57240|Wyman|Populated Place|77060|U6|||05|AR|1|143|Washington|36.0750786|-94.0693679|04/30/1980|
57241|Wyola|Populated Place|77120|U6|||05|AR|1|143|Washington|35.8789691|-94.047145|04/30/1980|07/26/2010
57242|Yancopin|Populated Place|77180|U6|||05|AR|1|041|Desha|33.9406595|-91.2187264|04/30/1980|
57243|Youngstown|Populated Place|77500|U6|||05|AR|1|043|Drew|33.4234474|-91.7937405|04/30/1980|
57244|Yukon|Populated Place|77510|U6|||05|AR|1|041|Desha|33.7970498|-91.4790119|04/30/1980|
57247|Ada|Populated Place|00220|U6|||05|AR|1|029|Conway|35.1070303|-92.8735019|04/30/1980|
57250|Aetna|Populated Place|00290|U6|||05|AR|1|031|Craighead|35.9297944|-90.5548304|04/30/1980|
57251|Airport Village|Populated Place|00415|U6|||05|AR|1|067|Jackson|35.6378568|-91.1951262|04/30/1980|
57252|Alabam|Populated Place|00430|U6|||05|AR|1|087|Madison|36.1525747|-93.6813021|04/30/1980|
57254|Alexander|Populated Place|00580|P1|0020|050020119|05|AR|1|119|Pulaski|34.6295373|-92.4412674|04/30/1980|03/20/2008
57254|Alexander|Populated Place|00580|P1|0020|050020125|05|AR|2|125|Saline|34.6295373|-92.4412674|04/30/1980|03/20/2008
57257|Algoa|Populated Place|00670|U6|0030|050030067|05|AR|1|067|Jackson|35.505915|-91.1167899|04/30/1980|
57259|Allendale|Populated Place|00835|U6|||05|AR|1|095|Monroe|34.8103727|-91.266515|04/30/1980|
57260|Almond|Populated Place|01000|U6|||05|AR|1|023|Cleburne|35.6959109|-91.7984762|04/30/1980|
57261|Alto|Populated Place|01180|U6|||05|AR|1|111|Poinsett|35.5700808|-90.3312105|04/30/1980|
57262|Amagon|Populated Place|01270|P1|0100|050100067|05|AR|1|067|Jackson|35.5620249|-91.1104012|04/30/1980|03/20/2008
57263|Amanca|Populated Place|01300|U6|||05|AR|1|035|Crittenden|35.1084253|-90.2298176|04/30/1980|
57264|Ames|Populated Place|01345|U6|||05|AR|1|099|Nevada|33.574839|-93.2171124|04/30/1980|
57265|Anderson Tully|Populated Place|01405|U6|||05|AR|1|111|Poinsett|35.4853602|-90.6017746|04/30/1980|
57266|Andrews|Populated Place|01410|U6|||05|AR|1|145|White|35.1839757|-91.5681885|04/30/1980|
57269|Annieville|Populated Place|01420|U6|||05|AR|1|075|Lawrence|36.1550692|-91.2404081|04/30/1980|
57271|Antioch|Populated Place|01470|U6|||05|AR|1|059|Hot Spring|34.311758|-92.9868413|04/30/1980|
57272|Antioch|Populated Place|01510|U6|||05|AR|1|145|White|35.1356413|-91.9170871|04/30/1980|
57273|Antioch|Populated Place|01460|U6|||05|AR|1|031|Craighead|35.9295166|-90.5770532|04/30/1980|
57274|Apalco|Populated Place|01570|U6|||05|AR|1|073|Lafayette|33.3584581|-93.4601747|04/30/1980|
57276|Apt|Populated Place|01690|U6|||05|AR|1|031|Craighead|35.7742429|-90.6723337|04/30/1980|
57278|Armorel|Populated Place|02230|U6|0152|050152093|05|AR|1|093|Mississippi|35.9200742|-89.7981381|04/30/1980|
57280|Armstrong|Populated Place|02260|U6|||05|AR|1|135|Sharp|36.3728428|-91.3173561|04/30/1980|
57281|Arnett|Populated Place|02305|U6|||05|AR|1|143|Washington|35.8950801|-94.0396447|04/30/1980|
57282|Artesian|Populated Place|02320|U6|||05|AR|1|013|Calhoun|33.4017865|-92.46904|04/30/1980|
57285|Athelstan|Populated Place|02530|U6|||05|AR|1|093|Mississippi|35.6981333|-90.178428|04/30/1980|
57286|Atlanta|Populated Place|02620|U6|||05|AR|1|027|Columbia|33.1187457|-93.0526635|04/30/1980|
57287|Attica|Populated Place|02650|U6|||05|AR|1|121|Randolph|36.3508983|-90.9954015|04/30/1980|
57289|Atwood|Populated Place|02665|U6|||05|AR|1|061|Howard|34.0984459|-94.072695|04/30/1980|
57290|Aubrey|Populated Place|02680|P1|0192|050192077|05|AR|1|077|Lee|34.7167646|-90.9003932|04/30/1980|03/20/2008
57291|Augsburg|Populated Place|02710|U6|||05|AR|1|115|Pope|35.4145271|-93.2382324|04/30/1980|
57293|Aurelle|Populated Place|02770|U6|||05|AR|1|139|Union|33.0481871|-92.4057003|04/30/1980|
57294|Aurora|Populated Place|02800|U6|||05|AR|1|087|Madison|35.9972994|-93.7026908|04/30/1980|
57295|Auvergne|Populated Place|02920|U6|||05|AR|1|067|Jackson|35.5136926|-91.2306821|04/30/1980|
57296|Avery|Populated Place|02980|U6|||05|AR|1|079|Lincoln|33.9298243|-91.6570721|04/30/1980|
57297|B B Junction|Populated Place|04285|U6|||05|AR|1|097|Montgomery|34.5814875|-91.1048417|04/30/1980|
57298|Bailey|Populated Place|03145|U6|||05|AR|1|063|Independence|35.541469|-91.4959667|04/30/1980|
57301|Baker|Populated Place|03160|U6|||05|AR|1|073|Lafayette|33.464844|-93.5460106|04/30/1980|
57302|Baker|Populated Place|03220|U6|||05|AR|1|135|Sharp|36.2806225|-91.4140254|04/30/1980|
57305|Baker Hollow|Populated Place|03235|U6|||05|AR|1|129|Searcy|35.9347975|-92.7107206|04/30/1980|
57306|Balch|Populated Place|03250|U6|0215|050215067|05|AR|1|067|Jackson|35.5317479|-91.0656775|04/30/1980|
57317|Baldwin|Populated Place|03340|U4|||05|AR|1|143|Washington|36.0484125|-94.0968688|04/30/1980|
57319|Ballard|Populated Place|03370|U6|||05|AR|1|135|Sharp|36.2350673|-91.6687546|04/30/1980|
57322|Band Mill|Populated Place|03400|U6|||05|AR|1|065|Izard|36.1336801|-91.9790395|04/30/1980|
57324|Banner|Populated Place|03460|U6|0232|050232023|05|AR|1|023|Cleburne|35.6417446|-91.8315327|04/30/1980|
57326|Barber|Populated Place|03520|U6|0233|050233083|05|AR|1|083|Logan|35.1284276|-94.0535391|04/30/1980|
57327|Bard|Populated Place|03550|U6|||05|AR|1|055|Greene|36.0745126|-90.377047|04/30/1980|
57328|Bardstown|Populated Place|03580|U6|||05|AR|1|093|Mississippi|35.5356372|-90.1600935|04/30/1980|
57329|Barkada|Populated Place|03630|U6|||05|AR|1|043|Drew|33.6731628|-91.9023565|04/30/1980|
57330|Barling|Populated Place|03640|P1|0235|050235131|05|AR|1|131|Sebastian|35.325647|-94.3016006|04/30/1980|03/20/2008
57331|Barney|Populated Place|03700|U6|||05|AR|1|045|Faulkner|35.2517499|-92.2068171|04/30/1980|
57332|Barringer|Populated Place|03760|U6|||05|AR|1|019|Clark|33.8481612|-93.1340575|04/30/1980|
57333|Barson|Populated Place|03775|U6|||05|AR|1|147|Woodruff|35.1514783|-91.0731769|04/30/1980|
57334|Barton|Populated Place|03790|U6|0234|050234107|05|AR|1|107|Phillips|34.5476004|-90.7681675|04/30/1980|
57335|Base Line|Populated Place|03865|U6|||05|AR|1|119|Pulaski|34.6681483|-92.3179295|04/30/1980|
57336|Bashe|Populated Place|04525|U6|||05|AR|1|131|Sebastian|35.312593|-94.4343825|04/30/1980|
57336|Bashe|Populated Place|04525|U6|||40|OK|2|079|Le Flore|35.312593|-94.4343825|04/30/1980|
57337|Bassett|Populated Place|03940|P1|0236|050236093|05|AR|1|093|Mississippi|35.5364705|-90.1267592|04/30/1980|03/20/2008
57339|Batavia|Populated Place|03970|U6|||05|AR|1|009|Boone|36.2550706|-93.2226797|04/30/1980|
57341|Battlefield|Populated Place|04045|U6|||05|AR|1|057|Hempstead|33.5934531|-93.6885132|04/30/1980|
57342|Bauxite|Populated Place|04090|P1|0260|050260125|05|AR|1|125|Saline|34.5556489|-92.5212702|04/30/1980|03/20/2008
57343|Bauxite Junction|Populated Place|04120|U6|||05|AR|1|125|Saline|34.5850931|-92.5157145|04/30/1980|
57345|Beacon Addition|Populated Place|04315|U6|||05|AR|1|007|Benton|36.3334071|-93.9985333|04/30/1980|
57346|Bear Creek Springs|Populated Place|04390|U6|||05|AR|1|009|Boone|36.2975697|-93.1832345|04/30/1980|
57350|Beaton|Populated Place|04470|U6|||05|AR|1|059|Hot Spring|34.3053712|-93.2615685|04/30/1980|
57351|Beaver|Populated Place|04540|P1|0284|050284015|05|AR|1|015|Carroll|36.4736816|-93.7674166|04/30/1980|03/20/2008
57352|Beaver Shores|Populated Place|04555|U6|||05|AR|1|007|Benton|36.322852|-94.0193671|04/30/1980|
57353|Beech Grove|Populated Place|04675|U6|||05|AR|1|039|Dallas|33.8131608|-92.4484871|04/30/1980|
57354|Bell City|Populated Place|04870|U6|||05|AR|1|021|Clay|36.2878413|-90.1220404|04/30/1980|
57356|Bellville|Populated Place|05035|U6|||05|AR|1|009|Boone|36.4672886|-93.0590655|04/30/1980|
57357|Belview|Populated Place|05100|U6|||05|AR|1|065|Izard|36.0903476|-91.9195934|04/30/1980|
57358|Bengel|Populated Place|05212|U6|||05|AR|1|067|Jackson|35.4525824|-91.3231841|04/30/1980|
57360|Benzal|Populated Place|05365|U6|||05|AR|1|001|Arkansas|33.9989927|-91.1615027|04/30/1980|
57360|Benzal|Populated Place|05365|U6|||05|AR|2|041|Desha|33.9989927|-91.1615027|04/30/1980|
57361|Berger|Populated Place|05410|U6|||05|AR|1|119|Pulaski|34.6628706|-92.3079292|04/30/1980|
57362|Bernice|Populated Place|05500|U6|||05|AR|1|115|Pope|35.2500844|-93.1296187|04/30/1980|
57363|Bertig|Populated Place|05575|U6|||05|AR|1|055|Greene|36.0711794|-90.3309344|04/30/1980|
57364|Bethel|Populated Place|05660|U6|||05|AR|1|019|Clark|34.0195461|-93.2876742|04/30/1980|
57365|Bethel|Populated Place|05695|U6|||05|AR|1|115|Pope|35.2489731|-93.1090627|04/30/1980|
57366|Bethel|Populated Place|05680|U6|||05|AR|1|055|Greene|35.9878485|-90.5292742|04/30/1980|
57367|Bethesda|Populated Place|05770|U6|||05|AR|1|063|Independence|35.7914651|-91.7884764|04/30/1980|
57368|Bethlehem|Populated Place|05785|U6|||05|AR|1|029|Conway|35.2836919|-92.5876603|04/30/1980|
57371|Bexar|Populated Place|05860|U6|0357|050357049|05|AR|1|049|Fulton|36.2867328|-91.9957071|04/30/1980|
57372|Biddle|Populated Place|05875|U6|||05|AR|1|119|Pulaski|34.7195367|-92.2593161|04/30/1980|
57373|Big Hill|Populated Place|06055|U6|||05|AR|1|013|Calhoun|33.6656649|-92.4154298|04/30/1980|
57375|Big Rock|Populated Place|06110|U6|||05|AR|1|131|Sebastian|35.1745388|-94.2782672|04/30/1980|
57380|Bingen|Populated Place|06220|U6|||05|AR|1|057|Hempstead|33.9756677|-93.7840712|04/30/1980|
57382|Birdtown|Populated Place|06370|U6|||05|AR|1|029|Conway|35.3061916|-92.6076608|04/30/1980|
57383|Bismarck|Populated Place|06460|U6|0394|050394059|05|AR|1|059|Hot Spring|34.3162035|-93.1707339|04/30/1980|
57385|Black Diamond|Populated Place|06505|U6|||05|AR|1|091|Miller|33.1359646|-93.9099027|04/30/1980|
57389|Blackville|Populated Place|06820|U6|||05|AR|1|067|Jackson|35.4834154|-91.1648467|04/30/1980|
57391|Blanton|Populated Place|06985|U6|||05|AR|1|035|Crittenden|35.1748122|-90.1664828|04/30/1980|
57394|Bloomer|Populated Place|07060|U6|0435|050435131|05|AR|1|131|Sebastian|35.2939802|-94.1388182|04/30/1980|
57395|Bloomfield|Populated Place|07075|U6|||05|AR|1|007|Benton|36.2761909|-94.5382735|04/30/1980|
57397|Blue Hill|Populated Place|07180|U6|||05|AR|1|119|Pulaski|34.8720342|-92.3451532|04/30/1980|
57402|Blytheville|Populated Place|07330|P1|0450|050450093|05|AR|1|093|Mississippi|35.9272953|-89.9189754|04/30/1980|03/20/2008
57405|Bolding|Populated Place|07480|U6|||05|AR|1|139|Union|33.083738|-92.2293045|04/30/1980|
57406|Bonanza|Populated Place|07540|P1|0460|050460131|05|AR|1|131|Sebastian|35.2392614|-94.4260494|04/30/1980|03/20/2008
57408|Bono|Populated Place|07660|U6|||05|AR|1|045|Faulkner|35.2561922|-92.4762684|04/30/1980|
57409|Booker|Populated Place|07690|U6|||05|AR|1|119|Pulaski|34.796202|-92.1962587|04/30/1980|
57410|Boone|Populated Place|07700|U6|||05|AR|1|009|Boone|36.4736776|-93.021009|04/30/1980|
57412|Booster|Populated Place|07750|U6|||05|AR|1|129|Searcy|35.7495222|-92.6601638|04/30/1980|
57413|Boswell|Populated Place|07825|U6|||05|AR|1|019|Clark|34.0442675|-93.279341|04/30/1980|
57414|Botkinburg|Populated Place|07870|U6|||05|AR|1|141|Van Buren|35.6989667|-92.5171048|04/30/1980|
57415|Bowman|Populated Place|08005|U6|||05|AR|1|017|Chicot|33.454003|-91.3031709|04/30/1980|
57416|Bowman|Populated Place|08020|U6|||05|AR|1|031|Craighead|35.8231304|-90.4926064|04/30/1980|
57418|Box Springs|Populated Place|08095|U6|||05|AR|1|027|Columbia|33.2617948|-93.3682269|04/30/1980|
57420|Boyd|Populated Place|08140|U6|||05|AR|1|091|Miller|33.3417934|-93.9274056|04/30/1980|
57423|Boydsville|Populated Place|08200|U6|||05|AR|1|021|Clay|36.3342285|-90.3837152|04/30/1980|
57424|Boynton|Populated Place|08230|U6|||05|AR|1|093|Mississippi|35.9814596|-90.2484314|04/30/1980|
57427|Bragg City|Populated Place|08380|U6|||05|AR|1|103|Ouachita|33.6656661|-92.9859988|04/30/1980|
57428|Branch|Populated Place|08440|P1|0520|050520047|05|AR|1|047|Franklin|35.3056457|-93.953535|04/30/1980|03/20/2008
57431|Brewer|Populated Place|08620|U6|||05|AR|1|023|Cleburne|35.6700769|-92.1795971|04/30/1980|
57433|Briar|Populated Place|08650|U6|||05|AR|1|061|Howard|34.0878886|-93.8737987|04/30/1980|
57435|Briark|Populated Place|08680|U6|||05|AR|1|035|Crittenden|35.1467571|-90.1259263|04/30/1980|
57436|Brice|Populated Place|08725|U6|||05|AR|1|035|Crittenden|35.0842593|-90.2831523|04/30/1980|
57437|Brickeys|Populated Place|08740|U6|0540|050540077|05|AR|1|077|Lee|34.8606516|-90.5923277|04/30/1980|03/20/2008
57439|Brighton|Populated Place|08830|U6|||05|AR|1|055|Greene|36.0675684|-90.356213|04/30/1980|
57440|Brinkley|Populated Place|08950|P1|0550|050550095|05|AR|1|095|Monroe|34.8878719|-91.1945688|04/30/1980|03/20/2008
57441|Broad|Populated Place|09000|U6|||05|AR|1|011|Bradley|33.292896|-92.0743025|04/30/1980|
57442|Brockett|Populated Place|09010|U6|||05|AR|1|121|Randolph|36.3386761|-90.9428997|04/30/1980|
57444|Brockwell|Populated Place|09040|U6|0555|050555065|05|AR|1|065|Izard|36.1428466|-91.9265383|04/30/1980|
57445|Brookings|Populated Place|09070|U6|||05|AR|1|021|Clay|36.2850647|-90.7206695|04/30/1980|
57446|Brooks|Populated Place|09130|U6|||05|AR|1|125|Saline|34.5662046|-92.4476565|04/30/1980|
57451|Browns|Populated Place|09180|U6|||05|AR|1|035|Crittenden|35.0931473|-90.387044|04/30/1980|
57452|Brumley|Populated Place|09310|U6|||05|AR|1|045|Faulkner|35.0625859|-92.4259896|04/30/1980|
57454|Brushey Lake|Populated Place|09415|U6|||05|AR|1|111|Poinsett|35.4859154|-90.9134507|04/30/1980|
57458|Bryant|Populated Place|09445|U6|||05|AR|1|063|Independence|35.7417441|-91.6520834|04/30/1980|
57459|Bryant|Populated Place|09460|P1|0570|050570125|05|AR|1|125|Saline|34.5959265|-92.4890469|04/30/1980|03/20/2008
57460|Buckhorn|Populated Place|09535|U6|||05|AR|1|097|Montgomery|34.734264|-91.0498421|04/30/1980|
57460|Buckhorn|Populated Place|09535|U6|||05|AR|2|077|Lee|34.734264|-91.0498421|04/30/1980|
57461|Bucks Landing|Populated Place|09590|U6|||05|AR|1|117|Prairie|34.8706483|-91.4662411|04/30/1980|
57463|Buell|Populated Place|09625|U6|||05|AR|1|131|Sebastian|35.3031483|-94.3818809|04/30/1980|
57464|Buie|Populated Place|09730|U6|||05|AR|1|053|Grant|34.3520394|-92.5640488|04/30/1980|
57471|Bunney|Populated Place|09850|U6|||05|AR|1|031|Craighead|35.7225772|-90.3845466|04/30/1980|
57472|Burdette|Populated Place|09880|P1|0590|050590093|05|AR|1|093|Mississippi|35.8172976|-89.9392535|04/30/1980|03/20/2008
57473|Burks|Populated Place|09940|U6|||05|AR|1|001|Arkansas|34.3017657|-91.4023445|04/30/1980|
57475|Burnville|Populated Place|10030|U6|||05|AR|1|131|Sebastian|35.1887047|-94.1890979|04/30/1980|
57477|Burton Mill|Populated Place|10090|U6|||05|AR|1|073|Lafayette|33.1740192|-93.6351765|04/30/1980|
57478|Busch|Populated Place|10120|U6|0592|050592015|05|AR|1|015|Carroll|36.4642377|-93.8307518|04/30/1980|
57480|Bussey|Populated Place|10150|U6|||05|AR|1|027|Columbia|33.1556869|-93.4562846|04/30/1980|
57481|Butler|Populated Place|10180|U6|||05|AR|1|093|Mississippi|35.6117465|-89.9386977|04/30/1980|
57483|Butlerville|Populated Place|10210|U6|||05|AR|1|085|Lonoke|34.9759215|-91.8334725|04/30/1980|
57487|Cabot|Populated Place|10300|P1|0600|050600085|05|AR|1|085|Lonoke|34.974532|-92.0165336|04/30/1980|03/20/2008
57489|Cale|Populated Place|10480|P1|0609|050609099|05|AR|1|099|Nevada|33.6262263|-93.2404457|04/30/1980|03/20/2008
57490|Caledonia|Populated Place|10510|U6|||05|AR|1|139|Union|33.0556916|-92.6537661|04/30/1980|
57492|Calhoun|Populated Place|10540|U6|||05|AR|1|027|Columbia|33.2195743|-93.1546104|04/30/1980|
57493|Calhoun Junction|Populated Place|10560|U6|||05|AR|1|027|Columbia|33.2512397|-93.1482216|04/30/1980|
57494|Calion|Populated Place|10600|P1|0620|050620139|05|AR|1|139|Union|33.3290127|-92.5384853|04/30/1980|03/20/2008
57495|Camark|Populated Place|10705|U6|||05|AR|1|103|Ouachita|33.6323342|-92.7668284|04/30/1980|
57496|Cammack Village|Populated Place|10780|P1|0640|050640119|05|AR|1|119|Pulaski|34.7781471|-92.3490418|04/30/1980|03/20/2008
57497|Campbell Station|Populated Place|10900|P1|0649|050649067|05|AR|1|067|Jackson|35.6684117|-91.24485|04/30/1980|03/20/2008
57498|Canaan|Populated Place|10945|U6|||05|AR|1|077|Lee|34.8548174|-90.79289|04/30/1980|
57499|Canale|Populated Place|10990|U6|||05|AR|1|073|Lafayette|33.0667999|-93.814067|04/30/1980|
57500|Cane Creek|Populated Place|11050|U6|||05|AR|1|053|Grant|34.4431505|-92.3537643|04/30/1980|
57502|Caney|Populated Place|11170|U6|||05|AR|1|089|Marion|36.1050722|-92.6296083|04/30/1980|
57503|Cannon Creek|Populated Place|11305|U6|||05|AR|1|087|Madison|35.9048016|-93.9401972|04/30/1980|
57506|Capps|Populated Place|11320|U6|||05|AR|1|009|Boone|36.2356267|-93.1893454|04/30/1980|
57507|Capps City|Populated Place|11350|U6|||05|AR|1|091|Miller|33.0201341|-93.9765694|04/30/1980|
57508|Caraway|Populated Place|11410|P1|0650|050650031|05|AR|1|031|Craighead|35.7581319|-90.3223223|04/30/1980|03/20/2008
57510|Cargile|Populated Place|11485|U6|||05|AR|1|139|Union|33.1573541|-92.651822|04/30/1980|
57512|Carmi|Populated Place|11560|U6|||05|AR|1|093|Mississippi|35.8886841|-90.2731542|04/30/1980|
57513|Carnis|Populated Place|11605|U6|||05|AR|1|131|Sebastian|35.248148|-94.202987|04/30/1980|
57515|Carrol Corner|Populated Place|11635|U6|||05|AR|1|093|Mississippi|35.7286881|-90.1787059|04/30/1980|
57516|Carrollton|Populated Place|11710|U6|||05|AR|1|015|Carroll|36.2625706|-93.3218492|04/30/1980|
57517|Carryville|Populated Place|11740|U6|||05|AR|1|021|Clay|36.3422847|-90.1039845|04/30/1980|
57518|Carson Lake|Populated Place|11782|U6|||05|AR|1|093|Mississippi|35.6334126|-90.0423121|04/30/1980|
57519|Carthage|Populated Place|11830|P1|0670|050670039|05|AR|1|039|Dallas|34.0750994|-92.5554359|04/30/1980|03/20/2008
57520|Cary|Populated Place|11875|U6|||05|AR|1|031|Craighead|35.7200774|-90.6881673|04/30/1980|
57521|Casa|Populated Place|11890|P1|0680|050680105|05|AR|1|105|Perry|35.0228667|-93.047674|04/30/1980|03/20/2008
57523|Case|Populated Place|11900|U6|||05|AR|1|055|Greene|36.2081222|-90.7626146|04/30/1980|
57524|Casey|Populated Place|11910|U6|||05|AR|1|147|Woodruff|35.0462024|-91.1973469|04/30/1980|
57525|Cassidy|Populated Place|11995|U6|||05|AR|1|111|Poinsett|35.5834137|-90.4837159|04/30/1980|
57526|Catcher|Populated Place|12040|U6|||05|AR|1|033|Crawford|35.4075894|-94.2765994|04/30/1980|
57527|Catholic Point|Populated Place|12100|U6|||05|AR|1|029|Conway|35.3442466|-92.5529372|04/30/1980|
57528|Cavanaugh|Populated Place|12250|U4|||05|AR|1|131|Sebastian|35.3123151|-94.4257711|04/30/1980|
57531|Cavell|Populated Place|12320|U6|||05|AR|1|147|Woodruff|35.2600865|-91.2609595|04/30/1980|
57532|Center|Populated Place|12550|U6|||05|AR|1|135|Sharp|36.1497914|-91.5109716|04/30/1980|
57533|Center Hill|Populated Place|12610|U4|||05|AR|1|055|Greene|36.0597911|-90.5439967|04/30/1980|
57534|Centerville|Populated Place|12925|U6|||05|AR|1|067|Jackson|35.8117423|-91.2223501|04/30/1980|
57535|Centerville|Populated Place|12940|U6|0743|050743149|05|AR|1|149|Yell|35.1128655|-93.1687878|04/30/1980|
57536|Central|Populated Place|13000|U6|||05|AR|1|059|Hot Spring|34.2962041|-92.8529473|04/30/1980|
57537|Central|Populated Place|12985|U6|||05|AR|1|037|Cross|35.252032|-90.9337286|04/30/1980|
57538|Gepp|Populated Place|26470|U6|1496|051496049|05|AR|1|049|Fulton|36.3878433|-92.1043207|04/30/1980|
57540|Chatfield|Populated Place|13360|U6|0756|050756035|05|AR|1|035|Crittenden|35.005927|-90.3973217|04/30/1980|
57541|Chelford|Populated Place|13390|U6|||05|AR|1|093|Mississippi|35.5167489|-90.2367626|04/30/1980|
57542|Cherokee Village|Populated Place|13450|P1|0755|050755135|05|AR|1|135|Sharp|36.2978443|-91.515973|04/30/1980|03/20/2008
57542|Cherokee Village|Populated Place|13450|P1|0755|050755049|05|AR|2|049|Fulton|36.2978443|-91.515973|04/30/1980|03/20/2008
57543|Cherry Valley|Populated Place|13540|P1|0760|050760037|05|AR|1|037|Cross|35.4020287|-90.7531682|04/30/1980|03/20/2008
57546|Chidester|Populated Place|13750|P1|0780|050780103|05|AR|1|103|Ouachita|33.7023315|-93.0204437|04/30/1980|03/20/2008
57548|Choctaw|Populated Place|13930|U6|0787|050787141|05|AR|1|141|Van Buren|35.5275777|-92.4398796|04/30/1980|
57554|Clear Point|Populated Place|14180|U6|||05|AR|1|007|Benton|36.2956301|-94.0104778|04/30/1980|
57555|Clearwater|Populated Place|14195|U6|||05|AR|1|093|Mississippi|35.9234054|-90.2570426|04/30/1980|
57556|Clifty|Populated Place|14230|U6|0815|050815087|05|AR|1|087|Madison|36.2372964|-93.7963052|04/30/1980|
57558|Cloverdale|Populated Place|14380|U4|||05|AR|1|119|Pulaski|34.6731483|-92.3507085|04/30/1980|
57559|Clow|Populated Place|14410|U6|||05|AR|1|057|Hempstead|33.8898365|-93.7726819|04/30/1980|
57562|Cody|Populated Place|14560|U6|||05|AR|1|077|Lee|34.843985|-90.6398293|04/30/1980|
57563|Coffeeville|Populated Place|14590|U6|||05|AR|1|067|Jackson|35.4911924|-91.4004085|04/30/1980|
57565|Coin|Populated Place|14660|U6|||05|AR|1|015|Carroll|36.3303469|-93.3479611|04/30/1980|
57567|Coldwater|Populated Place|14665|U6|||05|AR|1|037|Cross|35.3645296|-90.5789956|04/30/1980|
57568|Cole|Populated Place|14670|U6|||05|AR|1|081|Little River|33.6509545|-93.9865777|04/30/1980|
57570|Coler|Populated Place|14690|U6|||05|AR|1|057|Hempstead|33.5748415|-93.5893447|04/30/1980|
57572|Collietown|Populated Place|14905|U6|||05|AR|1|063|Independence|35.8697964|-91.8309784|04/30/1980|
57574|Colona|Populated Place|14935|U6|||05|AR|1|147|Woodruff|35.1917548|-91.2356812|04/30/1980|
57575|Comet|Populated Place|15025|U6|||05|AR|1|081|Little River|33.684008|-94.2435318|04/30/1980|
57576|Compton|Populated Place|15070|U6|0853|050853101|05|AR|1|101|Newton|36.0967415|-93.3026808|04/30/1980|
57577|Concord|Populated Place|15115|U6|||05|AR|1|033|Crawford|35.4706435|-94.2577097|04/30/1980|
57578|Congo|Populated Place|15130|U6|||05|AR|1|125|Saline|34.6589811|-92.5873836|04/30/1980|
57579|Conner|Populated Place|15160|U6|||05|AR|1|015|Carroll|36.2411826|-93.4449081|04/30/1980|
57581|Cooleyville|Populated Place|15220|U6|||05|AR|1|109|Pike|34.0217775|-93.766849|04/30/1980|
57582|Copeland|Populated Place|15240|U6|||05|AR|1|141|Van Buren|35.6714669|-92.6365517|04/30/1980|
57585|Cosgrove|Populated Place|15475|U6|||05|AR|1|017|Chicot|33.3065063|-91.399562|04/30/1980|
57586|Cotton Belt|Populated Place|15505|U6|||05|AR|1|055|Greene|36.0931234|-90.461772|04/30/1980|
57587|Cotton Town|Populated Place|15580|U6|||05|AR|1|149|Yell|35.1131425|-93.053229|04/30/1980|
57588|Cottondale|Populated Place|15535|U6|||05|AR|1|069|Jefferson|34.1803761|-91.8604121|04/30/1980|
57589|Cottonwood Corner|Populated Place|15640|U6|||05|AR|1|093|Mississippi|35.7053554|-90.0534237|04/30/1980|
57590|Countiss|Populated Place|15685|U6|||05|AR|1|107|Phillips|34.2803818|-90.8781643|04/30/1980|
57591|Cove|Populated Place|15700|P1|0900|050900113|05|AR|1|113|Polk|34.4351068|-94.411325|04/30/1980|03/20/2008
57594|Cowan|Populated Place|15715|U6|||05|AR|1|089|Marion|36.1753489|-92.6462756|04/30/1980|
57595|Coy|Populated Place|15790|P1|0903|050903085|05|AR|1|085|Lonoke|34.5387058|-91.8740255|04/30/1980|03/20/2008
57596|Cozahome|Populated Place|15820|U6|0902|050902129|05|AR|1|129|Searcy|36.0450724|-92.5015503|04/30/1980|
57599|Crain City|Populated Place|15865|U6|||05|AR|1|139|Union|33.2676263|-92.5073711|04/30/1980|
57600|Craney|Populated Place|15895|U6|||05|AR|1|011|Bradley|33.5195561|-92.2245878|04/30/1980|
57602|Crawford|Populated Place|15925|U6|||05|AR|1|009|Boone|36.1767389|-92.9104487|04/30/1980|
57604|Crawfordsville|Populated Place|15940|P1|0910|050910035|05|AR|1|035|Crittenden|35.2250889|-90.3250983|04/30/1980|03/20/2008
57605|Creech|Populated Place|15955|U6|||05|AR|1|007|Benton|36.2264647|-94.0354781|04/30/1980|
57606|Creigh|Populated Place|15970|U6|||05|AR|1|095|Monroe|34.4456565|-91.000671|04/30/1980|
57606|Creigh|Populated Place|15970|U6|||05|AR|2|107|Phillips|34.4456565|-91.000671|04/30/1980|
57607|Crest|Populated Place|15980|U6|||05|AR|1|009|Boone|36.4833985|-93.205458|04/30/1980|
57608|Crittenden|Populated Place|16075|U6|||05|AR|1|035|Crittenden|35.2442546|-90.4556579|04/30/1980|
57609|Crockett|Populated Place|16120|U6|||05|AR|1|021|Clay|36.3758943|-90.3306586|04/30/1980|
57610|Crocketts Bluff|Populated Place|16150|U6|0915|050915001|05|AR|1|001|Arkansas|34.4439881|-91.2201202|04/30/1980|
57611|Cross Roads|Populated Place|16540|U6|||05|AR|1|103|Ouachita|33.4209539|-92.719049|04/30/1980|
57612|Crossett|Populated Place|16240|P1|0920|050920003|05|AR|1|003|Ashley|33.1281779|-91.9612427|04/30/1980|03/20/2008
57613|Crossroads|Populated Place|16270|U6|||05|AR|1|023|Cleburne|35.4648008|-92.2154305|04/30/1980|
57615|Crumrod|Populated Place|16630|U6|0922|050922107|05|AR|1|107|Phillips|34.148716|-90.9817766|04/30/1980|
57619|Cumi|Populated Place|16870|U6|||05|AR|1|005|Baxter|36.4064544|-92.183489|04/30/1980|
57620|Curtis|Populated Place|16900|U6|0935|050935019|05|AR|1|019|Clark|33.9978777|-93.105727|04/30/1980|
57621|Cypert|Populated Place|16960|U6|||05|AR|1|107|Phillips|34.4901005|-90.9562265|04/30/1980|
57622|Daggett|Populated Place|17120|U6|||05|AR|1|147|Woodruff|35.0342577|-91.3198497|04/30/1980|
57623|Dalton|Populated Place|17260|U6|0965|050965121|05|AR|1|121|Randolph|36.421175|-91.1415178|04/30/1980|
57625|Damascus|Populated Place|17275|U6|||05|AR|1|027|Columbia|33.2623502|-93.0182198|04/30/1980|
57631|Dearman|Populated Place|17700|U6|||05|AR|1|093|Mississippi|35.8725738|-90.0087004|04/30/1980|
57633|Deep Elm|Populated Place|17800|U6|||05|AR|1|017|Chicot|33.4912242|-91.3995634|04/30/1980|
57635|Degelow|Populated Place|17920|U6|||05|AR|1|031|Craighead|35.7442433|-90.3578791|04/30/1980|
57637|Delight|Populated Place|18100|P1|1030|051030109|05|AR|1|109|Pike|34.0314949|-93.502959|04/30/1980|03/20/2008
57638|Dell|Populated Place|18160|P1|1040|051040093|05|AR|1|093|Mississippi|35.8553519|-90.0417571|04/30/1980|03/20/2008
57639|Delpro|Populated Place|18220|U6|||05|AR|1|093|Mississippi|35.5523033|-90.0845355|04/30/1980|
57641|Denmark|Populated Place|18310|U6|||05|AR|1|067|Jackson|35.4842474|-91.5831913|04/30/1980|
57641|Denmark|Populated Place|18310|U6|||05|AR|2|145|White|35.4842474|-91.5831913|04/30/1980|
57642|Dennison Heights|Populated Place|18400|U6|||05|AR|1|063|Independence|35.7375774|-91.6393053|04/30/1980|
57644|Denton|Populated Place|18410|U6|||05|AR|1|075|Lawrence|36.095348|-91.2079066|04/30/1980|
57645|Denton Island|Populated Place|18415|U6|||05|AR|1|031|Craighead|35.7553543|-91.0301221|04/30/1980|
57646|Dermott|Populated Place|18520|P1|1070|051070017|05|AR|1|017|Chicot|33.52539|-91.4359538|04/30/1980|03/20/2008
57650|Dewey|Populated Place|18745|U6|||05|AR|1|017|Chicot|33.4742805|-91.2426132|04/30/1980|
57651|Dewey|Populated Place|18760|U6|||05|AR|1|145|White|35.4211925|-91.7581961|04/30/1980|
57652|Diamond City|Populated Place|18850|P1|1102|051102009|05|AR|1|009|Boone|36.464511|-92.9201731|04/30/1980|03/20/2008
57653|Diamond Grove|Populated Place|18865|U6|||05|AR|1|131|Sebastian|35.3120354|-94.1988198|04/30/1980|
57654|Diamondhead|Populated Place|18880|U6|||05|AR|1|059|Hot Spring|34.4398127|-92.9451742|04/30/1980|
57656|Dills Mills|Populated Place|19035|U6|||05|AR|1|099|Nevada|33.667891|-93.2048895|04/30/1980|
57657|Dimple|Populated Place|19050|U6|||05|AR|1|093|Mississippi|35.4684167|-90.2506519|04/30/1980|
57658|Dinsmore|Populated Place|19055|U6|||05|AR|1|101|Newton|36.1145189|-93.4735192|04/30/1980|
57660|Dixie|Populated Place|19120|U4|||05|AR|1|119|Pulaski|34.7642583|-92.2282039|04/30/1980|
57661|Dixie|Populated Place|19150|U6|||05|AR|1|147|Woodruff|35.0767566|-91.3631839|04/30/1980|
57662|Dixie|Populated Place|19105|U6|||05|AR|1|035|Crittenden|35.1731449|-90.4892696|04/30/1980|
57663|Dobell|Populated Place|19160|U6|||05|AR|1|111|Poinsett|35.682856|-90.5120509|04/30/1980|
57664|Dobyville|Populated Place|19165|U6|||05|AR|1|019|Clark|34.0120455|-93.2540619|04/30/1980|
57666|Doddridge|Populated Place|19180|U6|1114|051114091|05|AR|1|091|Miller|33.0917991|-93.9082356|04/30/1980|
57667|Dodge City|Populated Place|19195|U6|||05|AR|1|139|Union|33.019584|-92.9684943|04/30/1980|
57669|Dogwood|Populated Place|19300|U6|||05|AR|1|093|Mississippi|35.8922961|-89.9186975|04/30/1980|
57670|Dollar Junction|Populated Place|19330|U6|||05|AR|1|139|Union|33.0701267|-92.1879145|04/30/1980|
57671|Dolph|Populated Place|19390|U6|1116|051116065|05|AR|1|065|Izard|36.2284008|-92.1126532|04/30/1980|
57673|Donaldson|Populated Place|19450|P1|1117|051117059|05|AR|1|059|Hot Spring|34.2367597|-92.9235048|04/30/1980|03/20/2008
57674|Doniphan|Populated Place|19510|U6|||05|AR|1|145|White|35.2478631|-91.6695803|04/30/1980|
57675|Dora|Populated Place|19540|U6|||05|AR|1|033|Crawford|35.4542563|-94.4407704|04/30/1980|
57676|Dowdy|Populated Place|19660|U6|1135|051135063|05|AR|1|063|Independence|35.8517416|-91.3042971|04/30/1980|
57677|Drakes Creek|Populated Place|19690|U6|||05|AR|1|087|Madison|36.0206334|-93.8599172|04/30/1980|
57678|Driver|Populated Place|19780|U6|1138|051138093|05|AR|1|093|Mississippi|35.6123019|-90.0120333|04/30/1980|
57679|Dryden|Populated Place|19840|U6|1140|051140031|05|AR|1|031|Craighead|35.8342416|-90.9090073|04/30/1980|03/20/2008
57680|Dub|Populated Place|19885|U6|||05|AR|1|111|Poinsett|35.5223042|-90.3576|04/30/1980|
57682|Dugger|Populated Place|19975|U6|||05|AR|1|009|Boone|36.1259065|-92.9176708|04/30/1980|
57684|Dumas City|Populated Place|19995|U6|||05|AR|1|139|Union|33.2590174|-92.7551608|04/30/1980|
57686|Duncan|Populated Place|20000|U6|||05|AR|1|095|Monroe|34.6209305|-91.2512346|04/30/1980|
57687|Dunnington|Populated Place|20020|U6|||05|AR|1|063|Independence|35.6253567|-91.4287433|04/30/1980|
57688|Durham|Populated Place|20080|U6|1148|051148143|05|AR|1|143|Washington|35.9495238|-93.9804761|04/30/1980|
57690|Duvall|Populated Place|20185|U6|||05|AR|1|037|Cross|35.2084219|-90.5601055|04/30/1980|
57692|Eagle Mills|Populated Place|20260|U6|1165|051165103|05|AR|1|103|Ouachita|33.68261|-92.7046048|04/30/1980|
57693|East Camden|Populated Place|20440|P1|1180|051180103|05|AR|1|103|Ouachita|33.6078907|-92.7401611|04/30/1980|03/20/2008
57696|Eastview|Populated Place|20575|U6|||05|AR|1|093|Mississippi|35.7197994|-90.1264818|04/30/1980|
57697|Eaton|Populated Place|20605|U6|||05|AR|1|075|Lawrence|36.0400712|-91.2162399|04/30/1980|
57698|Economy|Populated Place|20710|U6|||05|AR|1|115|Pope|35.300082|-92.892946|04/30/1980|
57699|Eden|Populated Place|20740|U6|||05|AR|1|095|Monroe|34.8637051|-91.2745708|04/30/1980|
57700|Edgemont|Populated Place|20800|U6|1185|051185023|05|AR|1|023|Cleburne|35.6022995|-92.196264|04/30/1980|
57701|Edmondson|Populated Place|20830|P1|1190|051190035|05|AR|1|035|Crittenden|35.1064808|-90.3103753|04/30/1980|03/20/2008
57702|Edmonson (historical)|Populated Place|20835|U6|||05|AR|1|063|Independence|35.8911848|-91.816256|04/30/1980|
57707|Egypt|Populated Place|20920|P1|1195|051195031|05|AR|1|031|Craighead|35.8681298|-90.9456751|04/30/1980|03/20/2008
57708|Elba|Populated Place|20980|U6|||05|AR|1|141|Van Buren|35.7689662|-92.4459925|04/30/1980|
57709|Elberta|Populated Place|21040|U6|||05|AR|1|129|Searcy|35.850076|-92.5021052|04/30/1980|
57711|Elizabeth|Populated Place|21130|U6|1211|051211049|05|AR|1|049|Fulton|36.331455|-92.0959868|04/30/1980|
57712|Elkins Park|Populated Place|21205|U6|||05|AR|1|121|Randolph|36.4097855|-90.8992883|04/30/1980|
57713|Elliott|Populated Place|21250|U6|||05|AR|1|103|Ouachita|33.4573413|-92.8279401|04/30/1980|
57714|Ellis Chapel|Populated Place|21295|U6|||05|AR|1|037|Cross|35.1931444|-90.8995607|04/30/1980|
57716|Elm Grove|Populated Place|21370|U6|||05|AR|1|031|Craighead|35.728966|-90.4842726|04/30/1980|
57717|Elm Store|Populated Place|21460|U6|||05|AR|1|121|Randolph|36.480896|-91.1873529|04/30/1980|
57718|Elmwood|Populated Place|21475|U6|||05|AR|1|017|Chicot|33.4653917|-91.2831702|04/30/1980|
57719|Immanuel|Populated Place|34155|U6|||05|AR|1|001|Arkansas|34.4017656|-91.3226219|01/01/2000|
57720|Eminence|Populated Place|21595|U6|||05|AR|1|017|Chicot|33.2276191|-91.1892772|04/30/1980|
57721|Emon|Populated Place|21630|U6|||05|AR|1|027|Columbia|33.3545694|-93.2379457|04/30/1980|
57722|Empire|Populated Place|21640|U6|||05|AR|1|017|Chicot|33.1220666|-91.4353951|04/30/1980|
57723|Engelberg|Populated Place|21700|U6|||05|AR|1|121|Randolph|36.3378426|-90.9092876|04/30/1980|
57724|English|Populated Place|21790|U6|||05|AR|1|069|Jefferson|34.1767653|-91.6551276|04/30/1980|
57725|Enright|Populated Place|21850|U6|||05|AR|1|145|White|35.1545321|-91.5023533|04/30/1980|
57726|Enterprise|Populated Place|21880|U6|||05|AR|1|131|Sebastian|35.2656497|-94.4291049|04/30/1980|
57727|Erwin|Populated Place|21970|U6|||05|AR|1|067|Jackson|35.5620249|-91.2259599|04/30/1980|
57728|Estico|Populated Place|22045|U6|||05|AR|1|067|Jackson|35.6231349|-91.1134571|04/30/1980|
57729|Etowah|Populated Place|22120|P1|1267|051267093|05|AR|1|093|Mississippi|35.7289658|-90.2323188|04/30/1980|03/20/2008
57730|Euclid|Populated Place|22135|U6|||05|AR|1|061|Howard|34.1737218|-94.018527|04/30/1980|
57731|Eudora|Populated Place|22180|P1|1270|051270017|05|AR|1|017|Chicot|33.109566|-91.2620567|04/30/1980|03/20/2008
57733|Ewal|Populated Place|22465|U6|||05|AR|1|107|Phillips|34.365103|-90.8312207|04/30/1980|
57734|Experiment|Populated Place|22510|U6|||05|AR|1|027|Columbia|33.2026297|-93.4660073|04/30/1980|
57736|Fair Field|Populated Place|22585|U6|||05|AR|1|037|Cross|35.3270305|-90.8259478|04/30/1980|
57738|Fairfield Bay|Populated Place|22660|P1|1304|051304141|05|AR|1|141|Van Buren|35.5942441|-92.2779324|04/30/1980|03/20/2008
57738|Fairfield Bay|Populated Place|22660|P1|1304|051304023|05|AR|2|023|Cleburne|35.5942441|-92.2779324|04/30/1980|03/20/2008
57739|Fairview|Populated Place|22750|U6|||05|AR|1|017|Chicot|33.2837288|-91.2606685|04/30/1980|
57740|Fairview|Populated Place|22780|U6|||05|AR|1|039|Dallas|33.9731559|-92.8796111|04/30/1980|
57741|Fairview|Populated Place|22795|U6|||05|AR|1|049|Fulton|36.3097882|-91.8282034|04/30/1980|
57742|Falcon|Populated Place|22990|U6|||05|AR|1|099|Nevada|33.4645658|-93.4135071|04/30/1980|
57744|Fargo|Populated Place|23140|P1|1305|051305095|05|AR|1|095|Monroe|34.9514821|-91.1801241|04/30/1980|03/20/2008
57745|Felco|Populated Place|23310|U6|||05|AR|1|035|Crittenden|35.230644|-90.3992673|04/30/1980|
57746|Fendley|Populated Place|23410|U6|||05|AR|1|019|Clark|34.2323186|-93.3335124|04/30/1980|
57747|Fenter|Populated Place|23470|U6|||05|AR|1|053|Grant|34.3767608|-92.6376624|04/30/1980|
57748|Ferguson|Populated Place|23530|U6|||05|AR|1|107|Phillips|34.1381606|-90.9839987|04/30/1980|
57749|Ferndale|Populated Place|23620|U6|1313|051313119|05|AR|1|119|Pulaski|34.7789801|-92.5576604|04/30/1980|
57751|Fisher|Populated Place|23770|U6|||05|AR|1|031|Craighead|35.7806316|-90.9803984|04/30/1980|
57752|Fisher|Populated Place|23800|P1|1320|051320111|05|AR|1|111|Poinsett|35.4914709|-90.9742858|04/30/1980|03/20/2008
