FEATURE_ID|FEATURE_NAME|FEATURE_CLASS|CENSUS_CODE|CENSUS_CLASS_CODE|GSA_CODE|OPM_CODE|STATE_NUMERIC|STATE_ALPHA|COUNTY_SEQUENCE|COUNTY_NUMERIC|COUNTY_NAME|PRIMARY_LATITUDE|PRIMARY_LONGITUDE|DATE_CREATED|DATE_EDITED
454078|Abingdon|Populated Place|00145|U6|||19|IA|1|101|Jefferson|41.0822387|-92.1390672|04/30/1979|
454084|Ackley|Populated Place|00190|P1|0010|190010083|19|IA|1|083|Hardin|42.5541451|-93.0532553|04/30/1979|03/20/2008
454084|Ackley|Populated Place|00190|P1|0010|190010069|19|IA|2|069|Franklin|42.5541451|-93.0532553|04/30/1979|03/20/2008
454086|Ackworth|Populated Place|00235|P1|0020|190020181|19|IA|1|181|Warren|41.3669373|-93.4727131|04/30/1979|03/20/2008
454088|Adair|Populated Place|00370|P1|0030|190030077|19|IA|1|077|Guthrie|41.5005428|-94.6435862|04/30/1979|03/20/2008
454096|Adaza|Populated Place|00460|U6|||19|IA|1|073|Greene|42.1952593|-94.4944178|04/30/1979|
454097|Adel|Populated Place|00505|P1|0040|190040049|19|IA|1|049|Dallas|41.6144325|-94.017453|04/30/1979|03/20/2008
454101|Afton|Populated Place|00595|P1|0050|190050175|19|IA|1|175|Union|41.0274907|-94.1980083|04/30/1979|03/20/2008
454105|Agency|Populated Place|00640|P1|0060|190060179|19|IA|1|179|Wapello|40.9950162|-92.3068492|01/01/2000|03/20/2008
454107|Ainsworth|Populated Place|00730|P1|0070|190070183|19|IA|1|183|Washington|41.2889098|-91.5523838|04/30/1979|03/20/2008
454109|Akron|Populated Place|00775|P1|0080|190080149|19|IA|1|149|Plymouth|42.8288818|-96.5594773|04/30/1979|03/20/2008
454111|Albany|Populated Place|00835|U6|||19|IA|1|065|Fayette|42.8658141|-91.7587713|04/30/1979|
454112|Albaton|Populated Place|00850|U6|||19|IA|1|133|Monona|42.1855464|-96.2908592|04/30/1979|
454113|Albert City|Populated Place|00865|P1|0090|190090021|19|IA|1|021|Buena Vista|42.7819199|-94.9485993|04/30/1979|03/20/2008
454114|Albia|Populated Place|00910|P1|0100|190100135|19|IA|1|135|Monroe|41.0266746|-92.8057514|04/30/1979|03/20/2008
454115|Albion|Populated Place|00955|P1|0110|190110127|19|IA|1|127|Marshall|42.1124866|-92.9885339|04/30/1979|03/20/2008
454117|Alburnett|Populated Place|01000|P1|0120|190120113|19|IA|1|113|Linn|42.1483285|-91.6185065|04/30/1979|03/20/2008
454120|Alden|Populated Place|01045|P1|0130|190130083|19|IA|1|083|Hardin|42.5202571|-93.3760389|04/30/1979|03/20/2008
454123|Alexander|Populated Place|01090|P1|0140|190140069|19|IA|1|069|Franklin|42.8058039|-93.4765943|04/30/1979|03/20/2008
454126|Algona|Populated Place|01135|P1|0150|190150109|19|IA|1|109|Kossuth|43.0699663|-94.233019|04/30/1979|12/12/2014
454132|Alleman|Populated Place|01180|P1|0157|190157153|19|IA|1|153|Polk|41.8199875|-93.611607|01/01/2000|03/20/2008
454138|Allendorf|Populated Place|01225|U6|||19|IA|1|143|Osceola|43.4146902|-95.6433454|04/30/1979|
454140|Allerton|Populated Place|01270|P1|0160|190160185|19|IA|1|185|Wayne|40.7063954|-93.3652135|04/30/1979|03/20/2008
454143|Allison|Populated Place|01315|P1|0170|190170023|19|IA|1|023|Butler|42.7527548|-92.7951945|04/30/1979|03/20/2008
454149|Alpha|Populated Place|01450|U6|||19|IA|1|065|Fayette|42.9966431|-92.0476715|04/30/1979|
454152|Alta|Populated Place|01495|P1|0180|190180021|19|IA|1|021|Buena Vista|42.6735921|-95.290554|04/30/1979|03/20/2008
454153|Alta Vista|Populated Place|01540|P1|0190|190190037|19|IA|1|037|Chickasaw|43.1985819|-92.4171216|04/30/1979|03/20/2008
454157|Alton|Populated Place|01585|P1|0200|190200167|19|IA|1|167|Sioux|42.9874869|-96.0105735|04/30/1979|03/20/2008
454160|Altoona|Populated Place|01630|P1|0210|190210153|19|IA|1|153|Polk|41.6441557|-93.4646571|04/30/1979|03/20/2008
454161|Alvord|Populated Place|01675|P1|0220|190220119|19|IA|1|119|Lyon|43.3421993|-96.3011403|04/30/1979|03/20/2008
454162|Amana|Populated Place|01720|U5|0225|190225095|19|IA|1|095|Iowa|41.8000071|-91.8707335|04/30/1979|01/29/2011
454164|Amber|Populated Place|01765|U6|||19|IA|1|105|Jones|42.1280617|-91.1801535|04/30/1979|
454167|Ames|Populated Place|01855|P1|0230|190230169|19|IA|1|169|Story|42.0347081|-93.6199402|04/30/1979|12/06/2013
454170|Amish|Populated Place|01900|U6|||19|IA|1|103|Johnson|41.5358477|-91.7865601|04/30/1979|
454176|Anamosa|Populated Place|01990|P1|0240|190240105|19|IA|1|105|Jones|42.1083371|-91.2851594|04/30/1979|12/12/2014
454177|Anderson|Populated Place|02035|U5|||19|IA|1|071|Fremont|40.8013888|-95.6041625|04/30/1979|01/29/2011
454184|Andover|Populated Place|02080|P1|0250|190250045|19|IA|1|045|Clinton|41.9791933|-90.2517961|04/30/1979|03/20/2008
454187|Andrew|Populated Place|02125|P1|0260|190260097|19|IA|1|097|Jackson|42.1536292|-90.5923542|04/30/1979|03/20/2008
454191|Angus|Populated Place|02215|U6|||19|IA|1|015|Boone|41.8833178|-94.1574595|04/30/1979|
454192|Anita|Populated Place|02260|P1|0270|190270029|19|IA|1|029|Cass|41.445265|-94.7647015|04/30/1979|03/20/2008
454194|Ankeny|Populated Place|02305|P1|0280|190280153|19|IA|1|153|Polk|41.7297102|-93.6057734|04/30/1979|03/20/2008
454198|Anthon|Populated Place|02350|P1|0290|190290193|19|IA|1|193|Woodbury|42.3883232|-95.8666772|04/30/1979|03/20/2008
454209|Aplington|Populated Place|02395|P1|0300|190300023|19|IA|1|023|Butler|42.5841454|-92.8843642|04/30/1979|03/20/2008
454218|Arcadia|Populated Place|02485|P1|0310|190310027|19|IA|1|027|Carroll|42.0872073|-95.0461023|04/30/1979|03/20/2008
454224|Aredale|Populated Place|02620|P1|0330|190330023|19|IA|1|023|Butler|42.8330278|-93.0054745|04/30/1979|03/20/2008
454225|Argo|Populated Place|02665|U6|||19|IA|1|163|Scott|41.6258658|-90.4326322|04/30/1979|
454227|Argyle|Populated Place|02710|U6|0335|190335111|19|IA|1|111|Lee|40.5317073|-91.5662701|04/30/1979|
454228|Arion|Populated Place|02755|P1|0340|190340047|19|IA|1|047|Crawford|41.9491551|-95.4636115|04/30/1979|03/20/2008
454229|Arispe|Populated Place|02800|P1|0350|190350175|19|IA|1|175|Union|40.9494354|-94.2191198|04/30/1979|03/20/2008
454230|Arlington|Populated Place|02845|P1|0360|190360065|19|IA|1|065|Fayette|42.7491501|-91.6712664|04/30/1979|03/20/2008
454236|Armstrong|Populated Place|02935|P1|0370|190370063|19|IA|1|063|Emmet|43.3960697|-94.4783082|04/30/1979|03/20/2008
454240|Arnolds Park|Populated Place|03025|P1|0380|190380059|19|IA|1|059|Dickinson|43.3727408|-95.1238841|04/30/1979|03/20/2008
454245|Arthur|Populated Place|03115|P1|0390|190390093|19|IA|1|093|Ida|42.3347078|-95.3474969|04/30/1979|03/20/2008
454247|Asbury|Populated Place|03160|P1|0400|190400061|19|IA|1|061|Dubuque|42.5144462|-90.751516|04/30/1979|03/20/2008
454255|Ash Grove|Populated Place|03250|U6|||19|IA|1|051|Davis|40.87085|-92.5529663|04/30/1979|
454259|Ashton|Populated Place|03295|P1|0410|190410143|19|IA|1|143|Osceola|43.3113619|-95.7911276|04/30/1979|03/20/2008
454266|Aspinwall|Populated Place|03340|P1|0420|190420047|19|IA|1|047|Crawford|41.911931|-95.135549|04/30/1979|03/20/2008
454271|Atalissa|Populated Place|03385|P1|0430|190430139|19|IA|1|139|Muscatine|41.5711357|-91.1659888|04/30/1979|03/20/2008
454272|Athelstan|Populated Place|03430|U5|0440|190440173|19|IA|1|173|Taylor|40.5722401|-94.5422029|04/30/1979|03/13/2012
454274|Atkins|Populated Place|03475|P1|0450|190450011|19|IA|1|011|Benton|41.9969436|-91.8621262|04/30/1979|03/20/2008
454275|Atlantic|Populated Place|03520|P1|0460|190460029|19|IA|1|029|Cass|41.4036007|-95.0138776|04/30/1979|03/20/2008
454277|Attica|Populated Place|03565|U6|0465|190465125|19|IA|1|125|Marion|41.2297219|-93.0160359|04/30/1979|
454279|Auburn|Populated Place|03610|P1|0470|190470161|19|IA|1|161|Sac|42.2513724|-94.8777638|04/30/1979|03/20/2008
454280|Audubon|Populated Place|03655|P1|0480|190480009|19|IA|1|009|Audubon|41.7180421|-94.9324868|04/30/1979|03/20/2008
454282|Augusta|Populated Place|03700|U6|||19|IA|1|057|Des Moines|40.7580948|-91.2757054|04/30/1979|
454283|Aurelia|Populated Place|03745|P1|0490|190490035|19|IA|1|035|Cherokee|42.71276|-95.4366701|04/30/1979|03/20/2008
454284|Aureola|Populated Place|03790|U6|||19|IA|1|067|Floyd|42.9683044|-92.8779723|04/30/1979|
454285|Aurora|Populated Place|03835|P1|0500|190500019|19|IA|1|019|Buchanan|42.618873|-91.7284957|04/30/1979|03/20/2008
454287|Austinville|Populated Place|03880|U6|0492|190492023|19|IA|1|023|Butler|42.5858112|-92.9571425|04/30/1979|
454289|Avery|Populated Place|03925|U6|||19|IA|1|135|Monroe|41.0652868|-92.7143603|04/30/1979|
454290|Avoca|Populated Place|03970|P1|0510|190510155|19|IA|1|155|Pottawattamie|41.4766571|-95.3380549|04/30/1979|03/20/2008
454293|Avon Lake|Populated Place|04060|U6|0513|190513153|19|IA|1|153|Polk|41.5219344|-93.5010471|04/30/1979|
454296|Ayrshire|Populated Place|04105|P1|0520|190520147|19|IA|1|147|Palo Alto|43.0391346|-94.8327618|04/30/1979|03/20/2008
454304|Badger|Populated Place|04195|P1|0530|190530187|19|IA|1|187|Webster|42.6144147|-94.14607|04/30/1979|03/20/2008
454316|Bagley|Populated Place|04240|P1|0540|190540077|19|IA|1|077|Guthrie|41.8460964|-94.4299694|04/30/1979|03/20/2008
454330|Baldwin|Populated Place|04330|P1|0550|190550097|19|IA|1|097|Jackson|42.0741832|-90.8415301|04/30/1979|03/20/2008
454338|Balltown|Populated Place|04375|P1|0560|190560061|19|IA|1|061|Dubuque|42.6380516|-90.868739|04/30/1979|03/20/2008
454340|Ballyclough|Populated Place|04395|U6|||19|IA|1|061|Dubuque|42.4258389|-90.7181843|04/30/1979|
454341|Bancroft|Populated Place|04420|P1|0570|190570109|19|IA|1|109|Kossuth|43.2927386|-94.2180192|04/30/1979|03/20/2008
454344|Bangor|Populated Place|04465|U6|||19|IA|1|127|Marshall|42.1733191|-93.0935357|04/30/1979|
454346|Bankston|Populated Place|04510|P1|0580|190580061|19|IA|1|061|Dubuque|42.5186098|-90.9612418|04/30/1979|03/20/2008
454362|Barnes City|Populated Place|04555|P1|0590|190590123|19|IA|1|123|Mahaska|41.5083371|-92.4682418|04/30/1979|03/20/2008
454366|Barnum|Populated Place|04645|P1|0600|190600187|19|IA|1|187|Webster|42.5085843|-94.3652468|04/30/1979|03/20/2008
454373|Bartlett|Populated Place|04735|U5|||19|IA|1|071|Fremont|40.8850003|-95.7950038|04/30/1979|01/29/2011
454378|Bassett|Populated Place|04780|P1|0610|190610037|19|IA|1|037|Chickasaw|43.0630293|-92.5154602|04/30/1979|03/20/2008
454380|Batavia|Populated Place|04825|P1|0620|190620101|19|IA|1|101|Jefferson|40.9941846|-92.1674008|04/30/1979|03/20/2008
454386|Battle Creek|Populated Place|04870|P1|0630|190630093|19|IA|1|093|Ida|42.315544|-95.5986135|04/30/1979|03/20/2008
454390|Bauer|Populated Place|04890|U6|||19|IA|1|125|Marion|41.2038855|-93.3071539|04/30/1979|
454391|Baxter|Populated Place|04915|P1|0640|190640099|19|IA|1|099|Jasper|41.8260998|-93.1515905|04/30/1979|03/20/2008
454394|Bayard|Populated Place|04960|P1|0650|190650077|19|IA|1|077|Guthrie|41.85193|-94.5583076|04/30/1979|03/20/2008
454396|Beacon|Populated Place|05050|P1|0660|190660123|19|IA|1|123|Mahaska|41.2769502|-92.6796382|04/30/1979|03/20/2008
454399|Beaconsfield|Populated Place|05095|P1|0670|190670159|19|IA|1|159|Ringgold|40.8077725|-94.0505057|04/30/1979|03/20/2008
454401|Beaman|Populated Place|05140|P1|0680|190680075|19|IA|1|075|Grundy|42.2197079|-92.8235341|04/30/1979|03/20/2008
454432|Beaver|Populated Place|05185|P1|0690|190690015|19|IA|1|015|Boone|42.0383148|-94.1421817|04/30/1979|03/20/2008
454464|Beaverdale|Populated Place|05200|U5|||19|IA|1|057|Des Moines|40.8467046|-91.2084818|04/30/1979|01/29/2011
454471|Bedford|Populated Place|05365|P1|0700|190700173|19|IA|1|173|Taylor|40.6669321|-94.721358|04/30/1979|03/20/2008
454479|Beebeetown|Populated Place|05410|U6|||19|IA|1|085|Harrison|41.5211034|-95.7555644|04/30/1979|
454480|Beech|Populated Place|05455|U6|||19|IA|1|181|Warren|41.3747152|-93.3521544|04/30/1979|
454487|Belinda|Populated Place|05520|U6|||19|IA|1|117|Lucas|41.1388877|-93.1924289|04/30/1979|
454489|Belknap|Populated Place|05545|U6|||19|IA|1|051|Davis|40.8205753|-92.4262965|04/30/1979|
454493|Bellefountain|Populated Place|05565|U6|||19|IA|1|123|Mahaska|41.2802796|-92.8615874|01/01/2000|
454495|Belle Plaine|Populated Place|05590|P1|0710|190710011|19|IA|1|011|Benton|41.8969417|-92.2782405|04/30/1979|03/20/2008
454496|Bellevue|Populated Place|05635|P1|0720|190720097|19|IA|1|097|Jackson|42.2586268|-90.4229062|04/30/1979|03/20/2008
454502|Belmond|Populated Place|05680|P1|0730|190730197|19|IA|1|197|Wright|42.84608|-93.6140991|04/30/1979|03/20/2008
454505|Beloit|Populated Place|05725|U6|||19|IA|1|119|Lyon|43.2813707|-96.5747633|04/30/1979|
454511|Bennett|Populated Place|05770|P1|0740|190740031|19|IA|1|031|Cedar|41.7403023|-90.9737626|04/30/1979|03/20/2008
454518|Bentley|Populated Place|05870|U5|||19|IA|1|155|Pottawattamie|41.3769385|-95.6202837|04/30/1979|01/29/2011
454519|Benton|Populated Place|05905|P1|0750|190750159|19|IA|1|159|Ringgold|40.7033242|-94.3582909|04/30/1979|03/20/2008
454522|Bentonsport|Populated Place|05950|U6|||19|IA|1|177|Van Buren|40.7255856|-91.85378|04/30/1979|04/07/2014
454527|Berkley|Populated Place|06040|P1|0760|190760015|19|IA|1|015|Boone|41.9449834|-94.1146804|04/30/1979|03/20/2008
454528|Bernard|Populated Place|06085|P1|0770|190770061|19|IA|1|061|Dubuque|42.3122305|-90.8318003|04/30/1979|03/20/2008
454529|Berne|Populated Place|06130|U6|||19|IA|1|047|Crawford|42.0810999|-95.6527817|04/30/1979|
454532|Bertram|Populated Place|06175|P1|0780|190780113|19|IA|1|113|Linn|41.9497259|-91.5354538|04/30/1979|03/20/2008
454534|Berwick|Populated Place|06220|U6|0782|190782153|19|IA|1|153|Polk|41.6649887|-93.5449377|04/30/1979|
454579|Bethelhem|Populated Place|06250|U6|||19|IA|1|185|Wayne|40.8413932|-93.2121528|04/30/1979|
454581|Bethesda|Populated Place|06265|U6|||19|IA|1|145|Page|40.8430472|-95.0997056|04/30/1979|
454588|Bettendorf|Populated Place|06355|P1|0790|190790163|19|IA|1|163|Scott|41.5244777|-90.51569|04/30/1979|03/20/2008
454592|Bevington|Populated Place|06490|P1|0800|190800121|19|IA|1|121|Madison|41.3605472|-93.7907776|04/30/1979|03/20/2008
454592|Bevington|Populated Place|06490|P1|0800|190800181|19|IA|2|181|Warren|41.3605472|-93.7907776|04/30/1979|03/20/2008
454621|Big Rock|Populated Place|06535|U6|||19|IA|1|163|Scott|41.7703036|-90.8262574|04/30/1979|
454639|Bingham|Populated Place|06580|U6|||19|IA|1|145|Page|40.7341624|-95.2888741|04/30/1979|
454645|Birmingham|Populated Place|06625|P1|0810|190810177|19|IA|1|177|Van Buren|40.8789129|-91.9471165|04/30/1979|03/20/2008
454670|Bladensburg|Populated Place|06715|U6|||19|IA|1|179|Wapello|41.0461273|-92.2371254|04/30/1979|
454675|Blairsburg|Populated Place|06760|P1|0820|190820079|19|IA|1|079|Hamilton|42.4799771|-93.6429915|04/30/1979|03/20/2008
454677|Blairstown|Populated Place|06805|P1|0830|190830011|19|IA|1|011|Benton|41.9094449|-92.0843487|04/30/1979|03/20/2008
454679|Blakesburg|Populated Place|06850|P1|0840|190840179|19|IA|1|179|Wapello|40.9622347|-92.6340798|04/30/1979|03/20/2008
454681|Blanchard|Populated Place|06895|P1|0850|190850145|19|IA|1|145|Page|40.5791617|-95.2216466|04/30/1979|03/20/2008
454687|Blencoe|Populated Place|06940|P1|0860|190860133|19|IA|1|133|Monona|41.9302657|-96.0808475|04/30/1979|03/20/2008
454691|Blockton|Populated Place|06985|P1|0870|190870173|19|IA|1|173|Taylor|40.6155454|-94.4771826|04/30/1979|03/20/2008
454700|Bloomfield|Populated Place|07030|P1|0880|190880051|19|IA|1|051|Davis|40.7516884|-92.4149074|04/30/1979|03/20/2008
454709|Blue Grass|Populated Place|07075|P1|0890|190890163|19|IA|1|163|Scott|41.5089194|-90.7659767|04/30/1979|03/20/2008
454724|Bluff Park|Populated Place|07120|U4|||19|IA|1|111|Lee|40.5275424|-91.4037645|04/30/1979|
454725|Bluffton|Populated Place|07165|U6|||19|IA|1|191|Winneshiek|43.4030242|-91.9118249|04/30/1979|
454731|Bode|Populated Place|07210|P1|0900|190900091|19|IA|1|091|Humboldt|42.8683035|-94.2896879|04/30/1979|03/20/2008
454738|Bolan|Populated Place|07255|U5|||19|IA|1|195|Worth|43.3719061|-93.1193681|04/30/1979|01/29/2011
454742|Bonair|Populated Place|07300|U6|||19|IA|1|089|Howard|43.4219115|-92.1926674|04/30/1979|
454744|Bonaparte|Populated Place|07345|P1|0910|190910177|19|IA|1|177|Van Buren|40.6980874|-91.8032228|04/30/1979|03/20/2008
454745|Bondurant|Populated Place|07390|P1|0920|190920153|19|IA|1|153|Polk|41.7005441|-93.462157|04/30/1979|03/20/2008
454753|Boone|Populated Place|07480|P1|0930|190930015|19|IA|1|015|Boone|42.0597047|-93.8802273|04/30/1979|03/20/2008
454758|Booneville|Populated Place|07525|U6|0931|190931049|19|IA|1|049|Dallas|41.524156|-93.8838371|04/30/1979|
454767|Botna|Populated Place|07570|U6|||19|IA|1|165|Shelby|41.8558199|-95.1313821|04/30/1979|
454771|Bouton|Populated Place|07660|P1|0940|190940049|19|IA|1|049|Dallas|41.8513741|-94.0091208|04/30/1979|03/20/2008
454777|Bowsher|Populated Place|07705|U6|||19|IA|1|153|Polk|41.6391556|-93.541882|04/30/1979|
454780|Boxholm|Populated Place|07750|P1|0950|190950015|19|IA|1|015|Boone|42.1758111|-94.106069|04/30/1979|03/20/2008
454782|Boyd|Populated Place|07795|U6|||19|IA|1|037|Chickasaw|43.0124757|-92.2579536|04/30/1979|
454785|Boyden|Populated Place|07840|P1|0960|190960167|19|IA|1|167|Sioux|43.1910907|-96.005853|04/30/1979|03/20/2008
454787|Boyer|Populated Place|07885|U6|||19|IA|1|047|Crawford|42.1819303|-95.2352721|04/30/1979|
454792|Boyer River|Populated Place|07900|U6|||19|IA|1|047|Crawford|42.1891523|-95.2047159|04/30/1979|
454792|Boyer River|Populated Place|07900|U6|||19|IA|2|161|Sac|42.1891523|-95.2047159|04/30/1979|
454797|Bradford|Populated Place|08020|U5|0972|190972069|19|IA|1|069|Franklin|42.6330321|-93.2449247|04/30/1979|01/29/2011
454799|Bradgate|Populated Place|08065|P1|0980|190980091|19|IA|1|091|Humboldt|42.8030275|-94.4180271|04/30/1979|03/20/2008
454804|Brainard|Populated Place|08110|U6|||19|IA|1|065|Fayette|42.9308136|-91.7051558|04/30/1979|
454806|Brandon|Populated Place|08155|P1|0990|190990019|19|IA|1|019|Buchanan|42.3144359|-92.0021228|04/30/1979|03/20/2008
454809|Brayton|Populated Place|08200|P1|1000|191000009|19|IA|1|009|Audubon|41.5444325|-94.9241522|04/30/1979|03/20/2008
454810|Brazil|Populated Place|08245|U6|||19|IA|1|007|Appanoose|40.7580668|-92.9543679|04/30/1979|
454812|Breda|Populated Place|08290|P1|1010|191010027|19|IA|1|027|Carroll|42.1816509|-94.9769338|04/30/1979|03/20/2008
454816|Bremer|Populated Place|08335|U6|1025|191025017|19|IA|1|017|Bremer|42.7733139|-92.3949044|04/30/1979|
454821|Bridgeport|Populated Place|08355|U6|||19|IA|1|097|Jackson|42.0894642|-90.6270788|04/30/1979|
454823|Bridgewater|Populated Place|08425|P1|1020|191020001|19|IA|1|001|Adair|41.2449872|-94.6688623|04/30/1979|03/20/2008
454825|Brighton|Populated Place|08470|P1|1030|191030183|19|IA|1|183|Washington|41.1747394|-91.8196149|04/30/1979|03/20/2008
454831|Bristow|Populated Place|08560|P1|1040|191040023|19|IA|1|023|Butler|42.7738635|-92.9074177|04/30/1979|03/20/2008
454832|Britt|Populated Place|08605|P1|1050|191050081|19|IA|1|081|Hancock|43.0977399|-93.8018875|04/30/1979|03/20/2008
454840|Bronson|Populated Place|08650|P1|1055|191055193|19|IA|1|193|Woodbury|42.4108256|-96.2139129|04/30/1979|03/20/2008
454842|Brooklyn|Populated Place|08695|P1|1060|191060157|19|IA|1|157|Poweshiek|41.7336092|-92.445463|04/30/1979|03/20/2008
454843|Brooks|Populated Place|08740|U6|1063|191063003|19|IA|1|003|Adams|40.9652647|-94.8049758|04/30/1979|
454876|Brunsville|Populated Place|08875|P1|1070|191070149|19|IA|1|149|Plymouth|42.8097123|-96.2691912|04/30/1979|03/20/2008
454896|Brushy|Populated Place|08920|U6|||19|IA|1|187|Webster|42.4308043|-94.0102302|04/30/1979|
454902|Bryant|Populated Place|08965|U6|1075|191075045|19|IA|1|045|Clinton|41.9633599|-90.3301306|04/30/1979|
454909|Bryantsburg|Populated Place|08990|U6|||19|IA|1|019|Buchanan|42.5747072|-91.9054487|04/30/1979|
454910|Buchanan|Populated Place|09010|U6|||19|IA|1|031|Cedar|41.7650194|-91.2468285|04/30/1979|
454914|Buck Creek|Populated Place|09060|U6|||19|IA|1|055|Delaware|42.3372167|-91.3420956|04/30/1979|
454929|Buck Grove|Populated Place|09145|P1|1090|191090047|19|IA|1|047|Crawford|41.9180436|-95.3961102|04/30/1979|03/20/2008
454934|Buckeye|Populated Place|09100|P1|1080|191080083|19|IA|1|083|Hardin|42.4172038|-93.3749287|04/30/1979|03/20/2008
454939|Buckingham|Populated Place|09190|U6|1094|191094171|19|IA|1|171|Tama|42.2624889|-92.4476906|04/30/1979|
454951|Buffalo|Populated Place|09235|P1|1100|191100163|19|IA|1|163|Scott|41.4564205|-90.7234747|04/30/1979|03/20/2008
454952|Buffalo Center|Populated Place|09280|P1|1110|191110189|19|IA|1|189|Winnebago|43.3857909|-93.9466193|04/30/1979|03/20/2008
454965|Buffalo Heights|Populated Place|09325|U6|||19|IA|1|163|Scott|41.4725315|-90.7145857|04/30/1979|
454988|Burchinal|Populated Place|09415|U5|||19|IA|1|033|Cerro Gordo|43.0652402|-93.2782599|04/30/1979|01/29/2011
454995|Burlington|Populated Place|09550|P1|1120|191120057|19|IA|1|057|Des Moines|40.8075391|-91.1129233|04/30/1979|03/20/2008
454998|Burnside|Populated Place|09595|U6|1124|191124187|19|IA|1|187|Webster|42.3458066|-94.106902|04/30/1979|
455007|Burr Oak|Populated Place|09640|U5|1128|191128191|19|IA|1|191|Winneshiek|43.458857|-91.8654332|04/30/1979|01/29/2011
455008|Burt|Populated Place|09685|P1|1130|191130109|19|IA|1|109|Kossuth|43.1974632|-94.2196855|04/30/1979|03/20/2008
455013|Bussey|Populated Place|09730|P1|1140|191140125|19|IA|1|125|Marion|41.2044474|-92.8826991|04/30/1979|03/20/2008
455037|Cairo|Populated Place|09775|U6|||19|IA|1|115|Louisa|41.1836391|-91.3273758|04/30/1979|
455040|Calamus|Populated Place|09820|P1|1150|191150045|19|IA|1|045|Clinton|41.8258586|-90.7581987|04/30/1979|03/20/2008
455050|Calhoun|Populated Place|09865|U6|||19|IA|1|085|Harrison|41.6316573|-95.8952879|04/30/1979|
455054|California Junction|Populated Place|09910|U5|||19|IA|1|085|Harrison|41.5586035|-95.9947339|04/30/1979|01/29/2011
455056|Callender|Populated Place|09955|P1|1160|191160187|19|IA|1|187|Webster|42.3619186|-94.2957995|04/30/1979|03/20/2008
455057|Calmar|Populated Place|10045|P1|1170|191170191|19|IA|1|191|Winneshiek|43.1835847|-91.8640483|04/30/1979|03/20/2008
455060|Calumet|Populated Place|10090|P1|1180|191180141|19|IA|1|141|O'Brien|42.9463676|-95.550007|04/30/1979|03/20/2008
455096|Camanche|Populated Place|10135|P1|1190|191190045|19|IA|1|045|Clinton|41.7880862|-90.2562398|04/30/1979|03/20/2008
455097|Cambria|Populated Place|10180|U6|||19|IA|1|185|Wayne|40.8377814|-93.4024352|04/30/1979|
455098|Cambridge|Populated Place|10225|P1|1200|191200169|19|IA|1|169|Story|41.8983209|-93.5291039|04/30/1979|03/20/2008
455154|Canton|Populated Place|10405|U6|||19|IA|1|105|Jones|42.1633455|-90.8956958|04/30/1979|
455154|Canton|Populated Place|10405|U6|||19|IA|2|097|Jackson|42.1633455|-90.8956958|04/30/1979|
455155|Cantril|Populated Place|10450|P1|1210|191210177|19|IA|1|177|Van Buren|40.6441959|-92.069899|04/30/1979|03/20/2008
455157|Capitol Heights|Populated Place|10540|U6|||19|IA|1|153|Polk|41.6333223|-93.5202146|04/30/1979|
455158|Carbon|Populated Place|10585|P1|1220|191220003|19|IA|1|003|Adams|41.0499872|-94.8233111|04/30/1979|03/20/2008
455159|Carbondale|Populated Place|10675|U6|||19|IA|1|153|Polk|41.5822116|-93.5032695|04/30/1979|
455164|Carl|Populated Place|10720|U6|||19|IA|1|003|Adams|41.119987|-94.6630273|04/30/1979|
455166|Carlisle|Populated Place|10765|P1|1230|191230181|19|IA|1|181|Warren|41.5008234|-93.4910468|04/30/1979|03/20/2008
455166|Carlisle|Populated Place|10765|P1|1230|191230153|19|IA|2|153|Polk|41.5008234|-93.4910468|04/30/1979|03/20/2008
455174|Carmel|Populated Place|10810|U6|||19|IA|1|167|Sioux|43.1277612|-96.235301|04/30/1979|
455175|Carnarvon|Populated Place|10855|U6|1233|191233161|19|IA|1|161|Sac|42.253595|-95.0216568|04/30/1979|
455176|Carney|Populated Place|10945|U6|||19|IA|1|153|Polk|41.6883217|-93.6004953|04/30/1979|
455178|Carnforth|Populated Place|10990|U6|||19|IA|1|157|Poweshiek|41.7222223|-92.3496286|04/30/1979|
455180|Carpenter|Populated Place|11035|P1|1240|191240131|19|IA|1|131|Mitchell|43.4149647|-93.0149196|04/30/1979|03/20/2008
455182|Carroll|Populated Place|11080|P1|1250|191250027|19|IA|1|027|Carroll|42.0658184|-94.8669304|04/30/1979|03/20/2008
455183|Carrollton|Populated Place|11110|U6|||19|IA|1|027|Carroll|41.9497083|-94.7480372|04/30/1979|
455185|Carrville|Populated Place|11140|U6|||19|IA|1|067|Floyd|43.0088629|-92.5749077|04/30/1979|
455186|Carson|Populated Place|11170|P1|1260|191260155|19|IA|1|155|Pottawattamie|41.2366607|-95.4180561|04/30/1979|03/20/2008
455192|Carter Lake|Populated Place|11215|P1|1270|191270155|19|IA|1|155|Pottawattamie|41.2905534|-95.9180689|04/30/1979|03/20/2008
455193|Cartersville|Populated Place|11260|U6|||19|IA|1|033|Cerro Gordo|42.9944126|-93.0829768|04/30/1979|
455196|Cascade|Populated Place|11305|P1|1280|191280061|19|IA|1|061|Dubuque|42.2986159|-91.0148618|04/30/1979|03/20/2008
455196|Cascade|Populated Place|11305|P1|1280|191280105|19|IA|2|105|Jones|42.2986159|-91.0148618|04/30/1979|03/20/2008
455198|Casey|Populated Place|11395|P1|1290|191290077|19|IA|1|077|Guthrie|41.5049873|-94.5194149|04/30/1979|03/20/2008
455198|Casey|Populated Place|11395|P1|1290|191290001|19|IA|2|001|Adair|41.5049873|-94.5194149|04/30/1979|03/20/2008
455200|Casino Beach|Populated Place|11440|U6|||19|IA|1|021|Buena Vista|42.6241474|-95.2286072|04/30/1979|
455206|Castalia|Populated Place|11485|P1|1300|191300191|19|IA|1|191|Winneshiek|43.1119219|-91.6762624|04/30/1979|03/20/2008
455207|Castana|Populated Place|11530|P1|1310|191310133|19|IA|1|133|Monona|42.0744332|-95.9086206|04/30/1979|03/20/2008
455220|Cedar|Populated Place|11620|U6|1327|191327123|19|IA|1|123|Mahaska|41.2122326|-92.525745|04/30/1979|
455223|Cedar Bluff|Populated Place|11665|U6|||19|IA|1|031|Cedar|41.7858505|-91.3082197|04/30/1979|
455226|Cedar City|Populated Place|11710|U4|||19|IA|1|013|Black Hawk|42.5405398|-92.4410206|04/30/1979|
455240|Cedar Falls|Populated Place|11755|P1|1330|191330013|19|IA|1|013|Black Hawk|42.5277622|-92.4454654|04/30/1979|03/20/2008
455245|Cedar Hills|Populated Place|11845|U4|||19|IA|1|113|Linn|41.972778|-91.740459|04/30/1979|
455259|Cedar Valley|Populated Place|12045|U6|||19|IA|1|031|Cedar|41.7264094|-91.2465501|04/30/1979|
455285|Center Grove|Populated Place|12180|U6|||19|IA|1|061|Dubuque|42.491114|-90.7154052|04/30/1979|
455289|Center Junction|Populated Place|12225|P1|||19|IA|1|105|Jones|42.1161202|-91.087094|04/30/1979|03/20/2008
455292|Center Point|Populated Place|12270|P1|1360|191360113|19|IA|1|113|Linn|42.1908265|-91.7851772|04/30/1979|03/20/2008
455310|Centerville|Populated Place|12315|P1|1370|191370007|19|IA|1|007|Appanoose|40.7341804|-92.8740876|04/30/1979|03/20/2008
455311|Centerville|Populated Place|12405|U6|||19|IA|1|015|Boone|42.0927587|-93.9355069|04/30/1979|
455313|Central City|Populated Place|12495|P1|1380|191380113|19|IA|1|113|Linn|42.2038829|-91.5240561|04/30/1979|03/20/2008
455314|Central Heights|Populated Place|12585|U6|||19|IA|1|033|Cerro Gordo|43.1349608|-93.2418707|04/30/1979|
455332|Centralia|Populated Place|12630|P1|1400|191400061|19|IA|1|061|Dubuque|42.4722244|-90.8370739|04/30/1979|12/12/2014
455347|Chapin|Populated Place|12675|U5|1407|191407069|19|IA|1|069|Franklin|42.8335814|-93.2221464|04/30/1979|01/29/2011
455350|Chariton|Populated Place|12720|P1|1410|191410117|19|IA|1|117|Lucas|41.0138886|-93.3065983|04/30/1979|03/20/2008
455354|Charles City|Populated Place|12765|P1|1420|191420067|19|IA|1|067|Floyd|43.0663613|-92.6724112|04/30/1979|03/20/2008
455355|Charleston|Populated Place|12810|U6|||19|IA|1|111|Lee|40.5908728|-91.5312685|04/30/1979|
455357|Charlotte|Populated Place|12855|P1|1430|191430045|19|IA|1|045|Clinton|41.9603038|-90.4651329|04/30/1979|03/20/2008
455358|Charter Oak|Populated Place|12900|P1|1440|191440047|19|IA|1|047|Crawford|42.0683221|-95.5916693|04/30/1979|03/20/2008
455362|Chatsworth|Populated Place|12945|P1|1450|191450167|19|IA|1|167|Sioux|42.9161014|-96.5164205|04/30/1979|03/20/2008
455363|Chautauqua|Populated Place|12965|U6|||19|IA|1|155|Pottawattamie|41.2908307|-95.7936212|04/30/1979|
455368|Chelsea|Populated Place|12990|P1|1460|191460171|19|IA|1|171|Tama|41.9191617|-92.3946317|04/30/1979|03/20/2008
455370|Cherokee|Populated Place|13080|P1|1470|191470035|19|IA|1|035|Cherokee|42.7494277|-95.551674|04/30/1979|03/20/2008
455379|Chester|Populated Place|13125|P1|1480|191480089|19|IA|1|089|Howard|43.4910768|-92.360449|04/30/1979|03/20/2008
455387|Chickasaw|Populated Place|13170|U6|||19|IA|1|037|Chickasaw|43.0338635|-92.4951821|04/30/1979|
455394|Chillicothe|Populated Place|13215|P1|1490|191490179|19|IA|1|179|Wapello|41.0855676|-92.5293553|04/30/1979|03/20/2008
455410|Church|Populated Place|13260|U6|||19|IA|1|005|Allamakee|43.352198|-91.3390238|04/30/1979|
455413|Churchville|Populated Place|13305|U6|||19|IA|1|181|Warren|41.3966581|-93.7510544|04/30/1979|
455414|Churdan|Populated Place|13350|P1|1500|191500073|19|IA|1|073|Greene|42.1519262|-94.4744169|04/30/1979|03/20/2008
455415|Cincinnati|Populated Place|13395|P1|1510|191510007|19|IA|1|007|Appanoose|40.6308483|-92.9246459|04/30/1979|03/20/2008
455422|Clare|Populated Place|13485|P1|1520|191520187|19|IA|1|187|Webster|42.5871947|-94.3455239|04/30/1979|03/20/2008
455423|Clarence|Populated Place|13530|P1|1530|191530031|19|IA|1|031|Cedar|41.888907|-91.0565423|04/30/1979|03/20/2008
455425|Clarinda|Populated Place|13575|P1|1540|191540145|19|IA|1|145|Page|40.7419352|-95.038313|04/30/1979|03/20/2008
455428|Clarion|Populated Place|13620|P1|1550|191550197|19|IA|1|197|Wright|42.7316387|-93.732992|04/30/1979|03/20/2008
455434|Clarkdale|Populated Place|13710|U6|||19|IA|1|007|Appanoose|40.7852895|-92.9049216|04/30/1979|
455441|Clarksville|Populated Place|13755|P1|1560|191560023|19|IA|1|023|Butler|42.7847|-92.6676907|04/30/1979|03/20/2008
455448|Clayton|Populated Place|13845|P1|1569|191569043|19|IA|1|043|Clayton|42.9038759|-91.1473518|04/30/1979|03/20/2008
455451|Clayton Center|Populated Place|13890|U6|1570|191570043|19|IA|1|043|Clayton|42.8833191|-91.3268014|04/30/1979|
455465|Clear Lake|Populated Place|14025|P1|1590|191590033|19|IA|1|033|Cerro Gordo|43.1380151|-93.3793725|04/30/1979|03/20/2008
455468|Clearfield|Populated Place|13980|P1|1580|191580173|19|IA|1|173|Taylor|40.8008223|-94.4757947|04/30/1979|03/20/2008
455468|Clearfield|Populated Place|13980|P1|1580|191580159|19|IA|2|159|Ringgold|40.8008223|-94.4757947|04/30/1979|03/20/2008
455470|Cleghorn|Populated Place|14115|P1|1600|191600035|19|IA|1|035|Cherokee|42.8122071|-95.7127888|04/30/1979|03/20/2008
455471|Clemons|Populated Place|14160|P1|1610|191610127|19|IA|1|127|Marshall|42.1138755|-93.1560365|04/30/1979|03/20/2008
455473|Clermont|Populated Place|14250|P1|1620|191620065|19|IA|1|065|Fayette|43.0035912|-91.652374|04/30/1979|03/20/2008
455476|Cleves|Populated Place|14295|U6|||19|IA|1|083|Hardin|42.4727582|-93.0452004|04/30/1979|
455477|Climbing Hill|Populated Place|14385|U5|||19|IA|1|193|Woodbury|42.3416581|-96.0777952|04/30/1979|01/29/2011
455480|Clinton|Populated Place|14430|P1|1630|191630045|19|IA|1|045|Clinton|41.8444735|-90.1887379|04/30/1979|03/20/2008
455484|Clio|Populated Place|14475|P1|1640|191640185|19|IA|1|185|Wayne|40.6350076|-93.4513276|04/30/1979|03/20/2008
455485|Clive|Populated Place|14520|P1|1642|191642153|19|IA|1|153|Polk|41.6030446|-93.7241104|04/30/1979|03/20/2008
455485|Clive|Populated Place|14520|P1|1642|191642049|19|IA|2|049|Dallas|41.6030446|-93.7241104|04/30/1979|03/20/2008
455489|Cloverdale|Populated Place|14565|U6|||19|IA|1|143|Osceola|43.3469151|-95.685847|04/30/1979|
455490|Clutier|Populated Place|14655|P1|1660|191660171|19|IA|1|171|Tama|42.0794366|-92.4021334|04/30/1979|03/20/2008
455493|Coal Creek|Populated Place|14790|U6|||19|IA|1|107|Keokuk|41.4377845|-92.3935184|04/30/1979|
455503|Coalville|Populated Place|14835|U5|||19|IA|1|187|Webster|42.4452485|-94.1257916|04/30/1979|03/20/2008
455506|Coburg|Populated Place|14880|P1|1670|191670137|19|IA|1|137|Montgomery|40.9174941|-95.2644341|04/30/1979|03/20/2008
455514|Coggon|Populated Place|14925|P1|1680|191680113|19|IA|1|113|Linn|42.2808248|-91.5304412|04/30/1979|03/20/2008
455516|Coin|Populated Place|14970|P1|1690|191690145|19|IA|1|145|Page|40.6544393|-95.2302597|04/30/1979|03/20/2008
455526|Colesburg|Populated Place|15015|P1|1700|191700055|19|IA|1|055|Delaware|42.6394355|-91.2020781|04/30/1979|03/20/2008
455527|Colfax|Populated Place|15060|P1|1710|191710099|19|IA|1|099|Jasper|41.6777666|-93.245205|04/30/1979|03/20/2008
455535|College Springs|Populated Place|15105|P1|||19|IA|1|145|Page|40.6191595|-95.1208123|04/30/1979|03/20/2008
455536|Collins|Populated Place|15195|P1|1730|191730169|19|IA|1|169|Story|41.9027657|-93.3063179|04/30/1979|03/20/2008
455538|Colo|Populated Place|15240|P1|1740|191740169|19|IA|1|169|Story|42.0177653|-93.3152072|04/30/1979|03/20/2008
455541|Columbia|Populated Place|15330|U6|1742|191742125|19|IA|1|125|Marion|41.1752766|-93.1499279|04/30/1979|
455544|Columbus City|Populated Place|15375|P1|1750|191750115|19|IA|1|115|Louisa|41.2586363|-91.3743221|04/30/1979|03/20/2008
455546|Columbus Junction|Populated Place|15420|P1|||19|IA|1|115|Louisa|41.2800253|-91.360711|04/30/1979|03/20/2008
455549|Colwell|Populated Place|15465|P1|1770|191770067|19|IA|1|067|Floyd|43.1558053|-92.5940738|04/30/1979|03/20/2008
455553|Commerce|Populated Place|15510|U4|||19|IA|1|153|Polk|41.5388785|-93.7646668|04/30/1979|
455573|Conesville|Populated Place|15645|P1|1780|191780139|19|IA|1|139|Muscatine|41.3819687|-91.3498791|04/30/1979|03/20/2008
455574|Confidence|Populated Place|15690|U6|||19|IA|1|185|Wayne|40.8627832|-93.1254834|04/30/1979|
455576|Conover|Populated Place|15780|U6|||19|IA|1|191|Winneshiek|43.2163613|-91.8973825|04/30/1979|
455577|Conrad|Populated Place|15825|P1|1790|191790075|19|IA|1|075|Grundy|42.2247077|-92.8746455|04/30/1979|03/20/2008
455578|Conroy|Populated Place|15870|U5|1795|191795095|19|IA|1|095|Iowa|41.7291736|-91.9976792|04/30/1979|01/29/2011
455582|Conway|Populated Place|15960|P1|1800|191800173|19|IA|1|173|Taylor|40.7485991|-94.6188551|04/30/1979|03/20/2008
455594|Cool|Populated Place|16005|U6|||19|IA|1|181|Warren|41.2233284|-93.5774379|04/30/1979|
455613|Coon Rapids|Populated Place|16050|P1|1810|191810027|19|IA|1|027|Carroll|41.8708192|-94.6774786|04/30/1979|03/20/2008
455616|Cooper|Populated Place|16095|U6|1812|191812073|19|IA|1|073|Greene|41.920262|-94.3446888|04/30/1979|
455624|Coralville|Populated Place|16230|P1|1830|191830103|19|IA|1|103|Johnson|41.6764044|-91.5804475|04/30/1979|03/20/2008
455627|Corley|Populated Place|16320|U5|||19|IA|1|165|Shelby|41.5786004|-95.3302767|04/30/1979|01/29/2011
455630|Cornelia|Populated Place|16410|U6|||19|IA|1|197|Wright|42.7899707|-93.6832681|04/30/1979|
455632|Cornell|Populated Place|16455|U6|||19|IA|1|041|Clay|42.9444193|-95.1399934|04/30/1979|
455634|Corning|Populated Place|16500|P1|1840|191840003|19|IA|1|003|Adams|40.9899861|-94.7408069|04/30/1979|03/20/2008
455636|Correctionville|Populated Place|16545|P1|1850|191850193|19|IA|1|193|Woodbury|42.4749887|-95.785565|04/30/1979|03/20/2008
455640|Corwith|Populated Place|16590|P1|1860|191860081|19|IA|1|081|Hancock|42.9927444|-93.9574516|04/30/1979|03/20/2008
455647|Corydon|Populated Place|16635|P1|1870|191870185|19|IA|1|185|Wayne|40.7569499|-93.3188229|04/30/1979|03/20/2008
455649|Cosgrove|Populated Place|16680|U6|||19|IA|1|103|Johnson|41.6427914|-91.7357277|04/30/1979|
455653|Cottage Hill|Populated Place|16710|U6|||19|IA|1|061|Dubuque|42.5852751|-90.9137402|04/30/1979|
455655|Cotter|Populated Place|16725|P1|1880|191880115|19|IA|1|115|Louisa|41.2919675|-91.4615474|04/30/1979|03/20/2008
455657|Cottonville|Populated Place|16745|U6|||19|IA|1|097|Jackson|42.2369594|-90.6020747|04/30/1979|
455671|Coulter|Populated Place|16815|P1|1890|191890069|19|IA|1|069|Franklin|42.7371953|-93.3699261|04/30/1979|03/20/2008
455672|Council Bluffs|Populated Place|16860|P1|1900|191900155|19|IA|1|155|Pottawattamie|41.2619444|-95.8608333|04/30/1979|03/20/2008
455681|Covington|Populated Place|16905|U6|||19|IA|1|113|Linn|42.0072208|-91.7624042|04/30/1979|
455692|Craig|Populated Place|16950|P1|1910|191910149|19|IA|1|149|Plymouth|42.8958224|-96.3097474|04/30/1979|03/20/2008
455702|Cranston|Populated Place|17085|U6|||19|IA|1|139|Muscatine|41.3791927|-91.2612655|04/30/1979|
455707|Crawfordsville|Populated Place|17130|P1|1920|191920183|19|IA|1|183|Washington|41.21456|-91.53731|04/30/1979|07/02/2010
455709|Crescent|Populated Place|17175|P1|1925|191925155|19|IA|1|155|Pottawattamie|41.364996|-95.8580668|04/30/1979|03/20/2008
455712|Cresco|Populated Place|17220|P1|1930|191930089|19|IA|1|089|Howard|43.3813568|-92.1140547|04/30/1979|03/20/2008
455716|Creston|Populated Place|17265|P1|1940|191940175|19|IA|1|175|Union|41.0586002|-94.3613475|04/30/1979|03/20/2008
455717|Crestwood|Populated Place|17355|U4|||19|IA|1|153|Polk|41.6061001|-93.7129989|04/30/1979|
455719|Cricket|Populated Place|17420|U6|||19|IA|1|123|Mahaska|41.1838939|-92.8071415|04/30/1979|
455721|Crocker|Populated Place|17445|U6|||19|IA|1|153|Polk|41.7747098|-93.6699425|04/30/1979|
455725|Cromwell|Populated Place|17490|P1|1950|191950175|19|IA|1|175|Union|41.0394328|-94.4619067|04/30/1979|03/20/2008
455735|Croton|Populated Place|17625|U6|||19|IA|1|111|Lee|40.5903147|-91.6907189|04/30/1979|
455748|Crystal Lake|Populated Place|17670|P1|1960|191960081|19|IA|1|081|Hancock|43.2232917|-93.7924434|04/30/1979|03/20/2008
455754|Cumberland|Populated Place|17760|P1|1970|191970029|19|IA|1|029|Cass|41.2741551|-94.8702606|04/30/1979|03/20/2008
455755|Cumming|Populated Place|17850|P1|1980|191980181|19|IA|1|181|Warren|41.4833235|-93.7624442|04/30/1979|03/20/2008
455758|Curlew|Populated Place|17895|P1|1990|191990147|19|IA|1|147|Palo Alto|42.9788578|-94.7410923|04/30/1979|03/20/2008
455761|Cushing|Populated Place|17940|P1|2000|192000193|19|IA|1|193|Woodbury|42.4647099|-95.6750061|04/30/1979|03/20/2008
455764|Cylinder|Populated Place|17985|P1|2010|192010147|19|IA|1|147|Palo Alto|43.0888552|-94.5530323|04/30/1979|03/20/2008
455767|Dahlonega|Populated Place|18030|U6|||19|IA|1|179|Wapello|41.0586255|-92.3699066|04/30/1979|
455772|Dale|Populated Place|18165|U6|||19|IA|1|077|Guthrie|41.5958207|-94.3419088|04/30/1979|
455777|Dallas Center|Populated Place|18255|P1|2040|192040049|19|IA|1|049|Dallas|41.684432|-93.9610628|04/30/1979|03/20/2008
455784|Dana|Populated Place|18345|P1|2050|192050073|19|IA|1|073|Greene|42.1074796|-94.2407968|04/30/1979|03/20/2008
455785|Danbury|Populated Place|18390|P1|2060|192060193|19|IA|1|193|Woodbury|42.2341562|-95.7222265|04/30/1979|03/20/2008
455791|Danville|Populated Place|18435|P1|2070|192070057|19|IA|1|057|Des Moines|40.8644805|-91.314596|04/30/1979|03/20/2008
455793|Darbyville|Populated Place|18480|U6|||19|IA|1|007|Appanoose|40.8161228|-92.8732538|04/30/1979|
455799|Davenport|Populated Place|19000|P1|2080|192080163|19|IA|1|163|Scott|41.5236437|-90.5776367|04/30/1979|03/20/2008
455807|Davis City|Populated Place|19090|P1|2090|192090053|19|IA|1|053|Decatur|40.6391684|-93.8116131|04/30/1979|03/20/2008
455808|Davis Corners|Populated Place|19110|U6|||19|IA|1|089|Howard|43.3708012|-92.2976712|04/30/1979|
455814|Dawson|Populated Place|19135|P1|2100|192100049|19|IA|1|049|Dallas|41.8427629|-94.2224617|04/30/1979|03/20/2008
455819|Dayton|Populated Place|19180|P1|2110|192110187|19|IA|1|187|Webster|42.2613645|-94.0685672|04/30/1979|03/20/2008
455822|Daytonville|Populated Place|19225|U6|||19|IA|1|183|Washington|41.4761252|-91.8290605|04/30/1979|
455823|De Soto|Populated Place|21045|P1|2270|192270049|19|IA|1|049|Dallas|41.5316555|-94.0096743|04/30/1979|03/20/2008
455826|De Witt|Populated Place|21180|P1|2280|192280045|19|IA|1|045|Clinton|41.8233618|-90.5381917|04/30/1979|03/20/2008
455837|Decatur City|Populated Place|19360|P1|2120|192120053|19|IA|1|053|Decatur|40.7419443|-93.8338346|04/30/1979|03/20/2008
455839|Decorah|Populated Place|19405|P1|2130|192130191|19|IA|1|191|Winneshiek|43.3033056|-91.7857092|04/30/1979|03/20/2008
455840|Dedham|Populated Place|19450|P1|2140|192140027|19|IA|1|027|Carroll|41.9060971|-94.8222061|04/30/1979|03/20/2008
455847|Deep River|Populated Place|19495|P1|2150|192150157|19|IA|1|157|Poweshiek|41.5802811|-92.3749066|04/30/1979|03/20/2008
455869|Defiance|Populated Place|19585|P1|2160|192160165|19|IA|1|165|Shelby|41.8241543|-95.3427762|04/30/1979|03/20/2008
455870|Delaware|Populated Place|19630|P1|2170|192170055|19|IA|1|055|Delaware|42.4752682|-91.3454214|04/30/1979|03/20/2008
455871|Delhi|Populated Place|19675|P1|2180|192180055|19|IA|1|055|Delaware|42.4297143|-91.3309789|04/30/1979|03/20/2008
455873|Delmar|Populated Place|19720|P1|2190|192190045|19|IA|1|045|Clinton|42.0022453|-90.6070804|04/30/1979|03/20/2008
455874|Deloit|Populated Place|19765|P1|2200|192200047|19|IA|1|047|Crawford|42.0977651|-95.3224967|04/30/1979|03/20/2008
455876|Delphos|Populated Place|19810|P1|2210|192210159|19|IA|1|159|Ringgold|40.6636026|-94.3394015|04/30/1979|03/20/2008
455877|Delta|Populated Place|19855|P1|2220|192220107|19|IA|1|107|Keokuk|41.3227881|-92.3301841|04/30/1979|03/20/2008
455880|Denison|Populated Place|19945|P1|2230|192230047|19|IA|1|047|Crawford|42.0177658|-95.3552757|04/30/1979|03/20/2008
455882|Denmark|Populated Place|19990|U5|2234|192234111|19|IA|1|111|Lee|40.7417052|-91.3373735|04/30/1979|01/29/2011
455885|Denver|Populated Place|20035|P1|2240|192240017|19|IA|1|017|Bremer|42.6713719|-92.3374045|04/30/1979|03/20/2008
455886|Depew|Populated Place|20080|U6|||19|IA|1|147|Palo Alto|43.1841304|-94.5424767|04/30/1979|
455887|Derby|Populated Place|20125|P1|2250|192250117|19|IA|1|117|Lucas|40.931668|-93.4563244|04/30/1979|03/20/2008
455900|Dewar|Populated Place|21135|U6|2275|192275013|19|IA|1|013|Black Hawk|42.5255424|-92.2190702|04/30/1979|
455902|Dexter|Populated Place|21225|P1|2290|192290049|19|IA|1|049|Dallas|41.5183216|-94.2263482|04/30/1979|03/20/2008
455904|Diagonal|Populated Place|21270|P1|2300|192300159|19|IA|1|159|Ringgold|40.8094349|-94.3421793|04/30/1979|03/20/2008
455912|Dickens|Populated Place|21360|P1|2310|192310041|19|IA|1|041|Clay|43.1313557|-95.0236013|04/30/1979|03/20/2008
455920|Dike|Populated Place|21405|P1|2320|192320075|19|IA|1|075|Grundy|42.4641498|-92.6282497|04/30/1979|03/20/2008
455922|Dillon|Populated Place|21450|U6|||19|IA|1|127|Marshall|41.9769337|-92.8240868|04/30/1979|
455923|Dinsdale|Populated Place|21495|U6|2325|192325171|19|IA|1|171|Tama|42.2591543|-92.5449158|04/30/1979|
455927|Dixon|Populated Place|21540|P1|2330|192330163|19|IA|1|163|Scott|41.7428049|-90.7823673|04/30/1979|03/20/2008
455937|Dodgeville|Populated Place|21630|U6|||19|IA|1|057|Des Moines|40.9430916|-91.1807038|04/30/1979|
455948|Dolliver|Populated Place|21675|P1|2340|192340063|19|IA|1|063|Emmet|43.4644014|-94.6252576|04/30/1979|03/20/2008
455950|Donahue|Populated Place|21720|P1|2350|192350163|19|IA|1|163|Scott|41.6947513|-90.675419|04/30/1979|03/20/2008
455952|Donnan|Populated Place|21765|U6|2360|192360065|19|IA|1|065|Fayette|42.8960907|-91.8779435|04/30/1979|
455954|Donnellson|Populated Place|21810|P1|2370|192370111|19|IA|1|111|Lee|40.6428152|-91.5646028|04/30/1979|03/20/2008
455957|Doon|Populated Place|21900|P1|2380|192380119|19|IA|1|119|Lyon|43.2794231|-96.2328025|04/30/1979|03/20/2008
455958|Dorchester|Populated Place|21945|U6|2385|192385005|19|IA|1|005|Allamakee|43.4696942|-91.5109742|04/30/1979|
455960|Douds|Populated Place|22035|U5|2389|192389177|19|IA|1|177|Van Buren|40.8394673|-92.0865655|04/30/1979|03/20/2008
455961|Dougherty|Populated Place|22080|P1|2390|192390033|19|IA|1|033|Cerro Gordo|42.9221925|-93.0421421|04/30/1979|03/20/2008
455969|Dow City|Populated Place|22215|P1|2400|192400047|19|IA|1|047|Crawford|41.9288774|-95.49389|04/30/1979|03/20/2008
455974|Downey|Populated Place|22260|U6|||19|IA|1|031|Cedar|41.6161319|-91.3484952|04/30/1979|
455978|Dows|Populated Place|22305|P1|2410|192410197|19|IA|1|197|Wright|42.6566418|-93.50104|04/30/1979|03/20/2008
455978|Dows|Populated Place|22305|P1|2410|192410069|19|IA|2|069|Franklin|42.6566418|-93.50104|04/30/1979|03/20/2008
456008|Drakesville|Populated Place|22350|P1|2420|192420051|19|IA|1|051|Davis|40.7983533|-92.4815754|04/30/1979|03/20/2008
456040|Dubuque|Populated Place|22395|P1|2430|192430061|19|IA|1|061|Dubuque|42.5005583|-90.6645718|04/30/1979|03/20/2008
456055|Dumont|Populated Place|22620|P1|2440|192440023|19|IA|1|023|Butler|42.7519182|-92.975474|04/30/1979|03/20/2008
456058|Duncan|Populated Place|22710|U5|||19|IA|1|081|Hancock|43.1046832|-93.7113274|04/30/1979|01/29/2011
456060|Duncombe|Populated Place|22755|P1|2450|192450187|19|IA|1|187|Webster|42.4705257|-93.9935625|04/30/1979|03/20/2008
456061|Dundee|Populated Place|22800|P1|2460|192460055|19|IA|1|055|Delaware|42.5791517|-91.5465384|04/30/1979|03/20/2008
456065|Dunkerton|Populated Place|22845|P1|2470|192470013|19|IA|1|013|Black Hawk|42.5699858|-92.1604569|04/30/1979|03/20/2008
456066|Dunlap|Populated Place|22890|P1|2480|192480085|19|IA|1|085|Harrison|41.8544327|-95.6005594|04/30/1979|03/20/2008
456073|Durango|Populated Place|22935|P1|2490|192490061|19|IA|1|061|Dubuque|42.5602775|-90.7756829|04/30/1979|03/20/2008
456075|Durant|Populated Place|22980|P1|2500|192500031|19|IA|1|031|Cedar|41.5997498|-90.9107038|04/30/1979|03/20/2008
456075|Durant|Populated Place|22980|P1|2500|192500163|19|IA|2|163|Scott|41.5997498|-90.9107038|04/30/1979|03/20/2008
456086|Dyersville|Populated Place|23115|P1|2510|192510061|19|IA|1|061|Dubuque|42.4844404|-91.1229136|04/30/1979|03/20/2008
456086|Dyersville|Populated Place|23115|P1|2510|192510055|19|IA|2|055|Delaware|42.4844404|-91.1229136|04/30/1979|03/20/2008
456087|Dysart|Populated Place|23160|P1|2520|192520171|19|IA|1|171|Tama|42.171659|-92.3062978|04/30/1979|03/20/2008
456089|Eagle Center|Populated Place|23205|U6|||19|IA|1|013|Black Hawk|42.3408222|-92.3574094|04/30/1979|
456091|Eagle Grove|Populated Place|23250|P1|2530|192530197|19|IA|1|197|Wright|42.664138|-93.9043905|04/30/1979|06/16/2011
456104|Earlham|Populated Place|23340|P1|2540|192540121|19|IA|1|121|Madison|41.4919332|-94.1241223|04/30/1979|03/20/2008
456105|Earling|Populated Place|23385|P1|2550|192550165|19|IA|1|165|Shelby|41.7755432|-95.4175002|04/30/1979|03/20/2008
456106|Earlville|Populated Place|23430|P1|2560|192560055|19|IA|1|055|Delaware|42.4816589|-91.2723626|04/30/1979|03/20/2008
456107|Early|Populated Place|23475|P1|2570|192570161|19|IA|1|161|Sac|42.4613706|-95.1519373|04/30/1979|03/20/2008
456111|East Amana|Populated Place|23520|U5|||19|IA|1|095|Iowa|41.8091737|-91.8510111|04/30/1979|01/29/2011
456190|East Pleasant Plain|Populated Place|23835|U6|||19|IA|1|101|Jefferson|41.1366847|-91.8501709|04/30/1979|
456191|East Rickardsville|Populated Place|23855|U6|||19|IA|1|061|Dubuque|42.5736094|-90.8579062|04/30/1979|
456224|Eddyville|Populated Place|23970|P1|2590|192590179|19|IA|1|179|Wapello|41.156497|-92.63739|04/30/1979|03/20/2008
456224|Eddyville|Populated Place|23970|P1|2590|192590123|19|IA|2|123|Mahaska|41.156497|-92.63739|04/30/1979|03/20/2008
456224|Eddyville|Populated Place|23970|P1|2590|192590135|19|IA|3|135|Monroe|41.156497|-92.63739|04/30/1979|03/20/2008
456235|Edgewood|Populated Place|24060|P1|2600|192600043|19|IA|1|043|Clayton|42.6444313|-91.4012515|04/30/1979|03/20/2008
456235|Edgewood|Populated Place|24060|P1|2600|192600055|19|IA|2|055|Delaware|42.6444313|-91.4012515|04/30/1979|03/20/2008
456243|Edmore|Populated Place|24195|U6|||19|IA|1|061|Dubuque|42.5561115|-90.6787384|04/30/1979|
456245|Edna|Populated Place|24240|U6|||19|IA|1|119|Lyon|43.384973|-96.0944681|04/30/1979|
456253|Egralharve|Populated Place|24330|U6|||19|IA|1|059|Dickinson|43.4021856|-95.1730521|04/30/1979|
456261|Elberon|Populated Place|24375|P1|2610|192610171|19|IA|1|171|Tama|42.0061054|-92.3168535|04/30/1979|03/20/2008
456263|Eldon|Populated Place|24420|P1|2620|192620179|19|IA|1|179|Wapello|40.9186301|-92.2229585|04/30/1979|03/20/2008
456266|Eldora|Populated Place|24465|P1|2630|192630083|19|IA|1|083|Hardin|42.360816|-93.0996464|04/30/1979|03/20/2008
456267|Eldorado|Populated Place|24510|U6|||19|IA|1|065|Fayette|43.0505322|-91.8354386|04/30/1979|
456274|Elgin|Populated Place|24645|P1|2650|192650065|19|IA|1|065|Fayette|42.9574811|-91.6307065|04/30/1979|03/20/2008
456294|Elk Horn|Populated Place|24780|P1|2680|192680165|19|IA|1|165|Shelby|41.591655|-95.0599904|04/30/1979|03/20/2008
456301|Elk Run Heights|Populated Place|24870|P1|2695|192695013|19|IA|1|013|Black Hawk|42.4669324|-92.256572|04/30/1979|03/20/2008
456303|Elkader|Populated Place|24690|P1|2660|192660043|19|IA|1|043|Clayton|42.8538739|-91.4054159|04/30/1979|03/20/2008
456304|Elkhart|Populated Place|24735|P1|2670|192670153|19|IA|1|153|Polk|41.7916546|-93.5221591|04/30/1979|03/20/2008
456310|Elkport|Populated Place|24825|P1|2690|192690043|19|IA|1|043|Clayton|42.7397104|-91.2779108|04/30/1979|03/20/2008
456314|Elliott|Populated Place|24915|P1|2700|192700137|19|IA|1|137|Montgomery|41.1491582|-95.1638809|04/30/1979|03/20/2008
456323|Ellston|Populated Place|25005|P1|2710|192710159|19|IA|1|159|Ringgold|40.8402713|-94.1085622|04/30/1979|03/20/2008
456324|Ellsworth|Populated Place|25050|P1|2720|192720079|19|IA|1|079|Hamilton|42.3127598|-93.5788247|04/30/1979|03/20/2008
456341|Elma|Populated Place|25095|P1|2730|192730089|19|IA|1|089|Howard|43.2466362|-92.4360102|04/30/1979|03/20/2008
456352|Elvira|Populated Place|25275|U6|||19|IA|1|045|Clinton|41.8589177|-90.355409|04/30/1979|
456353|Elwood|Populated Place|25320|U6|2735|192735045|19|IA|1|045|Clinton|41.9916881|-90.7390287|04/30/1979|
456356|Ely|Populated Place|25365|P1|2740|192740113|19|IA|1|113|Linn|41.8736183|-91.585175|04/30/1979|03/20/2008
456359|Emeline|Populated Place|25410|U6|||19|IA|1|097|Jackson|42.1552917|-90.8306938|04/30/1979|
456360|Emerson|Populated Place|25500|P1|2750|192750129|19|IA|1|129|Mills|41.0172179|-95.4022179|04/30/1979|03/20/2008
456367|Emery|Populated Place|25545|U6|||19|IA|1|033|Cerro Gordo|43.1335714|-93.2802045|04/30/1979|
456375|Emmetsburg|Populated Place|25590|P1|2760|192760147|19|IA|1|147|Palo Alto|43.1127427|-94.6830357|04/30/1979|03/20/2008
456382|Enterprise|Populated Place|25680|U6|||19|IA|1|153|Polk|41.7319325|-93.530215|04/30/1979|
456385|Epworth|Populated Place|25725|P1|2770|192770061|19|IA|1|061|Dubuque|42.4450016|-90.9320766|04/30/1979|03/20/2008
456393|Essex|Populated Place|25815|P1|2780|192780145|19|IA|1|145|Page|40.8336066|-95.3083218|04/30/1979|03/20/2008
456397|Estherville|Populated Place|25860|P1|2790|192790063|19|IA|1|063|Emmet|43.4016255|-94.832764|04/30/1979|03/20/2008
456407|Evans|Populated Place|25950|U6|||19|IA|1|123|Mahaska|41.3027819|-92.7271392|04/30/1979|
456412|Evansdale|Populated Place|25995|P1|2800|192800013|19|IA|1|013|Black Hawk|42.4691543|-92.281017|04/30/1979|03/20/2008
456414|Evanston|Populated Place|26085|U6|||19|IA|1|187|Webster|42.4341377|-94.0577326|04/30/1979|
456447|Everly|Populated Place|26175|P1|2810|192810041|19|IA|1|041|Clay|43.1599712|-95.3275015|04/30/1979|03/20/2008
456449|Ewart|Populated Place|26220|U6|2815|192815157|19|IA|1|157|Poweshiek|41.641109|-92.6104663|04/30/1979|
456456|Exira|Populated Place|26265|P1|2820|192820009|19|IA|1|009|Audubon|41.5908207|-94.8755397|04/30/1979|03/20/2008
456457|Exline|Populated Place|26310|P1|2830|192830007|19|IA|1|007|Appanoose|40.6491835|-92.8404762|04/30/1979|03/20/2008
456462|Fairbank|Populated Place|26355|P1|2840|192840019|19|IA|1|019|Buchanan|42.6391512|-92.0471199|04/30/1979|03/20/2008
456462|Fairbank|Populated Place|26355|P1|2840|192840065|19|IA|2|065|Fayette|42.6391512|-92.0471199|04/30/1979|03/20/2008
456463|Fairfax|Populated Place|26400|P1|2850|192850113|19|IA|1|113|Linn|41.9194471|-91.7810132|04/30/1979|03/20/2008
456465|Fairfield|Populated Place|26445|P1|2860|192860101|19|IA|1|101|Jefferson|41.0086312|-91.9626727|04/30/1979|03/20/2008
456474|Fairport|Populated Place|26580|U6|||19|IA|1|139|Muscatine|41.4358633|-90.9045905|04/30/1979|
456476|Fairview|Populated Place|26625|U6|||19|IA|1|105|Jones|42.0780592|-91.3298854|04/30/1979|
456477|Fairview|Populated Place|26615|U6|||19|IA|1|043|Clayton|42.683879|-91.2165217|04/30/1979|
456526|Fairville|Populated Place|26645|U6|||19|IA|1|147|Palo Alto|43.1560758|-94.4633073|04/30/1979|
456536|Farmersburg|Populated Place|26850|P1|2880|192880043|19|IA|1|043|Clayton|42.9610957|-91.3679144|04/30/1979|03/20/2008
456538|Fanslers|Populated Place|26715|U6|||19|IA|1|077|Guthrie|41.7494307|-94.4558032|04/30/1979|
456539|Farley|Populated Place|26760|P1|2870|192870061|19|IA|1|061|Dubuque|42.4427782|-91.0062451|04/30/1979|03/20/2008
456541|Farlin|Populated Place|26805|U6|||19|IA|1|073|Greene|42.0763716|-94.4485823|04/30/1979|
456553|Farmington|Populated Place|26895|P1|2890|192890177|19|IA|1|177|Van Buren|40.6403124|-91.7429429|04/30/1979|03/20/2008
456555|Farnhamville|Populated Place|26940|P1|2900|192900025|19|IA|1|025|Calhoun|42.2760896|-94.403859|04/30/1979|03/20/2008
456556|Farragut|Populated Place|26985|P1|2910|192910071|19|IA|1|071|Fremont|40.7219441|-95.480823|04/30/1979|03/20/2008
456558|Farrar|Populated Place|27030|U6|||19|IA|1|153|Polk|41.8058213|-93.3699313|04/30/1979|
456559|Farson|Populated Place|27075|U6|||19|IA|1|179|Wapello|41.122237|-92.2551818|04/30/1979|
456560|Faulkner|Populated Place|27120|U6|||19|IA|1|069|Franklin|42.6152547|-93.086033|04/30/1979|
456562|Fayette|Populated Place|27165|P1|2920|192920065|19|IA|1|065|Fayette|42.8419255|-91.8021071|04/30/1979|03/20/2008
456571|Fenton|Populated Place|27210|P1|2930|192930109|19|IA|1|109|Kossuth|43.2196851|-94.4305282|04/30/1979|03/20/2008
456573|Ferguson|Populated Place|27255|P1|2940|192940127|19|IA|1|127|Marshall|41.936934|-92.8657529|04/30/1979|03/20/2008
456576|Fern|Populated Place|27300|U6|||19|IA|1|075|Grundy|42.4847034|-92.7704756|04/30/1979|
456578|Fernald|Populated Place|27345|U6|||19|IA|1|169|Story|42.0708202|-93.3949319|04/30/1979|
456580|Fertile|Populated Place|27390|P1|2950|192950195|19|IA|1|195|Worth|43.2644001|-93.418263|04/30/1979|03/20/2008
456582|Festina|Populated Place|27435|U6|||19|IA|1|191|Winneshiek|43.1194193|-91.8671053|04/30/1979|
456587|Fillmore|Populated Place|27525|U6|||19|IA|1|061|Dubuque|42.319173|-90.9168026|04/30/1979|
456590|Finchford|Populated Place|27570|U6|||19|IA|1|013|Black Hawk|42.6272039|-92.5437998|04/30/1979|
456591|Findley|Populated Place|27590|U6|||19|IA|1|085|Harrison|41.5286038|-95.8791771|04/30/1979|
456611|Fiscus|Populated Place|27660|U6|||19|IA|1|165|Shelby|41.7388756|-95.0930476|04/30/1979|
456611|Fiscus|Populated Place|27660|U6|||19|IA|2|009|Audubon|41.7388756|-95.0930476|04/30/1979|
456643|Florenceville|Populated Place|27930|U6|||19|IA|1|089|Howard|43.4991326|-92.1326644|04/30/1979|
456644|Floris|Populated Place|27975|P1|2960|192960051|19|IA|1|051|Davis|40.8650192|-92.3329613|04/30/1979|03/20/2008
456646|Floyd|Populated Place|28020|P1|2970|192970067|19|IA|1|067|Floyd|43.1277502|-92.7363031|04/30/1979|03/20/2008
456655|Folletts|Populated Place|28155|U6|||19|IA|1|045|Clinton|41.7486423|-90.3548536|04/30/1979|
456657|Fonda|Populated Place|28245|P1|2980|192980151|19|IA|1|151|Pocahontas|42.5813667|-94.8460957|04/30/1979|03/20/2008
456661|Fontanelle|Populated Place|28290|P1|2990|192990001|19|IA|1|001|Adair|41.2897097|-94.561636|04/30/1979|03/20/2008
456667|Forest City|Populated Place|28380|P1|3000|193000189|19|IA|1|189|Winnebago|43.2624559|-93.6371591|04/30/1979|03/20/2008
456667|Forest City|Populated Place|28380|P1|3000|193000081|19|IA|2|081|Hancock|43.2624559|-93.6371591|04/30/1979|03/20/2008
456681|Fort Atkinson|Populated Place|28425|P1|3010|193010191|19|IA|1|191|Winneshiek|43.1433068|-91.9326637|04/30/1979|03/20/2008
456684|Fort Des Moines|Populated Place|28470|U4|3015|193015153|19|IA|1|153|Polk|41.5202677|-93.6157731|04/30/1979|
456686|Fort Dodge|Populated Place|28515|P1|3020|193020187|19|IA|1|187|Webster|42.4974694|-94.1680158|04/30/1979|03/20/2008
456689|Fort Madison|Populated Place|28605|P1|3030|193030111|19|IA|1|111|Lee|40.6297632|-91.3151506|04/30/1979|03/20/2008
456691|Foster|Populated Place|28640|U6|||19|IA|1|135|Monroe|40.932789|-92.7574166|04/30/1979|
456695|Fostoria|Populated Place|28650|P1|3040|193040041|19|IA|1|041|Clay|43.2421877|-95.1555519|04/30/1979|03/20/2008
456723|Franklin|Populated Place|28740|P1|3050|193050111|19|IA|1|111|Lee|40.6680932|-91.5112673|04/30/1979|03/20/2008
456746|Frankville|Populated Place|28875|U6|||19|IA|1|191|Winneshiek|43.1891434|-91.6173691|04/30/1979|
456747|Fraser|Populated Place|28920|P1|3060|193060015|19|IA|1|015|Boone|42.1272019|-93.9649523|04/30/1979|03/20/2008
456750|Fredericksburg|Populated Place|28965|P1|3070|193070037|19|IA|1|037|Chickasaw|42.9652548|-92.1996196|04/30/1979|03/20/2008
456752|Frederika|Populated Place|29010|P1|3080|193080017|19|IA|1|017|Bremer|42.8816454|-92.3082344|04/30/1979|03/20/2008
456753|Fredonia|Populated Place|29055|P1|3090|193090115|19|IA|1|115|Louisa|41.2847478|-91.3387659|04/30/1979|03/20/2008
456755|Fredsville|Populated Place|29075|U6|||19|IA|1|075|Grundy|42.4841501|-92.574081|04/30/1979|
456760|Freeport|Populated Place|29145|U6|||19|IA|1|191|Winneshiek|43.3021951|-91.7434849|04/30/1979|
456761|Fremont|Populated Place|29190|P1|3100|193100123|19|IA|1|123|Mahaska|41.2125116|-92.4354648|04/30/1979|03/20/2008
456790|Frith Spur|Populated Place|29205|U6|||19|IA|1|061|Dubuque|42.5497228|-90.7017939|04/30/1979|
456791|Froelich|Populated Place|29235|U6|||19|IA|1|043|Clayton|43.0066511|-91.3218011|04/30/1979|
456796|Fruitland|Populated Place|29280|P1|3106|193106139|19|IA|1|139|Muscatine|41.3561393|-91.1293172|04/30/1979|03/20/2008
456803|Fulton|Populated Place|29370|U6|||19|IA|1|097|Jackson|42.1536279|-90.6781895|04/30/1979|
456811|Galesburg|Populated Place|29460|U6|||19|IA|1|099|Jasper|41.5588831|-92.9463078|04/30/1979|
456813|Galt|Populated Place|29550|P1|3110|193110197|19|IA|1|197|Wright|42.6935845|-93.6054878|04/30/1979|03/20/2008
456815|Galva|Populated Place|29595|P1|3120|193120093|19|IA|1|093|Ida|42.5069289|-95.4172221|04/30/1979|03/20/2008
456820|Garber|Populated Place|29685|P1|3130|193130043|19|IA|1|043|Clayton|42.7419328|-91.2620768|04/30/1979|03/20/2008
456822|Garden City|Populated Place|29730|U5|3138|193138083|19|IA|1|083|Hardin|42.2455406|-93.3954865|04/30/1979|01/29/2011
456823|Garden Grove|Populated Place|29775|P1|3140|193140053|19|IA|1|053|Decatur|40.8272245|-93.6071621|04/30/1979|03/20/2008
456828|Gardiner|Populated Place|29820|U6|||19|IA|1|049|Dallas|41.82443|-94.0280102|04/30/1979|
456829|Gardner|Populated Place|29830|U6|||19|IA|1|009|Audubon|41.6744309|-94.7638697|04/30/1979|
456844|Garnavillo|Populated Place|29910|P1|3150|193150043|19|IA|1|043|Clayton|42.8685981|-91.2359644|04/30/1979|03/20/2008
456845|Garner|Populated Place|29955|P1|3160|193160081|19|IA|1|081|Hancock|43.1024603|-93.6018782|04/30/1979|03/20/2008
456852|Garretville|Populated Place|29975|U6|||19|IA|1|049|Dallas|41.5174887|-94.0799544|04/30/1979|
456854|Garrison|Populated Place|30000|P1|3170|193170011|19|IA|1|011|Benton|42.1441612|-92.1437942|04/30/1979|03/20/2008
456857|Garwin|Populated Place|30045|P1|3180|193180171|19|IA|1|171|Tama|42.0935999|-92.6757524|04/30/1979|03/20/2008
456864|Gaza|Populated Place|30090|U6|3185|193185141|19|IA|1|141|O'Brien|43.0202555|-95.5800079|04/30/1979|
456868|Geneva|Populated Place|30135|P1|3190|193190069|19|IA|1|069|Franklin|42.6755308|-93.1293667|04/30/1979|03/20/2008
456873|George|Populated Place|30225|P1|3200|193200119|19|IA|1|119|Lyon|43.3438624|-96.0022431|04/30/1979|03/20/2008
456877|Georgetown|Populated Place|30270|U6|||19|IA|1|135|Monroe|41.012783|-92.9551998|04/30/1979|
456885|German Valley|Populated Place|30405|U6|||19|IA|1|109|Kossuth|43.2699609|-94.0293995|04/30/1979|
456886|Germantown|Populated Place|30360|U6|||19|IA|1|141|O'Brien|42.953317|-95.7808457|04/30/1979|
456893|Giard|Populated Place|30495|U6|||19|IA|1|043|Clayton|43.0055403|-91.2892995|04/30/1979|
456895|Gibson|Populated Place|30540|P1|3206|193206107|19|IA|1|107|Keokuk|41.4811167|-92.3935181|04/30/1979|03/20/2008
456897|Gifford|Populated Place|30585|U6|||19|IA|1|083|Hardin|42.2883174|-93.0904802|04/30/1979|
456899|Gilbert|Populated Place|30630|P1|3210|193210169|19|IA|1|169|Story|42.1069288|-93.6496628|04/30/1979|03/20/2008
456900|Gilbertville|Populated Place|30675|P1|3220|193220013|19|IA|1|013|Black Hawk|42.4161001|-92.2149046|04/30/1979|06/16/2011
456902|Gilman|Populated Place|30900|P1|3230|193230127|19|IA|1|127|Marshall|41.8788799|-92.7893617|04/30/1979|03/20/2008
456906|Gilmore City|Populated Place|30945|P1|3240|193240091|19|IA|1|091|Humboldt|42.7294176|-94.4477507|04/30/1979|03/20/2008
456906|Gilmore City|Populated Place|30945|P1|3240|193240151|19|IA|2|151|Pocahontas|42.7294176|-94.4477507|04/30/1979|03/20/2008
456914|Gladbrook|Populated Place|31035|P1|3250|193250171|19|IA|1|171|Tama|42.1877647|-92.715199|04/30/1979|03/20/2008
456915|Gladstone|Populated Place|31080|U6|||19|IA|1|171|Tama|41.9638816|-92.4974124|04/30/1979|
456918|Glasgow|Populated Place|31215|U6|||19|IA|1|101|Jefferson|40.9408583|-91.7804453|04/30/1979|
456926|Glendon|Populated Place|31305|U6|||19|IA|1|077|Guthrie|41.5944316|-94.4021888|04/30/1979|
456928|Glenwood|Populated Place|31350|P1|3260|193260129|19|IA|1|129|Mills|41.0469437|-95.7425056|04/30/1979|03/20/2008
456935|Glidden|Populated Place|31395|P1|3270|193270027|19|IA|1|027|Carroll|42.0569297|-94.72887|04/30/1979|03/20/2008
456961|Goodell|Populated Place|31575|P1|3290|193290081|19|IA|1|081|Hancock|42.9230219|-93.6163218|04/30/1979|03/20/2008
456975|Goose Lake|Populated Place|31665|P1|3300|193300045|19|IA|1|045|Clinton|41.9675262|-90.3829093|04/30/1979|06/16/2011
456991|Gowrie|Populated Place|31710|P1|3310|193310187|19|IA|1|187|Webster|42.2805316|-94.2907991|04/30/1979|03/20/2008
456995|Grace Hill|Populated Place|31755|U6|||19|IA|1|183|Washington|41.2636259|-91.8298936|04/30/1979|
457009|Graettinger|Populated Place|31800|P1|3320|193320147|19|IA|1|147|Palo Alto|43.2377381|-94.7513713|04/30/1979|03/20/2008
457010|Graf|Populated Place|31845|P1|3330|193330061|19|IA|1|061|Dubuque|42.4930565|-90.8712406|04/30/1979|03/20/2008
457012|Grafton|Populated Place|31890|P1|3340|193340195|19|IA|1|195|Worth|43.3299641|-93.0693679|04/30/1979|03/20/2008
457019|Grand Junction|Populated Place|31980|P1|3350|193350073|19|IA|1|073|Greene|42.0316483|-94.2407967|04/30/1979|03/20/2008
457024|Grand Mound|Populated Place|32025|P1|3360|193360045|19|IA|1|045|Clinton|41.8241937|-90.6479174|04/30/1979|03/20/2008
457027|Grand River|Populated Place|32070|P1|3370|193370053|19|IA|1|053|Decatur|40.8194405|-93.9624481|04/30/1979|03/20/2008
457030|Grandview|Populated Place|32115|P1|3380|193380115|19|IA|1|115|Louisa|41.2758617|-91.1884837|04/30/1979|03/20/2008
457046|Granger|Populated Place|32160|P1|3390|193390049|19|IA|1|049|Dallas|41.7610984|-93.8243924|04/30/1979|03/20/2008
457049|Granger Homesteads|Populated Place|32205|U6|||19|IA|1|049|Dallas|41.7644316|-93.8391151|04/30/1979|
457052|Grant|Populated Place|32295|P1|3400|193400137|19|IA|1|137|Montgomery|41.1427675|-94.9847084|04/30/1979|03/20/2008
457062|Grant City|Populated Place|32385|U6|||19|IA|1|161|Sac|42.2674833|-94.887764|04/30/1979|
457076|Granville|Populated Place|32475|P1|3410|193410167|19|IA|1|167|Sioux|42.9855403|-95.8736256|04/30/1979|03/20/2008
457083|Gravity|Populated Place|32520|P1|3420|193420173|19|IA|1|173|Taylor|40.7605426|-94.7435821|04/30/1979|03/20/2008
457084|Gray|Populated Place|32565|P1|3430|193430009|19|IA|1|009|Audubon|41.8394303|-94.9830448|04/30/1979|03/20/2008
457092|Greeley|Populated Place|32610|P1|3440|193440055|19|IA|1|055|Delaware|42.5858221|-91.3415286|04/30/1979|03/20/2008
457094|Green Acres|Populated Place|32655|U4|||19|IA|1|163|Scott|41.5700316|-90.6101382|04/30/1979|
457098|Green Castle|Populated Place|32700|U6|||19|IA|1|099|Jasper|41.7460992|-93.261594|04/30/1979|
457102|Green Island|Populated Place|32880|U6|3470|193470097|19|IA|1|097|Jackson|42.1536311|-90.3220739|04/30/1979|
457106|Green Mountain|Populated Place|32925|U5|3475|193475127|19|IA|1|127|Marshall|42.1016542|-92.8204774|04/30/1979|01/29/2011
457119|Greene|Populated Place|32745|P1|3450|193450023|19|IA|1|023|Butler|42.8958066|-92.8024158|04/30/1979|03/20/2008
457121|Greenfield|Populated Place|32790|P1|3460|193460001|19|IA|1|001|Adair|41.3052657|-94.4613543|04/30/1979|03/20/2008
457148|Grimes|Populated Place|33060|P1|3490|193490153|19|IA|1|153|Polk|41.6883214|-93.7910575|04/30/1979|03/20/2008
457150|Grinnell|Populated Place|33105|P1|3500|193500157|19|IA|1|157|Poweshiek|41.7430494|-92.7224124|04/30/1979|03/20/2008
457153|Griswold|Populated Place|33150|P1|3510|193510029|19|IA|1|029|Cass|41.234991|-95.1374929|04/30/1979|03/20/2008
457172|Grundy Center|Populated Place|33195|P1|3520|193520075|19|IA|1|075|Grundy|42.3616501|-92.7685327|04/30/1979|03/20/2008
457174|Gruver|Populated Place|33240|P1|3530|193530063|19|IA|1|063|Emmet|43.3932914|-94.7052598|04/30/1979|03/20/2008
457176|Guernsey|Populated Place|33285|P1|3540|193540157|19|IA|1|157|Poweshiek|41.6486132|-92.342684|04/30/1979|03/20/2008
457180|Gunder|Populated Place|33330|U6|||19|IA|1|043|Clayton|42.9716497|-91.5131994|04/30/1979|
457183|Williamson|Populated Place|85935|P1|9152|199152117|19|IA|1|117|Lucas|41.0877765|-93.2549305|04/30/1979|03/20/2008
457185|Guthrie Center|Populated Place|33420|P1|3550|193550077|19|IA|1|077|Guthrie|41.6772087|-94.5033044|04/30/1979|03/20/2008
457187|Guttenberg|Populated Place|33465|P1|3560|193560043|19|IA|1|043|Clayton|42.7858231|-91.0995735|04/30/1979|10/18/2009
457199|Halbur|Populated Place|33645|P1|3570|193570027|19|IA|1|027|Carroll|42.0069297|-94.9699895|04/30/1979|03/20/2008
457200|Hale|Populated Place|33690|U6|3572|193572105|19|IA|1|105|Jones|42.0125136|-91.0593188|04/30/1979|
457204|Halfa|Populated Place|33735|U6|||19|IA|1|063|Emmet|43.3519039|-94.5419215|04/30/1979|
457215|Hamburg|Populated Place|33780|P1|3580|193580071|19|IA|1|071|Fremont|40.6044458|-95.6577711|04/30/1979|03/20/2008
457217|Hamilton|Populated Place|33870|P1|3590|193590125|19|IA|1|125|Marion|41.1691699|-92.903255|04/30/1979|03/20/2008
457221|Hamlin|Populated Place|33915|U6|3595|193595009|19|IA|1|009|Audubon|41.6669313|-94.905819|04/30/1979|
457225|Hampton|Populated Place|33960|P1|3600|193600069|19|IA|1|069|Franklin|42.7419176|-93.2024233|04/30/1979|03/20/2008
457227|Hancock|Populated Place|34005|P1|3610|193610155|19|IA|1|155|Pottawattamie|41.3899916|-95.3624997|04/30/1979|03/20/2008
457228|Hanford|Populated Place|34095|U6|||19|IA|1|033|Cerro Gordo|43.0741321|-93.1415905|04/30/1979|
457230|Hanley|Populated Place|34140|U6|||19|IA|1|121|Madison|41.2880478|-93.8341116|04/30/1979|
457231|Hanlontown|Populated Place|34185|P1|3620|193620195|19|IA|1|195|Worth|43.2802338|-93.3788179|04/30/1979|03/20/2008
457236|Hansell|Populated Place|34365|P1|3630|193630069|19|IA|1|069|Franklin|42.7577508|-93.1040877|04/30/1979|03/20/2008
457242|Harcourt|Populated Place|34410|P1|3640|193640187|19|IA|1|187|Webster|42.2627534|-94.1757943|04/30/1979|03/20/2008
457244|Hard Scratch|Populated Place|34440|U6|||19|IA|1|085|Harrison|41.6133239|-95.7141742|04/30/1979|
457246|Hardin|Populated Place|34425|U6|||19|IA|1|043|Clayton|43.0802589|-91.4843083|04/30/1979|
457257|Hardy|Populated Place|34455|P1|3650|193650091|19|IA|1|091|Humboldt|42.8105258|-94.0513432|04/30/1979|03/20/2008
457259|Harlan|Populated Place|34500|P1|3660|193660165|19|IA|1|165|Shelby|41.653044|-95.3255541|04/30/1979|03/20/2008
457273|Harper|Populated Place|34545|P1|3670|193670107|19|IA|1|107|Keokuk|41.3625116|-92.0510106|04/30/1979|03/20/2008
457276|Harpers Ferry|Populated Place|34590|P1|3680|193680005|19|IA|1|005|Allamakee|43.2005358|-91.1531852|04/30/1979|03/20/2008
457280|Harris|Populated Place|34635|P1|3690|193690143|19|IA|1|143|Osceola|43.4452434|-95.4341709|04/30/1979|03/20/2008
457284|Harrisburg|Populated Place|34645|U6|||19|IA|1|177|Van Buren|40.7705856|-91.7771106|04/30/1979|
457295|Hartford|Populated Place|34680|P1|3700|193700181|19|IA|1|181|Warren|41.4594355|-93.4049333|04/30/1979|03/20/2008
457297|Hartley|Populated Place|34725|P1|3710|193710141|19|IA|1|141|O'Brien|43.1799725|-95.4769513|04/30/1979|03/20/2008
457304|Hartwick|Populated Place|34770|P1|3720|193720157|19|IA|1|157|Poweshiek|41.7847209|-92.3435179|04/30/1979|03/20/2008
457306|Harvard|Populated Place|34815|U6|||19|IA|1|185|Wayne|40.6900068|-93.2693781|04/30/1979|
457308|Harvey|Populated Place|34860|P1|3730|193730125|19|IA|1|125|Marion|41.315833|-92.9240884|04/30/1979|03/20/2008
457309|Haskins|Populated Place|34905|U6|||19|IA|1|183|Washington|41.3280766|-91.5368283|04/30/1979|
457311|Hastings|Populated Place|34995|P1|3740|193740129|19|IA|1|129|Mills|41.022775|-95.499165|04/30/1979|03/20/2008
457317|Hauntown|Populated Place|35085|U6|||19|IA|1|045|Clinton|42.0008595|-90.1990173|04/30/1979|
457320|Havelock|Populated Place|35130|P1|3750|193750151|19|IA|1|151|Pocahontas|42.8360833|-94.7005363|04/30/1979|03/20/2008
457321|Haven|Populated Place|35175|U6|||19|IA|1|171|Tama|41.891661|-92.4790772|04/30/1979|
457323|Haverhill|Populated Place|35220|P1|3755|193755127|19|IA|1|127|Marshall|41.9449889|-92.9607541|04/30/1979|03/20/2008
457324|Hawarden|Populated Place|35265|P1|3760|193760167|19|IA|1|167|Sioux|42.9958216|-96.4853085|04/30/1979|03/20/2008
457327|Hawkeye|Populated Place|35310|P1|3770|193770065|19|IA|1|065|Fayette|42.9385894|-91.9501687|04/30/1979|03/20/2008
457336|Hawleyville|Populated Place|35355|U6|||19|IA|1|145|Page|40.7766559|-94.9363663|04/30/1979|
457336|Hawleyville|Populated Place|35355|U6|||19|IA|2|173|Taylor|40.7766559|-94.9363663|04/30/1979|
457351|Hayesville|Populated Place|35445|P1|3780|193780107|19|IA|1|107|Keokuk|41.2644569|-92.2490711|04/30/1979|03/20/2008
457352|Hayfield|Populated Place|35490|U5|3779|193779081|19|IA|1|081|Hancock|43.1766254|-93.6952163|04/30/1979|01/29/2011
457370|Hazleton|Populated Place|35580|P1|3790|193790019|19|IA|1|019|Buchanan|42.6208177|-91.9001703|04/30/1979|06/16/2011
457375|Hedrick|Populated Place|35670|P1|3800|193800107|19|IA|1|107|Keokuk|41.1725134|-92.3087945|04/30/1979|03/20/2008
457393|Henderson|Populated Place|35715|P1|3810|193810129|19|IA|1|129|Mills|41.1405507|-95.43111|04/30/1979|03/20/2008
457401|Hepburn|Populated Place|35760|P1|3820|193820145|19|IA|1|145|Page|40.8491568|-95.0172036|04/30/1979|03/20/2008
457403|Herndon|Populated Place|35805|U6|||19|IA|1|077|Guthrie|41.8455408|-94.3494109|04/30/1979|
457405|Hesper|Populated Place|35895|U6|||19|IA|1|191|Winneshiek|43.4863573|-91.7684842|04/30/1979|
457417|Hiattsville|Populated Place|35920|U6|||19|IA|1|007|Appanoose|40.827235|-92.810474|04/30/1979|
457418|Hiawatha|Populated Place|35940|P1|3825|193825113|19|IA|1|113|Linn|42.0358316|-91.6821238|04/30/1979|03/20/2008
457445|High Amana|Populated Place|36030|U5|||19|IA|1|095|Iowa|41.8033392|-91.9382346|04/30/1979|01/29/2011
457469|Highland Center|Populated Place|36120|U6|3828|193828179|19|IA|1|179|Wapello|41.1264025|-92.3532399|04/30/1979|
457486|Highlandville|Populated Place|36210|U6|||19|IA|1|191|Winneshiek|43.4421928|-91.6684805|04/30/1979|
457487|Highview|Populated Place|36300|U6|||19|IA|1|079|Hamilton|42.4719164|-93.9041138|04/30/1979|
457499|Hills|Populated Place|36345|P1|3830|193830103|19|IA|1|103|Johnson|41.5541855|-91.5348875|04/30/1979|03/20/2008
457502|Hillsboro|Populated Place|36390|P1|3840|193840087|19|IA|1|087|Henry|40.8366959|-91.7157202|04/30/1979|03/20/2008
457521|Hinton|Populated Place|36480|P1|3850|193850149|19|IA|1|149|Plymouth|42.6277701|-96.2916927|04/30/1979|03/20/2008
457523|Hiteman|Populated Place|36525|U6|||19|IA|1|135|Monroe|41.0588945|-92.8921428|04/30/1979|
457529|Hocking|Populated Place|36590|U6|||19|IA|1|135|Monroe|40.9908417|-92.8204738|04/30/1979|
457555|Holland|Populated Place|36705|P1|3860|193860075|19|IA|1|075|Grundy|42.3988715|-92.8004769|04/30/1979|03/20/2008
457562|Holly Springs|Populated Place|36750|U6|||19|IA|1|193|Woodbury|42.2705466|-96.0777942|04/30/1979|
457564|Holmes|Populated Place|36795|U6|3863|193863197|19|IA|1|197|Wright|42.7391382|-93.8338305|04/30/1979|
457567|Holstein|Populated Place|36840|P1|3870|193870093|19|IA|1|093|Ida|42.4891531|-95.545003|04/30/1979|03/20/2008
457572|Holy Cross|Populated Place|36885|P1|3880|193880061|19|IA|1|061|Dubuque|42.6005516|-90.9956855|04/30/1979|03/20/2008
457596|Homestead|Populated Place|36975|U5|3882|193882095|19|IA|1|095|Iowa|41.7594532|-91.8671215|04/30/1979|01/29/2011
457651|Hopeville|Populated Place|37110|U6|||19|IA|1|039|Clarke|40.9427717|-93.996615|04/30/1979|
457659|Hopkinton|Populated Place|37155|P1|3890|193890055|19|IA|1|055|Delaware|42.3438857|-91.2484799|04/30/1979|03/20/2008
457662|Hornick|Populated Place|37200|P1|3900|193900193|19|IA|1|193|Woodbury|42.2305463|-96.097517|04/30/1979|03/20/2008
457672|Horton|Populated Place|37245|U6|||19|IA|1|017|Bremer|42.8474786|-92.4754613|04/30/1979|
457678|Hospers|Populated Place|37290|P1|3910|193910167|19|IA|1|167|Sioux|43.0719269|-95.9044607|04/30/1979|03/20/2008
457683|Houghton|Populated Place|37335|P1|3913|193913111|19|IA|1|111|Lee|40.7836439|-91.6029375|04/30/1979|03/20/2008
457702|Hubbard|Populated Place|37425|P1|3920|193920083|19|IA|1|083|Hardin|42.3055396|-93.3002055|04/30/1979|03/20/2008
457710|Hudson|Populated Place|37470|P1|3930|193930013|19|IA|1|013|Black Hawk|42.406653|-92.4554671|04/30/1979|03/20/2008
457713|Hull|Populated Place|37515|P1|3940|193940167|19|IA|1|167|Sioux|43.1885919|-96.1336329|04/30/1979|03/20/2008
457717|Humboldt|Populated Place|37560|P1|3950|193950091|19|IA|1|091|Humboldt|42.7208047|-94.2152402|04/30/1979|03/20/2008
457720|Humeston|Populated Place|37605|P1|3960|193960185|19|IA|1|185|Wayne|40.858892|-93.4974371|04/30/1979|03/20/2008
457730|Huntington|Populated Place|37650|U6|||19|IA|1|063|Emmet|43.4916239|-94.79193|04/30/1979|
457733|Hurley|Populated Place|37695|U6|||19|IA|1|033|Cerro Gordo|43.0091313|-93.2313145|04/30/1979|
457734|Huron|Populated Place|37740|U6|||19|IA|1|057|Des Moines|41.036702|-91.0340335|04/30/1979|
457736|Hurstville|Populated Place|37785|U6|3970|193970097|19|IA|1|097|Jackson|42.0975187|-90.6831911|04/30/1979|
457742|Iconium|Populated Place|37965|U6|||19|IA|1|007|Appanoose|40.8913969|-92.9552004|04/30/1979|
457744|Ida Grove|Populated Place|38010|P1|3990|193990093|19|IA|1|093|Ida|42.3449871|-95.4716666|04/30/1979|03/20/2008
457781|Imogene|Populated Place|38055|P1|4000|194000071|19|IA|1|071|Fremont|40.8794417|-95.4269371|04/30/1979|03/20/2008
457782|Independence|Populated Place|38100|P1|4010|194010019|19|IA|1|019|Buchanan|42.4685978|-91.8893386|04/30/1979|03/20/2008
457810|Indianola|Populated Place|38280|P1|4020|194020181|19|IA|1|181|Warren|41.3580484|-93.5574376|04/30/1979|03/20/2008
457821|Inwood|Populated Place|38415|P1|4030|194030119|19|IA|1|119|Lyon|43.3072022|-96.4319799|04/30/1979|03/20/2008
457823|Iowa Center|Populated Place|38550|U6|||19|IA|1|169|Story|41.9285989|-93.4052104|04/30/1979|
457827|Iowa City|Populated Place|38595|P1|4050|194050103|19|IA|1|103|Johnson|41.6611277|-91.5301683|04/30/1979|03/20/2008
457829|Iowa Falls|Populated Place|38640|P1|4060|194060083|19|IA|1|083|Hardin|42.5224799|-93.2513141|04/30/1979|03/20/2008
457849|Ira|Populated Place|38775|U6|||19|IA|1|099|Jasper|41.7777662|-93.2057587|04/30/1979|
457850|Ireton|Populated Place|38820|P1|4070|194070167|19|IA|1|167|Sioux|42.97471|-96.3183585|04/30/1979|03/20/2008
457852|Ironhills|Populated Place|38865|U6|||19|IA|1|097|Jackson|42.1416824|-90.7698587|04/30/1979|
457854|Irving|Populated Place|38910|U6|||19|IA|1|011|Benton|41.9483291|-92.2951857|04/30/1979|
457862|Irvington|Populated Place|38955|U5|4075|194075109|19|IA|1|109|Kossuth|43.0074676|-94.1955173|04/30/1979|01/29/2011
457863|Irwin|Populated Place|39000|P1|4080|194080165|19|IA|1|165|Shelby|41.7916538|-95.2058286|04/30/1979|03/20/2008
457878|Iveyville|Populated Place|39075|U6|||19|IA|1|003|Adams|40.9008203|-94.795808|04/30/1979|
457878|Iveyville|Populated Place|39075|U6|||19|IA|2|173|Taylor|40.9008203|-94.795808|04/30/1979|
457893|Jackson Junction|Populated Place|39135|P1|||19|IA|1|191|Winneshiek|43.1149734|-92.0323907|04/30/1979|03/20/2008
457904|Jacksonville|Populated Place|39180|U5|||19|IA|1|165|Shelby|41.6452658|-95.1499935|04/30/1979|01/29/2011
457905|Jacksonville|Populated Place|39170|U6|||19|IA|1|037|Chickasaw|43.1194176|-92.2090618|04/30/1979|
457909|Jamaica|Populated Place|39225|P1|4100|194100077|19|IA|1|077|Guthrie|41.8460962|-94.3096871|04/30/1979|12/12/2014
457910|James|Populated Place|39270|U6|||19|IA|1|149|Plymouth|42.5769374|-96.3175269|04/30/1979|
457911|Jamison|Populated Place|39360|U6|||19|IA|1|039|Clarke|41.1216623|-93.7249413|04/30/1979|
457912|Janesville|Populated Place|39405|P1|4110|194110017|19|IA|1|017|Bremer|42.6460934|-92.4629637|04/30/1979|03/20/2008
457912|Janesville|Populated Place|39405|P1|4110|194110013|19|IA|2|013|Black Hawk|42.6460934|-92.4629637|04/30/1979|03/20/2008
457919|Jefferson|Populated Place|39450|P1|4120|194120073|19|IA|1|073|Greene|42.0152609|-94.3774684|04/30/1979|03/20/2008
457944|Jerico|Populated Place|39495|U6|||19|IA|1|037|Chickasaw|43.1846939|-92.2585065|01/01/2000|
457945|Jerome|Populated Place|39540|U6|||19|IA|1|007|Appanoose|40.7188993|-93.0282596|04/30/1979|
457950|Jesup|Populated Place|39585|P1|4130|194130019|19|IA|1|019|Buchanan|42.475543|-92.0637884|04/30/1979|03/20/2008
457951|Jewell|Populated Place|39630|C4|4140|194140079|19|IA|1|079|Hamilton|42.3069254|-93.6402159|04/30/1979|
457978|Johnston|Populated Place|39765|P1|4146|194146153|19|IA|1|153|Polk|41.673044|-93.697721|04/30/1979|03/20/2008
457979|Joice|Populated Place|39855|P1|4150|194150195|19|IA|1|195|Worth|43.362733|-93.4538203|04/30/1979|03/20/2008
457983|Jolley|Populated Place|39900|P1|4160|194160025|19|IA|1|025|Calhoun|42.4788677|-94.7188696|04/30/1979|03/20/2008
457993|Jordan|Populated Place|39945|U6|||19|IA|1|015|Boone|42.0491506|-93.7841128|04/30/1979|
458017|Kalo|Populated Place|40125|U6|||19|IA|1|187|Webster|42.4310822|-94.131903|04/30/1979|
458018|Kalona|Populated Place|40170|P1|4170|194170183|19|IA|1|183|Washington|41.4830723|-91.7060016|04/30/1979|03/20/2008
458020|Kamrar|Populated Place|40215|P1|4180|194180079|19|IA|1|079|Hamilton|42.3921997|-93.7293846|04/30/1979|03/20/2008
458021|Kanawha|Populated Place|40260|P1|4190|194190081|19|IA|1|081|Hancock|42.9377443|-93.7932746|04/30/1979|03/20/2008
458029|Kellerton|Populated Place|40350|P1|4200|194200159|19|IA|1|159|Ringgold|40.7108291|-94.0499506|04/30/1979|03/20/2008
458030|Kelley|Populated Place|40395|P1|4210|194210169|19|IA|1|169|Story|41.950542|-93.66522|04/30/1979|03/20/2008
458031|Kellogg|Populated Place|40440|P1|4220|194220099|19|IA|1|099|Jasper|41.7180477|-92.9074162|04/30/1979|03/20/2008
458041|Kendallville|Populated Place|40530|U6|||19|IA|1|191|Winneshiek|43.4394114|-92.0362737|04/30/1979|
458045|Kensett|Populated Place|40665|P1|4230|194230195|19|IA|1|195|Worth|43.3535696|-93.2104815|04/30/1979|03/20/2008
458048|Kent|Populated Place|40710|U5|4240|194240175|19|IA|1|175|Union|40.9524887|-94.4544057|04/30/1979|01/29/2011
458054|Keokuk|Populated Place|40845|P1|4250|194250111|19|IA|1|111|Lee|40.3972664|-91.384874|04/30/1979|03/20/2008
458057|Keosauqua|Populated Place|40935|P1|4260|194260177|19|IA|1|177|Van Buren|40.7303058|-91.9623949|04/30/1979|04/07/2014
458058|Keota|Populated Place|40980|P1|4270|194270107|19|IA|1|107|Keokuk|41.3639015|-91.9537859|04/30/1979|12/12/2014
458060|Kesley|Populated Place|41025|U6|4276|194276023|19|IA|1|023|Butler|42.6624768|-92.9101967|04/30/1979|
458061|Keswick|Populated Place|41070|P1|4280|194280107|19|IA|1|107|Keokuk|41.4525084|-92.2393485|04/30/1979|03/20/2008
458063|Key West|Populated Place|41160|U6|||19|IA|1|061|Dubuque|42.4488938|-90.6840171|04/30/1979|
458064|Keystone|Populated Place|41115|P1|4290|194290011|19|IA|1|011|Benton|41.9983295|-92.1974066|04/30/1979|03/20/2008
458070|Kilbourn|Populated Place|41205|U6|||19|IA|1|177|Van Buren|40.8061367|-91.9698951|04/30/1979|05/03/2010
458072|Killduff|Populated Place|41250|U6|4297|194297099|19|IA|1|099|Jasper|41.6080496|-92.9046396|04/30/1979|
458078|Kimballton|Populated Place|41295|P1|4300|194300009|19|IA|1|009|Audubon|41.628599|-95.0730466|04/30/1979|03/20/2008
458081|King|Populated Place|41340|U6|||19|IA|1|061|Dubuque|42.4052852|-90.5917952|04/30/1979|
458095|Kingsley|Populated Place|41385|P1|4310|194310149|19|IA|1|149|Plymouth|42.588324|-95.9675165|04/30/1979|03/20/2008
458098|Kingston|Populated Place|41430|U6|||19|IA|1|057|Des Moines|40.9775364|-91.0404222|04/30/1979|
458099|Kinross|Populated Place|41475|P1|4320|194320107|19|IA|1|107|Keokuk|41.4608441|-91.9868424|04/30/1979|03/20/2008
458107|Kirkman|Populated Place|41520|P1|4330|194330165|19|IA|1|165|Shelby|41.7285986|-95.2652747|04/30/1979|03/20/2008
458108|Kirkville|Populated Place|41565|P1|4340|194340179|19|IA|1|179|Wapello|41.1455673|-92.5040772|04/30/1979|03/20/2008
458112|Kiron|Populated Place|41610|P1|4350|194350047|19|IA|1|047|Crawford|42.1955423|-95.327774|04/30/1979|03/20/2008
458123|Klemme|Populated Place|41655|P1|4360|194360081|19|IA|1|081|Hancock|43.0069077|-93.6029884|04/30/1979|03/20/2008
458125|Klinger|Populated Place|41700|U6|||19|IA|1|017|Bremer|42.6566509|-92.2193463|04/30/1979|
458131|Knierim|Populated Place|41790|P1|4370|194370025|19|IA|1|025|Calhoun|42.4555325|-94.456917|04/30/1979|03/20/2008
458132|Knoke|Populated Place|41880|U6|||19|IA|1|025|Calhoun|42.5169227|-94.7630376|04/30/1979|
458137|Knoxville|Populated Place|42015|P1|4380|194380125|19|IA|1|125|Marion|41.3208297|-93.1093708|04/30/1979|03/20/2008
458139|Konigsmark|Populated Place|42060|U6|||19|IA|1|113|Linn|41.890005|-91.6923999|04/30/1979|
458142|Kossuth|Populated Place|42105|U6|||19|IA|1|057|Des Moines|41.0105906|-91.1345917|04/30/1979|
458143|Koszta|Populated Place|42150|U6|||19|IA|1|095|Iowa|41.8272224|-92.205461|04/30/1979|
458155|La Motte|Populated Place|43050|P1|4490|194490097|19|IA|1|097|Jackson|42.2958455|-90.6209631|04/30/1979|06/16/2011
458156|La Porte City|Populated Place|43365|P1|4520|194520013|19|IA|1|013|Black Hawk|42.3149911|-92.1921275|04/30/1979|06/16/2011
458157|LaMoille|Populated Place|42915|U6|||19|IA|1|127|Marshall|42.0305432|-93.0385341|04/30/1979|
458162|Lacey|Populated Place|42240|U6|||19|IA|1|123|Mahaska|41.4008368|-92.6401913|04/30/1979|
458165|Lacona|Populated Place|42285|P1|4390|194390181|19|IA|1|181|Warren|41.1897188|-93.382989|04/30/1979|03/20/2008
458168|Ladora|Populated Place|42330|P1|4400|194400095|19|IA|1|095|Iowa|41.7547247|-92.1835156|04/30/1979|03/20/2008
458170|Lafayette|Populated Place|42375|U6|||19|IA|1|113|Linn|42.1469392|-91.6801755|04/30/1979|
458181|Lake City|Populated Place|42465|P1|4410|194410025|19|IA|1|025|Calhoun|42.2674828|-94.7338704|04/30/1979|03/20/2008
458192|Lake Mills|Populated Place|42555|P1|4420|194420189|19|IA|1|189|Winnebago|43.419399|-93.5332681|04/30/1979|03/20/2008
458193|Lake Park|Populated Place|42600|P1|4430|194430059|19|IA|1|059|Dickinson|43.45552|-95.3208337|04/30/1979|03/20/2008
458201|Lakeside|Populated Place|42645|P1|4440|194440021|19|IA|1|021|Buena Vista|42.6213691|-95.1733278|04/30/1979|03/20/2008
458205|Lakewood|Populated Place|42735|U6|||19|IA|1|181|Warren|41.5016567|-93.6741082|04/30/1979|
458207|Lakota|Populated Place|42825|P1|4460|194460109|19|IA|1|109|Kossuth|43.3771807|-94.0938478|04/30/1979|03/20/2008
458212|Lambs Grove|Populated Place|42870|P1|4465|194465099|19|IA|1|099|Jasper|41.7030459|-93.0793656|04/30/1979|03/20/2008
458214|Lamoni|Populated Place|42960|P1|4470|194470053|19|IA|1|053|Decatur|40.622777|-93.9341158|04/30/1979|03/20/2008
458215|Lamont|Populated Place|43005|P1|4480|194480019|19|IA|1|019|Buchanan|42.5985957|-91.6421006|04/30/1979|03/20/2008
458219|Lanesboro|Populated Place|43140|P1|4500|194500027|19|IA|1|027|Carroll|42.1844279|-94.6913689|04/30/1979|03/20/2008
458221|Langdon|Populated Place|43185|U6|||19|IA|1|041|Clay|43.2157984|-95.0880489|04/30/1979|
458223|Langworthy|Populated Place|43230|U6|4504|194504105|19|IA|1|105|Jones|42.1911136|-91.2240418|04/30/1979|
458225|Lansing|Populated Place|43275|P1|4510|194510005|19|IA|1|005|Allamakee|43.3621985|-91.2165203|04/30/1979|03/20/2008
458228|Lanyon|Populated Place|43320|U6|||19|IA|1|187|Webster|42.2224766|-94.1952395|04/30/1979|
458230|Larchwood|Populated Place|43410|P1|4530|194530119|19|IA|1|119|Lyon|43.4535862|-96.434205|04/30/1979|03/20/2008
458233|Larland|Populated Place|43455|U6|||19|IA|1|009|Audubon|41.731653|-94.7630367|04/30/1979|
458234|Larrabee|Populated Place|43500|P1|4540|194540035|19|IA|1|035|Cherokee|42.8608139|-95.5452848|04/30/1979|03/20/2008
458237|Latimer|Populated Place|43590|P1|4550|194550069|19|IA|1|069|Franklin|42.7633056|-93.3682594|04/30/1979|03/20/2008
458239|Laurel|Populated Place|43680|P1|4560|194560127|19|IA|1|127|Marshall|41.8841565|-92.9221412|04/30/1979|03/20/2008
458243|Laurens|Populated Place|43725|P1|4570|194570151|19|IA|1|151|Pocahontas|42.8466398|-94.8519296|04/30/1979|03/20/2008
458246|Lavinia|Populated Place|43770|U6|||19|IA|1|025|Calhoun|42.407758|-94.7466484|04/30/1979|
458247|Lawler|Populated Place|43815|P1|4580|194580037|19|IA|1|037|Chickasaw|43.0705301|-92.1501723|04/30/1979|03/20/2008
458252|Lawton|Populated Place|43905|P1|4590|194590193|19|IA|1|193|Woodbury|42.4786037|-96.1839121|04/30/1979|03/20/2008
458254|Le Grand|Populated Place|44220|P1|4620|194620127|19|IA|1|127|Marshall|42.0069336|-92.7754761|04/30/1979|03/20/2008
458255|Le Mars|Populated Place|44400|P1|4660|194660149|19|IA|1|149|Plymouth|42.7941567|-96.1655778|04/30/1979|03/20/2008
458257|Le Roy|Populated Place|44580|P1|4690|194690053|19|IA|1|053|Decatur|40.8777792|-93.5927169|04/30/1979|03/20/2008
458260|Leando|Populated Place|43950|U5|||19|IA|1|177|Van Buren|40.8336341|-92.0887878|04/30/1979|03/20/2008
458263|Lebanon|Populated Place|44040|U6|||19|IA|1|177|Van Buren|40.7258595|-92.082399|04/30/1979|
458264|Lebanon|Populated Place|43995|U6|||19|IA|1|167|Sioux|43.0985962|-96.3566945|04/30/1979|
458268|Ledyard|Populated Place|44130|P1|4610|194610109|19|IA|1|109|Kossuth|43.4216242|-94.1621842|04/30/1979|03/20/2008
458272|Leeds|Populated Place|44175|U4|||19|IA|1|193|Woodbury|42.5411047|-96.360028|04/30/1979|
458277|Lehigh|Populated Place|44265|P1|4630|194630187|19|IA|1|187|Webster|42.3599729|-94.0521771|04/30/1979|03/20/2008
458280|Leighton|Populated Place|44310|P1|4640|194640123|19|IA|1|123|Mahaska|41.3372242|-92.7871403|04/30/1979|03/20/2008
458286|Leland|Populated Place|44355|P1|4650|194650189|19|IA|1|189|Winnebago|43.3371775|-93.6352157|04/30/1979|03/20/2008
458287|Lenox|Populated Place|44490|P1|4670|194670173|19|IA|1|173|Taylor|40.8816547|-94.5619095|04/30/1979|03/20/2008
458291|Leon|Populated Place|44535|P1|4680|194680053|19|IA|1|053|Decatur|40.739724|-93.7477217|04/30/1979|03/20/2008
458293|Leslie|Populated Place|44625|U6|||19|IA|1|039|Clarke|40.9427752|-93.7979988|04/30/1979|
458294|Lester|Populated Place|44670|P1|4700|194700119|19|IA|1|119|Lyon|43.444696|-96.3330887|04/30/1979|03/20/2008
458297|Letts|Populated Place|44715|P1|4710|194710115|19|IA|1|115|Louisa|41.3283604|-91.2370971|04/30/1979|06/16/2011
458299|Levey|Populated Place|44775|U6|||19|IA|1|153|Polk|41.5463786|-93.5218812|04/30/1979|
458300|Lewis|Populated Place|44805|P1|4720|194720029|19|IA|1|029|Cass|41.3058237|-95.0833248|04/30/1979|03/20/2008
458312|Liberty|Populated Place|44895|U6|||19|IA|1|039|Clarke|41.1452736|-93.6541064|04/30/1979|
458322|Liberty Center|Populated Place|44940|U6|4729|194729181|19|IA|1|181|Warren|41.2047182|-93.4988249|04/30/1979|
458333|Libertyville|Populated Place|44985|P1|4730|194730101|19|IA|1|101|Jefferson|40.9575203|-92.0512863|04/30/1979|03/20/2008
458338|Lidderdale|Populated Place|45030|P1|4740|194740027|19|IA|1|027|Carroll|42.124429|-94.7830386|04/30/1979|03/20/2008
458350|Lime Springs|Populated Place|45165|P1|4750|194750089|19|IA|1|089|Howard|43.4488554|-92.2807251|04/30/1979|08/25/2011
458351|Linby|Populated Place|45210|U6|||19|IA|1|101|Jefferson|41.1505707|-92.14129|04/30/1979|
458352|Lincoln|Populated Place|45255|P1|4760|194760171|19|IA|1|171|Tama|42.2627638|-92.6918654|04/30/1979|03/20/2008
458401|Lincolnway Village|Populated Place|45300|U4|||19|IA|1|113|Linn|41.9213926|-91.6654558|04/30/1979|
458403|Linden|Populated Place|45390|P1|4770|194770049|19|IA|1|049|Dallas|41.6444317|-94.2691286|04/30/1979|03/20/2008
458412|Lineville|Populated Place|45435|P1|4780|194780185|19|IA|1|185|Wayne|40.5813967|-93.52383|04/30/1979|03/20/2008
458415|Linn Grove|Populated Place|45480|P1|4790|194790021|19|IA|1|021|Buena Vista|42.8916444|-95.2466638|04/30/1979|03/20/2008
458423|Linwood|Populated Place|45570|U4|4793|194793163|19|IA|1|163|Scott|41.4655876|-90.6790288|04/30/1979|
458429|Lisbon|Populated Place|45615|P1|4800|194800113|19|IA|1|113|Linn|41.9211198|-91.3854466|04/30/1979|03/20/2008
458430|Liscomb|Populated Place|45660|P1|4810|194810127|19|IA|1|127|Marshall|42.1899855|-93.0038124|04/30/1979|03/20/2008
458449|Little Cedar|Populated Place|45705|U5|4822|194822131|19|IA|1|131|Mitchell|43.3802478|-92.7257437|04/30/1979|01/29/2011
458498|Little Rock|Populated Place|45795|P1|4830|194830119|19|IA|1|119|Lyon|43.4441353|-95.8833524|04/30/1979|03/20/2008
458504|Little Sioux|Populated Place|45840|P1|4840|194840085|19|IA|1|085|Harrison|41.8094323|-96.0211227|04/30/1979|03/20/2008
458533|Littleport|Populated Place|45750|U6|4820|194820043|19|IA|1|043|Clayton|42.7547086|-91.369303|04/30/1979|03/20/2008
458534|Littleton|Populated Place|45885|U6|||19|IA|1|019|Buchanan|42.5333195|-92.0235088|04/30/1979|
458536|Livermore|Populated Place|45975|P1|4850|194850091|19|IA|1|091|Humboldt|42.8685808|-94.1852388|04/30/1979|03/20/2008
458547|Loch Burns|Populated Place|46035|U6|||19|IA|1|179|Wapello|41.0255707|-92.3501837|04/30/1979|
458552|Lockridge|Populated Place|46065|P1|4860|194860101|19|IA|1|101|Jefferson|40.9947461|-91.7482227|04/30/1979|03/20/2008
458561|Logan|Populated Place|46155|P1|4870|194870085|19|IA|1|085|Harrison|41.6430459|-95.7888975|04/30/1979|03/20/2008
458569|Logansport|Populated Place|46200|U6|||19|IA|1|015|Boone|42.0674814|-93.9468964|04/30/1979|
458570|Lohrville|Populated Place|46245|P1|4880|194880025|19|IA|1|025|Calhoun|42.2702588|-94.5485865|04/30/1979|03/20/2008
458574|Lone Rock|Populated Place|46290|P1|4890|194890109|19|IA|1|109|Kossuth|43.2185739|-94.3269126|04/30/1979|03/20/2008
458576|Lone Tree|Populated Place|46335|P1|4900|194900103|19|IA|1|103|Johnson|41.4880775|-91.425994|04/30/1979|03/20/2008
458594|Long Grove|Populated Place|46425|P1|4910|194910163|19|IA|1|163|Scott|41.6975304|-90.5826381|04/30/1979|03/20/2008
458609|Ionia|Populated Place|38460|P1|4040|194040037|19|IA|1|037|Chickasaw|43.0341414|-92.4560143|04/30/1979|03/20/2008
458616|Lore|Populated Place|46495|U6|||19|IA|1|061|Dubuque|42.5180566|-90.7998501|04/30/1979|
458617|Lorimor|Populated Place|46515|P1|4920|194920175|19|IA|1|175|Union|41.1283249|-94.0532835|04/30/1979|03/20/2008
458634|Lost Nation|Populated Place|46605|P1|4930|194930045|19|IA|1|045|Clinton|41.9639095|-90.8176431|04/30/1979|03/20/2008
458636|Lotts Creek|Populated Place|46650|U6|||19|IA|1|109|Kossuth|43.1566312|-94.3663585|04/30/1979|
458642|Lourdes|Populated Place|46740|U6|||19|IA|1|089|Howard|43.262192|-92.2987841|04/30/1979|
458646|Loveland|Populated Place|46785|U5|||19|IA|1|155|Pottawattamie|41.4972156|-95.8900107|04/30/1979|01/29/2011
458647|Lovilia|Populated Place|46830|P1|4940|194940135|19|IA|1|135|Monroe|41.1358371|-92.9040881|04/30/1979|03/20/2008
458648|Lovington|Populated Place|46875|U6|||19|IA|1|153|Polk|41.645822|-93.6866093|04/30/1979|
458650|Low Moor|Populated Place|47010|P1|4960|194960045|19|IA|1|045|Clinton|41.8016967|-90.3548535|04/30/1979|03/20/2008
458651|Lowden|Populated Place|46920|P1|4950|194950031|19|IA|1|031|Cedar|41.8575217|-90.9282043|04/30/1979|03/20/2008
458654|Lowell|Populated Place|46965|U6|||19|IA|1|087|Henry|40.833368|-91.4365437|04/30/1979|
458670|Lu Verne|Populated Place|47370|P1|5000|195000109|19|IA|1|109|Kossuth|42.908302|-94.0738452|04/30/1979|06/16/2011
458670|Lu Verne|Populated Place|47370|P1|5000|195000091|19|IA|2|091|Humboldt|42.908302|-94.0738452|04/30/1979|06/16/2011
458671|Luana|Populated Place|47055|P1|4970|194970043|19|IA|1|043|Clayton|43.0602597|-91.4540293|04/30/1979|03/20/2008
458673|Lucas|Populated Place|47100|P1|4980|194980117|19|IA|1|117|Lucas|41.0283324|-93.4599349|04/30/1979|03/20/2008
458684|Luther|Populated Place|47280|P1|4990|194990015|19|IA|1|015|Boone|41.9677627|-93.8188366|04/30/1979|03/20/2008
458687|Luton|Populated Place|47325|U6|||19|IA|1|193|Woodbury|42.339714|-96.2264131|04/30/1979|
458690|Luxemburg|Populated Place|47460|P1|5010|195010061|19|IA|1|061|Dubuque|42.6027722|-91.0740206|04/30/1979|03/20/2008
458692|Lyman|Populated Place|47550|U6|||19|IA|1|029|Cass|41.231101|-94.9844323|04/30/1979|
458694|Lynnville|Populated Place|47595|P1|5030|195030099|19|IA|1|099|Jasper|41.5774965|-92.7835261|04/30/1979|03/20/2008
458704|Lytton|Populated Place|47730|P1|5040|195040161|19|IA|1|161|Sac|42.4230361|-94.8597071|04/30/1979|03/20/2008
458704|Lytton|Populated Place|47730|P1|5040|195040025|19|IA|2|025|Calhoun|42.4230361|-94.8597071|04/30/1979|03/20/2008
458711|Macedonia|Populated Place|47955|P1|5100|195100155|19|IA|1|155|Pottawattamie|41.1927723|-95.4255554|04/30/1979|03/20/2008
458713|Macksburg|Populated Place|48180|P1|5110|195110121|19|IA|1|121|Madison|41.2147121|-94.1852321|04/30/1979|03/20/2008
458731|Madrid|Populated Place|48450|P1|5120|195120015|19|IA|1|015|Boone|41.8766526|-93.8232813|04/30/1979|03/20/2008
458733|Magnolia|Populated Place|48495|P1|5130|195130085|19|IA|1|085|Harrison|41.6958226|-95.8766762|04/30/1979|03/20/2008
458739|Malcom|Populated Place|48540|P1|5140|195140157|19|IA|1|157|Poweshiek|41.7083302|-92.559076|04/30/1979|03/20/2008
458740|Mallard|Populated Place|48585|P1|5150|195150147|19|IA|1|147|Palo Alto|42.9363589|-94.6822021|04/30/1979|03/20/2008
458746|Maloy|Populated Place|48675|P1|5160|195160159|19|IA|1|159|Ringgold|40.6744348|-94.4121811|04/30/1979|03/20/2008
458747|Malvern|Populated Place|48720|P1|5170|195170129|19|IA|1|129|Mills|41.002776|-95.5852781|04/30/1979|03/20/2008
458752|Manchester|Populated Place|48810|P1|5180|195180055|19|IA|1|055|Delaware|42.484154|-91.4554252|04/30/1979|03/20/2008
458757|Manilla|Populated Place|48855|P1|5190|195190047|19|IA|1|047|Crawford|41.8897095|-95.232218|04/30/1979|03/20/2008
458758|Manly|Populated Place|48900|P1|5200|195200195|19|IA|1|195|Worth|43.2871813|-93.2021482|04/30/1979|03/20/2008
458762|Manning|Populated Place|48945|P1|5210|195210027|19|IA|1|027|Carroll|41.9091528|-95.0649917|04/30/1979|03/20/2008
458784|Maple Leaf|Populated Place|49100|U6|||19|IA|1|089|Howard|43.3208018|-92.3790632|04/30/1979|
458786|Maple River|Populated Place|49125|U6|||19|IA|1|027|Carroll|42.0980404|-94.9352659|04/30/1979|
458787|Mapleton|Populated Place|49170|P1|5230|195230133|19|IA|1|133|Monona|42.1658227|-95.7930621|04/30/1979|03/20/2008
458789|Maquoketa|Populated Place|49215|P1|5240|195240097|19|IA|1|097|Jackson|42.0689088|-90.6656914|04/30/1979|03/20/2008
458792|Marathon|Populated Place|49260|P1|5250|195250021|19|IA|1|021|Buena Vista|42.8616407|-94.9824889|04/30/1979|03/20/2008
458797|Marble Rock|Populated Place|49305|P1|5260|195260067|19|IA|1|067|Floyd|42.965249|-92.8685276|04/30/1979|03/20/2008
458799|Marcus|Populated Place|49350|P1|5270|195270035|19|IA|1|035|Cherokee|42.8258195|-95.8075134|04/30/1979|03/20/2008
458801|Marengo|Populated Place|49395|P1|5280|195280095|19|IA|1|095|Iowa|41.7980593|-92.0707365|04/30/1979|03/20/2008
458803|Marietta|Populated Place|49440|U6|||19|IA|1|127|Marshall|42.0830425|-93.0004783|04/30/1979|
458805|Marion|Populated Place|49485|P1|5290|195290113|19|IA|1|113|Linn|42.0341658|-91.5976773|04/30/1979|03/20/2008
458815|Marne|Populated Place|49575|P1|5300|195300029|19|IA|1|029|Cass|41.4513786|-95.1113809|04/30/1979|03/20/2008
458816|Marquette|Populated Place|49620|P1|5310|195310043|19|IA|1|043|Clayton|43.0444284|-91.1781855|04/30/1979|03/20/2008
458817|Marquisville|Populated Place|49665|U6|||19|IA|1|153|Polk|41.6566554|-93.600773|04/30/1979|
458821|Marsh|Populated Place|49710|U6|||19|IA|1|115|Louisa|41.1016964|-91.3523764|04/30/1979|
458824|Marshalltown|Populated Place|49755|P1|5320|195320127|19|IA|1|127|Marshall|42.0494323|-92.9079774|04/30/1979|06/16/2011
458825|Martelle|Populated Place|49845|P1|5330|195330105|19|IA|1|105|Jones|42.0216714|-91.3598896|04/30/1979|03/20/2008
458826|Martensdale|Populated Place|49890|P1|5340|195340181|19|IA|1|181|Warren|41.3730474|-93.7357761|04/30/1979|03/20/2008
458833|Martinsburg|Populated Place|49935|P1|5350|195350107|19|IA|1|107|Keokuk|41.1789028|-92.2518487|04/30/1979|03/20/2008
458838|Marysville|Populated Place|50070|P1|5360|195360125|19|IA|1|125|Marion|41.1805576|-92.9490895|04/30/1979|03/20/2008
458840|Mason City|Populated Place|50160|P1|5370|195370033|19|IA|1|033|Cerro Gordo|43.1535728|-93.2010367|04/30/1979|03/20/2008
458848|Masonville|Populated Place|50205|P1|5380|195380055|19|IA|1|055|Delaware|42.4794303|-91.5912669|04/30/1979|03/20/2008
458849|Massena|Populated Place|50250|P1|5390|195390029|19|IA|1|029|Cass|41.2541538|-94.7683113|04/30/1979|03/20/2008
458851|Massey|Populated Place|50295|U6|||19|IA|1|061|Dubuque|42.4302841|-90.5851283|04/30/1979|
458853|Massillon|Populated Place|50340|U6|||19|IA|1|031|Cedar|41.9147422|-90.9226477|04/30/1979|
458854|Matlock|Populated Place|50385|P1|5400|195400167|19|IA|1|167|Sioux|43.2438658|-95.9352966|04/30/1979|03/20/2008
458859|Maurice|Populated Place|50430|P1|5410|195410167|19|IA|1|167|Sioux|42.9663763|-96.1805771|04/30/1979|03/20/2008
458860|Maxon|Populated Place|50475|U6|||19|IA|1|135|Monroe|41.0408416|-92.7760284|04/30/1979|
458863|Maxwell|Populated Place|50520|P1|5420|195420169|19|IA|1|169|Story|41.8919322|-93.3996546|04/30/1979|03/20/2008
458864|May City|Populated Place|50565|U6|||19|IA|1|143|Osceola|43.3208025|-95.4744512|04/30/1979|
458870|Maynard|Populated Place|50610|P1|5430|195430065|19|IA|1|065|Fayette|42.7738712|-91.88239|04/30/1979|03/20/2008
458874|Maysville|Populated Place|50655|P1|5440|195440163|19|IA|1|163|Scott|41.6486403|-90.7168091|04/30/1979|03/20/2008
458887|McCausland|Populated Place|47820|P1|||19|IA|1|163|Scott|41.7461421|-90.4431895|04/30/1979|03/20/2008
458890|McClelland|Populated Place|47865|P1|||19|IA|1|155|Pottawattamie|41.3294401|-95.6838963|04/30/1979|03/20/2008
458913|McGregor|Populated Place|48000|P1|||19|IA|1|043|Clayton|43.018318|-91.1826299|04/30/1979|03/20/2008
458917|McIntire|Populated Place|48045|P1|||19|IA|1|131|Mitchell|43.4358006|-92.5937915|04/30/1979|03/20/2008
458934|McNally|Populated Place|48225|U6|||19|IA|1|167|Sioux|42.9405444|-96.390861|04/30/1979|
458937|McPaul|Populated Place|48270|U6|||19|IA|1|071|Fremont|40.8219452|-95.8027805|04/30/1979|
458943|Mechanicsville|Populated Place|50700|P1|5450|195450031|19|IA|1|031|Cedar|41.9044574|-91.2546067|04/30/1979|03/20/2008
458944|Mederville|Populated Place|50745|U6|||19|IA|1|043|Clayton|42.7630411|-91.4229163|04/30/1979|
458946|Mediapolis|Populated Place|50790|P1|5460|195460057|19|IA|1|057|Des Moines|41.0080904|-91.164037|04/30/1979|03/20/2008
458948|Medora|Populated Place|50835|U6|||19|IA|1|181|Warren|41.1869399|-93.6027163|04/30/1979|
458951|Melbourne|Populated Place|50880|P1|5470|195470127|19|IA|1|127|Marshall|41.9413772|-93.1032569|04/30/1979|03/20/2008
458955|Melcher-Dallas|Populated Place|50935|P1|2030|192030125|19|IA|1|125|Marion|41.2249966|-93.2413191|01/01/2000|03/20/2008
458957|Melrose|Populated Place|50970|P1|5490|195490135|19|IA|1|135|Monroe|40.9761153|-93.0504804|04/30/1979|03/20/2008
458960|Meltonville|Populated Place|51015|U6|||19|IA|1|195|Worth|43.4471859|-93.0263079|04/30/1979|
458961|Melvin|Populated Place|51060|P1|5500|195500143|19|IA|1|143|Osceola|43.2874718|-95.609178|04/30/1979|03/20/2008
458983|Menlo|Populated Place|51105|P1|5510|195510077|19|IA|1|077|Guthrie|41.5191543|-94.4044105|04/30/1979|03/20/2008
459003|Meriden|Populated Place|51150|P1|5520|195520035|19|IA|1|035|Cherokee|42.794706|-95.6344537|04/30/1979|03/20/2008
459005|Merrill|Populated Place|51375|P1|5530|195530149|19|IA|1|149|Plymouth|42.7197133|-96.2486357|04/30/1979|03/20/2008
459009|Meservey|Populated Place|51420|P1|5540|195540033|19|IA|1|033|Cerro Gordo|42.9127442|-93.4782612|04/30/1979|03/20/2008
459016|Meyer|Populated Place|51510|U5|||19|IA|1|131|Mitchell|43.4577455|-92.6926844|04/30/1979|01/29/2011
459023|Middle Amana|Populated Place|51600|U5|5548|195548095|19|IA|1|095|Iowa|41.7955624|-91.8996227|04/30/1979|01/29/2011
459060|Middleburg|Populated Place|51645|U6|||19|IA|1|167|Sioux|43.1135939|-96.0689089|04/30/1979|
459064|Middletown|Populated Place|51735|P1|5550|195550057|19|IA|1|057|Des Moines|40.8283712|-91.2590387|04/30/1979|03/20/2008
459066|Midvale|Populated Place|51870|U6|||19|IA|1|169|Story|41.9294313|-93.610218|04/30/1979|
459067|Midway|Populated Place|51960|U6|||19|IA|1|113|Linn|42.1061071|-91.6968441|04/30/1979|
459068|Midway|Populated Place|51915|U6|||19|IA|1|067|Floyd|43.0052513|-92.6054644|04/30/1979|
