FEATURE_ID|FEATURE_NAME|FEATURE_CLASS|CENSUS_CODE|CENSUS_CLASS_CODE|GSA_CODE|OPM_CODE|STATE_NUMERIC|STATE_ALPHA|COUNTY_SEQUENCE|COUNTY_NUMERIC|COUNTY_NAME|PRIMARY_LATITUDE|PRIMARY_LONGITUDE|DATE_CREATED|DATE_EDITED
532068|Aben|Populated Place|00170|U6|||22|LA|1|005|Ascension|30.1079768|-90.942876|06/04/1980|
532076|Acy|Populated Place|00345|U6|||22|LA|1|005|Ascension|30.2188079|-90.8203734|06/04/1980|
532086|Addis|Populated Place|00415|P1|0030|220030121|22|LA|1|121|West Baton Rouge|30.3538043|-91.2653865|06/04/1980|03/20/2008
532098|Albany|Populated Place|00835|P1|0035|220035063|22|LA|1|063|Livingston|30.5043578|-90.5823138|06/04/1980|03/20/2008
532100|Alden Bridge|Populated Place|00940|U6|||22|LA|1|015|Bossier|32.7751427|-93.720178|06/04/1980|
532112|Allen|Populated Place|01360|U6|||22|LA|1|069|Natchitoches|31.8354411|-93.2885038|06/04/1980|
532147|Alto|Populated Place|01640|U6|0046|220046083|22|LA|1|083|Richland|32.3576468|-91.8598506|06/04/1980|
532174|Angie|Populated Place|02165|P1|0060|220060117|22|LA|1|117|Washington|30.9665729|-89.8095208|06/04/1980|03/20/2008
532197|Antrim|Populated Place|02480|U6|||22|LA|1|015|Bossier|32.8773616|-93.705177|06/04/1980|
532200|Ararat|Populated Place|02585|U6|||22|LA|1|019|Calcasieu|30.300482|-93.1998765|06/04/1980|
532201|Arbroth|Populated Place|02620|U6|||22|LA|1|121|West Baton Rouge|30.6104654|-91.3189991|06/04/1980|
532204|Archibald|Populated Place|02690|U6|0075|220075083|22|LA|1|083|Richland|32.3490353|-91.7773484|06/04/1980|
532214|Armistead|Populated Place|03075|U6|||22|LA|1|081|Red River|32.0054394|-93.3804511|06/04/1980|
532240|Athens|Populated Place|03320|P1|0090|220090027|22|LA|1|027|Claiborne|32.6504281|-93.025717|06/04/1980|03/20/2008
532243|Attakapas Canal|Populated Place|03410|U6|||22|LA|1|007|Assumption|29.8918702|-91.0912117|06/04/1980|
532244|Attakapas Landing|Populated Place|03425|U6|||22|LA|1|007|Assumption|29.8510376|-91.1031564|06/04/1980|
532281|Bains|Populated Place|03950|U6|0098|220098125|22|LA|1|125|West Feliciana|30.830737|-91.3867797|06/04/1980|
532300|Bancroft|Populated Place|04125|U6|||22|LA|1|011|Beauregard|30.5652019|-93.6854506|06/04/1980|
532308|Baptist|Populated Place|04265|U6|||22|LA|1|105|Tangipahoa|30.5049135|-90.533146|06/04/1980|
532466|Bayou Boeuf|Populated Place|05200|U6|||22|LA|1|057|Lafourche|29.8693736|-90.596754|06/04/1980|
532546|Bayou Crab|Populated Place|05265|U6|||22|LA|1|007|Assumption|29.8674262|-91.0762113|06/04/1980|
532850|Beaver|Populated Place|05700|U6|||22|LA|1|039|Evangeline|30.7957506|-92.5720837|06/04/1980|
532930|Bellevue|Populated Place|06475|U6|||22|LA|1|021|Caldwell|32.112934|-92.049301|06/04/1980|
532954|Berard|Populated Place|06940|U6|||22|LA|1|045|Iberia|29.9890922|-91.78845|06/04/1980|
532962|Bertrandville|Populated Place|07065|U6|||22|LA|1|075|Plaquemines|29.7749312|-90.0170152|06/04/1980|
533017|Bienville|Populated Place|07205|P1|0200|220200013|22|LA|1|013|Bienville|32.3568222|-92.9804375|06/04/1980|03/20/2008
533150|Bissonet Plaza|Populated Place|07500|U6|||22|LA|1|051|Jefferson|30.0135362|-90.216465|06/04/1980|
533208|Blankston|Populated Place|07835|U6|||22|LA|1|021|Caldwell|32.2420969|-92.1323586|06/04/1980|
533244|Bluff Creek|Populated Place|07940|U6|||22|LA|1|037|East Feliciana|30.7465723|-90.8573229|06/04/1980|
533254|Bodcau|Populated Place|08010|U6|||22|LA|1|015|Bossier|32.534318|-93.5957313|06/04/1980|
533256|Bodoc|Populated Place|08045|U6|||22|LA|1|009|Avoyelles|30.9190797|-91.9906746|06/04/1980|
533330|Boothville|Populated Place|08710|U5|0223|220223075|22|LA|1|075|Plaquemines|29.3435519|-89.4197772|06/04/1980|01/29/2011
533337|Boston|Populated Place|08955|U6|||22|LA|1|113|Vermilion|29.8832629|-92.0556795|06/04/1980|
533365|Braithwaite|Populated Place|09200|U6|0245|220245075|22|LA|1|075|Plaquemines|29.8663171|-89.9436791|06/04/1980|
533370|Brannon|Populated Place|09270|U6|||22|LA|1|045|Iberia|29.9854816|-91.8459514|06/04/1980|
533406|Brignac|Populated Place|09550|U6|||22|LA|1|005|Ascension|30.2699176|-90.8700975|06/04/1980|
533412|Brittany|Populated Place|09725|U6|0257|220257005|22|LA|1|005|Ascension|30.2121412|-90.8814863|06/04/1980|
533422|Brouillette|Populated Place|10040|U6|||22|LA|1|009|Avoyelles|31.2124081|-92.0215134|06/04/1980|
533439|Brownlee|Populated Place|10215|U6|||22|LA|1|015|Bossier|32.5757054|-93.7265673|06/04/1980|
533443|Brownview|Populated Place|10250|U6|||22|LA|1|077|Pointe Coupee|30.7268518|-91.5859483|06/04/1980|
533444|Brule|Populated Place|10320|U6|||22|LA|1|007|Assumption|29.82215|-90.9687084|06/04/1980|
533502|Buckeye|Populated Place|10740|U6|0293|220293079|22|LA|1|079|Rapides|31.3662923|-92.1890192|06/04/1980|
533624|Calhoun|Populated Place|11825|U5|0316|220316073|22|LA|1|073|Ouachita|32.5126469|-92.3584744|06/04/1980|01/29/2011
533703|Cancienne|Populated Place|12325|U6|||22|LA|1|007|Assumption|29.9002034|-91.0256546|06/04/1980|
533809|Castor|Populated Place|13260|P1|0340|220340013|22|LA|1|013|Bienville|32.2532134|-93.1657218|06/04/1980|03/20/2008
533835|Cedar Grove|Populated Place|13750|U6|||22|LA|1|075|Plaquemines|29.7949306|-90.0222931|06/04/1980|
533850|Centerville|Populated Place|13890|U6|||22|LA|1|039|Evangeline|30.8932489|-92.3098518|06/04/1980|
533853|Central|Populated Place|13960|P1|||22|LA|1|033|East Baton Rouge|30.5543546|-91.0367706|06/04/1980|10/21/2008
533884|Charon|Populated Place|14405|U6|||22|LA|1|113|Vermilion|30.0215931|-92.0231777|06/04/1980|
533896|Chenal Crossing|Populated Place|14635|U6|||22|LA|1|077|Pointe Coupee|30.6346316|-91.3617776|06/04/1980|
533897|Cheneyville|Populated Place|14660|P1|0370|220370079|22|LA|1|079|Rapides|31.0149128|-92.2873521|06/04/1980|03/20/2008
533915|China|Populated Place|14975|U6|||22|LA|1|053|Jefferson Davis|30.4018698|-92.7056982|06/04/1980|
533928|Chloe|Populated Place|15080|U6|||22|LA|1|019|Calcasieu|30.2399286|-93.1143185|06/04/1980|
533950|Chula|Populated Place|15430|U6|||22|LA|1|007|Assumption|29.8427052|-90.9553748|06/04/1980|
533960|Claiborne|Populated Place|15605|U5|||22|LA|1|073|Ouachita|32.515978|-92.1918032|06/04/1980|03/20/2008
534002|Clifton|Populated Place|15955|U6|||22|LA|1|117|Washington|30.9254596|-90.1798101|06/04/1980|
534004|Clio|Populated Place|16025|U6|||22|LA|1|063|Livingston|30.3096397|-90.6098129|06/04/1980|
534043|Colgrade|Populated Place|16410|U6|||22|LA|1|127|Winn|31.9109978|-92.5345898|06/04/1980|
534050|Collinston|Populated Place|16655|P1|0440|220440067|22|LA|1|067|Morehouse|32.6909704|-91.8717943|06/04/1980|03/20/2008
534072|Concession|Populated Place|17005|U6|||22|LA|1|075|Plaquemines|29.8310406|-90.0039592|06/04/1980|
534127|Cooterville|Populated Place|17405|U6|||22|LA|1|015|Bossier|32.2743239|-93.4865636|06/04/1980|
534149|Coteau Bourgeois|Populated Place|17720|U6|||22|LA|1|063|Livingston|30.2604737|-90.7581498|06/04/1980|
534353|Cypress Creek|Populated Place|19120|U6|||22|LA|1|039|Evangeline|30.8476939|-92.5515275|06/04/1980|
534399|Davids|Populated Place|19665|U6|||22|LA|1|045|Iberia|29.9515936|-91.8737301|06/04/1980|
534485|Delhoste|Populated Place|20205|U6|||22|LA|1|029|Concordia|31.2674023|-91.829845|06/04/1980|
534504|Dennison|Populated Place|20490|U6|||22|LA|1|045|Iberia|29.9493712|-91.8362292|06/04/1980|
534505|Derouen|Populated Place|20625|U6|||22|LA|1|045|Iberia|29.9668712|-91.9087308|06/04/1980|
534572|Douglas|Populated Place|21415|U6|||22|LA|1|061|Lincoln|32.581536|-92.5268127|06/04/1980|
534579|Downsville|Populated Place|21450|P1|0615|220615111|22|LA|1|111|Union|32.6268108|-92.4143096|06/04/1980|03/20/2008
534579|Downsville|Populated Place|21450|P1|0615|220615061|22|LA|2|061|Lincoln|32.6268108|-92.4143096|06/04/1980|03/20/2008
534581|Doyline|Populated Place|21590|P1|0620|220620119|22|LA|1|119|Webster|32.5357073|-93.4110049|06/04/1980|03/20/2008
534628|Duboin|Populated Place|21840|U6|||22|LA|1|045|Iberia|29.9235383|-91.8206735|06/04/1980|
534640|Duckroost|Populated Place|21890|U6|||22|LA|1|005|Ascension|30.247696|-90.8698195|06/04/1980|
534750|Eastwood|Populated Place|22610|U5|||22|LA|1|015|Bossier|32.5562617|-93.5671195|06/04/1980|03/20/2008
534761|Echo|Populated Place|22640|U6|0659|220659079|22|LA|1|079|Rapides|31.1101881|-92.2417958|06/04/1980|
534767|Edna|Populated Place|22955|U6|||22|LA|1|053|Jefferson Davis|30.421036|-92.8865369|06/04/1980|
534803|Ellsworth|Populated Place|23340|U6|||22|LA|1|109|Terrebonne|29.6732667|-90.8150928|06/04/1980|
534816|Elton|Populated Place|23620|P1|0670|220670053|22|LA|1|053|Jefferson Davis|30.4813125|-92.6956982|06/04/1980|03/20/2008
534821|Empire|Populated Place|23725|U5|0673|220673075|22|LA|1|075|Plaquemines|29.3877189|-89.5972832|06/04/1980|03/20/2008
534832|Erath|Populated Place|24180|P1|0690|220690113|22|LA|1|113|Vermilion|29.9582611|-92.0359562|06/04/1980|03/20/2008
534834|Eros|Populated Place|24215|P1|0700|220700049|22|LA|1|049|Jackson|32.3923731|-92.4240323|06/04/1980|03/20/2008
534836|Erwinville|Populated Place|24250|U5|0707|220707121|22|LA|1|121|West Baton Rouge|30.5310244|-91.4078876|06/04/1980|01/29/2011
534839|Esther|Populated Place|24425|U6|||22|LA|1|113|Vermilion|29.844376|-92.1751276|06/04/1980|
534840|Ethel|Populated Place|24530|U6|0712|220712037|22|LA|1|037|East Feliciana|30.7912935|-91.1306623|06/04/1980|
534844|Eva|Populated Place|24635|U6|||22|LA|1|029|Concordia|31.4290645|-91.7876242|06/04/1980|
534847|Evans|Populated Place|24705|U6|0726|220726115|22|LA|1|115|Vernon|30.9890822|-93.5021155|06/04/1980|
534876|Fairbanks|Populated Place|24845|U6|0734|220734073|22|LA|1|073|Ouachita|32.6443056|-92.0365208|06/04/1980|
534930|Fenton|Populated Place|25335|P1|0747|220747053|22|LA|1|053|Jefferson Davis|30.3671485|-92.918204|06/04/1980|03/20/2008
534940|Ferriday|Populated Place|25440|P1|0750|220750029|22|LA|1|029|Concordia|31.6301664|-91.5545649|06/04/1980|03/20/2008
534943|Ferry Lake|Populated Place|25475|U6|||22|LA|1|017|Caddo|32.7395878|-94.007682|06/04/1980|
534963|Fisher|Populated Place|25615|P1|0753|220753085|22|LA|1|085|Sabine|31.4937872|-93.4657301|06/04/1980|03/20/2008
535012|Florien|Populated Place|25860|P1|0755|220755085|22|LA|1|085|Sabine|31.4437889|-93.4573959|06/04/1980|03/20/2008
535020|Foley|Populated Place|26070|U6|||22|LA|1|003|Allen|30.6607532|-92.7423681|06/04/1980|
535034|Foreman|Populated Place|26315|U6|||22|LA|1|033|East Baton Rouge|30.3690814|-91.0098244|06/04/1980|
535043|Forked Island|Populated Place|26525|U6|||22|LA|1|113|Vermilion|29.831322|-92.3001311|06/04/1980|
535045|Forksville|Populated Place|26560|U6|||22|LA|1|073|Ouachita|32.5076466|-92.3237512|06/04/1980|
535049|Fort Necessity|Populated Place|26700|U6|||22|LA|1|041|Franklin|32.0479345|-91.8179063|06/04/1980|
535058|Fosters Canal|Populated Place|26910|U6|||22|LA|1|075|Plaquemines|29.5285494|-89.7500657|06/04/1980|
535098|Freetown|Populated Place|27295|U6|||22|LA|1|007|Assumption|29.8571491|-90.9750976|06/04/1980|
535133|Frogmore|Populated Place|27645|U6|0794|220794029|22|LA|1|029|Concordia|31.6032246|-91.6704012|06/04/1980|
535135|Frost|Populated Place|27680|U6|||22|LA|1|063|Livingston|30.4040814|-90.7392615|06/04/1980|
535142|Funston|Populated Place|27855|U6|||22|LA|1|031|De Soto|32.0498872|-93.9690772|06/04/1980|
535160|Galion|Populated Place|28030|U6|||22|LA|1|067|Morehouse|32.8595765|-91.7531804|06/04/1980|
535197|Gayles|Populated Place|28415|U6|||22|LA|1|017|Caddo|32.3479338|-93.6260103|06/04/1980|
535207|Gibsland|Populated Place|28835|P1|0820|220820013|22|LA|1|013|Bienville|32.5440413|-93.0529398|06/04/1980|03/20/2008
535226|Gillis|Populated Place|29045|U5|||22|LA|1|019|Calcasieu|30.3738135|-93.2009889|06/04/1980|01/29/2011
535250|Gloria|Populated Place|29360|U6|||22|LA|1|075|Plaquemines|29.7371546|-90.0120153|06/04/1980|
535251|Gloster|Populated Place|29395|U5|0845|220845031|22|LA|1|031|De Soto|32.1909938|-93.8149045|06/04/1980|01/29/2011
535261|Golden Meadow|Populated Place|29640|P1|0850|220850057|22|LA|1|057|Lafourche|29.3791112|-90.2600787|06/04/1980|03/20/2008
535289|Goosport|Populated Place|30200|U4|||22|LA|1|019|Calcasieu|30.2568721|-93.1804309|06/04/1980|
535309|Grand Bayou|Populated Place|30575|U6|||22|LA|1|075|Plaquemines|29.5113278|-89.7653441|06/04/1980|
535334|Grand Ecore|Populated Place|30795|U6|||22|LA|1|069|Natchitoches|31.8157188|-93.0848858|06/04/1980|
535338|Grand Isle|Populated Place|30830|P1|0920|220920051|22|LA|1|051|Jefferson|29.2366172|-89.9872942|06/04/1980|03/20/2008
535349|Grandbois|Populated Place|30620|U6|||22|LA|1|057|Lafourche|29.5527162|-90.5381414|06/04/1980|
535401|Greens Ditch|Populated Place|31600|U4|||22|LA|1|071|Orleans|30.1138089|-89.7611719|06/04/1980|
535408|Greenwood|Populated Place|31715|U6|||22|LA|1|075|Plaquemines|29.7815977|-90.0136818|06/04/1980|
535409|Greenwood|Populated Place|31705|P1|0946|220946017|22|LA|1|017|Caddo|32.4429324|-93.9729615|06/04/1980|03/20/2008
535426|Grimes|Populated Place|31965|U6|||22|LA|1|035|East Carroll|32.6559679|-91.1817762|06/04/1980|
535479|Hackley|Populated Place|32440|U6|||22|LA|1|117|Washington|30.9760146|-90.0856416|06/04/1980|
535495|Hall Summit|Populated Place|32650|P1|0976|220976081|22|LA|1|081|Red River|32.1773811|-93.3023928|06/04/1980|03/20/2008
535519|Hanna|Populated Place|32860|U6|0984|220984081|22|LA|1|081|Red River|31.9612732|-93.3476723|06/04/1980|
535558|Hatchersville|Populated Place|33300|U6|||22|LA|1|037|East Feliciana|30.8296261|-90.8676012|06/04/1980|
535561|Hathaway|Populated Place|33385|U6|||22|LA|1|053|Jefferson Davis|30.3496484|-92.6715301|06/04/1980|
535613|Heflin|Populated Place|33735|P1|1022|221022119|22|LA|1|119|Webster|32.4562654|-93.2640571|06/04/1980|03/20/2008
535656|Hicks|Populated Place|34295|U6|1030|221030115|22|LA|1|115|Vernon|31.184905|-93.0159912|06/04/1980|
535659|Hico|Populated Place|34330|U6|||22|LA|1|061|Lincoln|32.7448687|-92.7137631|06/04/1980|
535666|Highland|Populated Place|34400|U6|||22|LA|1|107|Tensas|31.8379392|-91.4856745|06/04/1980|
535684|Hodge|Populated Place|35100|P1|1040|221040049|22|LA|1|049|Jackson|32.2768221|-92.7234856|06/04/1980|03/20/2008
535735|Hollybrook|Populated Place|35345|U6|||22|LA|1|035|East Carroll|32.7351319|-91.1798314|06/04/1980|
535746|Holmwood|Populated Place|35660|U6|||22|LA|1|019|Calcasieu|30.1260416|-93.0798749|06/04/1980|
535750|Holum|Populated Place|35765|U6|||22|LA|1|021|Caldwell|31.9968271|-92.0834686|06/04/1980|
535764|Home Place|Populated Place|35800|U6|||22|LA|1|075|Plaquemines|29.4627174|-89.6833973|06/04/1980|
535799|Horse Bluff Landing|Populated Place|36060|U6|||22|LA|1|063|Livingston|30.3660272|-90.6273138|06/04/1980|
535862|Hunter|Populated Place|36500|U6|||22|LA|1|031|De Soto|31.8971123|-93.8512979|06/04/1980|
535892|Ida|Populated Place|36885|P1|1071|221071017|22|LA|1|017|Caddo|33.0043014|-93.8949011|06/04/1980|03/20/2008
535895|Illinois Plant|Populated Place|37010|U6|||22|LA|1|023|Cameron|30.0393757|-92.9115398|06/04/1980|
535895|Illinois Plant|Populated Place|37010|U6|||22|LA|2|019|Calcasieu|30.0393757|-92.9115398|06/04/1980|
535937|Invincible|Populated Place|37375|U6|||22|LA|1|119|Webster|32.787366|-93.4076719|06/04/1980|
535940|Iowa|Populated Place|37445|P1|1100|221100019|22|LA|1|019|Calcasieu|30.2368739|-93.0137611|06/04/1980|03/20/2008
535951|Island|Populated Place|37635|U6|||22|LA|1|077|Pointe Coupee|30.6765749|-91.3909452|06/04/1980|
535992|Jacoby|Populated Place|37900|U6|||22|LA|1|077|Pointe Coupee|30.9151837|-91.7892849|06/04/1980|
536002|Jamestown|Populated Place|37935|P1|1114|221114013|22|LA|1|013|Bienville|32.3440452|-93.2118341|06/04/1980|03/20/2008
536103|Jones Creek|Populated Place|38720|U6|||22|LA|1|033|East Baton Rouge|30.4126914|-91.0148248|06/04/1980|
536126|Joyce|Populated Place|38880|U5|1165|221165127|22|LA|1|127|Winn|31.93933|-92.5987588|06/04/1980|01/29/2011
536137|Junction|Populated Place|38950|U6|||22|LA|1|011|Beauregard|30.8379754|-93.5090609|06/04/1980|
536138|Junction City|Populated Place|38985|P1|1170|221170111|22|LA|1|111|Union|33.0137502|-92.7251576|06/04/1980|03/20/2008
536138|Junction City|Populated Place|38985|P1|1170|221170027|22|LA|2|027|Claiborne|33.0137502|-92.7251576|06/04/1980|03/20/2008
536151|Keithville|Populated Place|39160|U6|1188|221188017|22|LA|1|017|Caddo|32.3332128|-93.8362925|06/04/1980|
536153|Keller|Populated Place|39195|U6|1317|221317077|22|LA|1|077|Pointe Coupee|30.9418481|-91.7220627|06/04/1980|
536160|Kelly|Populated Place|39230|U6|1189|221189021|22|LA|1|021|Caldwell|31.9807171|-92.1768041|06/04/1980|
536179|Keystone|Populated Place|39590|U6|||22|LA|1|001|Acadia|30.3482585|-92.4834683|06/04/1980|
536182|Kickapoo|Populated Place|39615|U6|||22|LA|1|031|De Soto|32.1934939|-93.8371272|06/04/1980|
536184|Killian|Populated Place|39685|P1|1211|221211063|22|LA|1|063|Livingston|30.3588054|-90.5862016|06/04/1980|03/20/2008
536191|Kinder|Populated Place|39755|P1|1210|221210003|22|LA|1|003|Allen|30.485479|-92.850703|06/04/1980|03/20/2008
536203|King Hill|Populated Place|39790|U6|||22|LA|1|069|Natchitoches|31.877941|-93.3265606|06/04/1980|
536230|Kraemer|Populated Place|40210|U5|1216|221216057|22|LA|1|057|Lafourche|29.8668733|-90.6970344|06/04/1980|01/29/2011
536264|Lake|Populated Place|41015|U6|||22|LA|1|005|Ascension|30.2999169|-90.852875|06/04/1980|
536275|Lake Catherine|Populated Place|41120|U4|||22|LA|1|071|Orleans|30.1143647|-89.7092255|06/04/1980|
536280|Lake End|Populated Place|41225|U6|||22|LA|1|081|Red River|31.9215512|-93.3048932|06/04/1980|
536304|Lakeview|Populated Place|41645|U5|||22|LA|1|017|Caddo|32.5232074|-93.8293471|06/04/1980|01/29/2011
536318|Lamkin|Populated Place|41820|U6|||22|LA|1|073|Ouachita|32.5826413|-92.0729109|06/04/1980|
536367|Le Blanc|Populated Place|42730|U6|1291|221291003|22|LA|1|003|Allen|30.5090893|-92.9490394|06/04/1980|
536372|Le Bleu|Populated Place|42755|U6|||22|LA|1|019|Calcasieu|30.2760391|-93.0812625|06/04/1980|
536383|Leche|Populated Place|42765|U6|||22|LA|1|007|Assumption|29.8618714|-90.9656529|06/04/1980|
536385|Lecompte|Populated Place|42800|P1|1290|221290079|22|LA|1|079|Rapides|31.0946327|-92.4004119|06/04/1980|03/20/2008
536393|Lee Heights|Populated Place|42905|U6|||22|LA|1|079|Rapides|31.3649032|-92.4362484|06/04/1980|
536410|Leton|Populated Place|43465|U6|||22|LA|1|119|Webster|32.8601425|-93.2526679|06/04/1980|
536431|Libuse|Populated Place|43815|U6|1311|221311079|22|LA|1|079|Rapides|31.3540704|-92.3334673|06/04/1980|
536471|Lisbon|Populated Place|44235|P1|1314|221314027|22|LA|1|027|Claiborne|32.7959797|-92.8651572|06/04/1980|03/20/2008
536594|Little Prairie|Populated Place|44425|U6|||22|LA|1|005|Ascension|30.3235272|-90.9223216|06/04/1980|
536632|Live Oak|Populated Place|44515|U6|||22|LA|1|075|Plaquemines|29.7549318|-90.0286823|06/04/1980|
536655|Locust Ridge|Populated Place|45005|U6|||22|LA|1|107|Tensas|31.8765493|-91.3417814|06/04/1980|
536719|Longstreet|Populated Place|45460|P1|1340|221340031|22|LA|1|031|De Soto|32.0976637|-93.9521316|06/04/1980|03/20/2008
536721|Longville|Populated Place|45530|U5|1342|221342011|22|LA|1|011|Beauregard|30.6051979|-93.2318269|06/04/1980|01/29/2011
536745|Lottie|Populated Place|45775|U6|1353|221353077|22|LA|1|077|Pointe Coupee|30.5563027|-91.6417799|06/04/1980|
536774|Lowlands|Populated Place|46115|U6|||22|LA|1|057|Lafourche|29.7693743|-90.8989841|06/04/1980|
536789|Lyons Point|Populated Place|46825|U6|||22|LA|1|001|Acadia|30.0946498|-92.3781875|06/04/1980|
536831|Magnolia|Populated Place|47735|U6|||22|LA|1|033|East Baton Rouge|30.5362994|-90.9881581|06/04/1980|
536867|Mallard Junction|Populated Place|48015|U6|||22|LA|1|019|Calcasieu|30.2385394|-93.1551525|06/04/1980|
536872|Mangham|Populated Place|48260|P1|1410|221410083|22|LA|1|083|Richland|32.3090366|-91.7748485|06/04/1980|03/20/2008
536876|Manifest|Populated Place|48295|U6|1412|221412025|22|LA|1|025|Catahoula|31.7101699|-91.9620755|06/04/1980|
536880|Mansura|Populated Place|48400|P1|1430|221430009|22|LA|1|009|Avoyelles|31.0579664|-92.049012|06/04/1980|03/20/2008
536893|Marco|Populated Place|48575|U6|||22|LA|1|069|Natchitoches|31.5093395|-92.7648739|06/04/1980|
536897|Maringouin|Populated Place|48610|P1|1460|221460047|22|LA|1|047|Iberville|30.4913049|-91.5195542|06/04/1980|03/20/2008
536898|Marion|Populated Place|48645|P1|1470|221470111|22|LA|1|111|Union|32.9015214|-92.2420822|06/04/1980|03/20/2008
536939|Maurice|Populated Place|49240|P1|1500|221500113|22|LA|1|113|Vermilion|30.1085368|-92.1245688|06/04/1980|03/20/2008
536959|McBride|Populated Place|46860|U6|||22|LA|1|109|Terrebonne|29.6632669|-90.8198152|06/04/1980|
536963|McCall|Populated Place|46895|U6|||22|LA|1|005|Ascension|30.1160318|-91.0434343|06/04/1980|
537011|McManus|Populated Place|47280|U6|||22|LA|1|037|East Feliciana|30.8343481|-91.1362178|06/04/1980|
537038|Merlin|Populated Place|49850|U6|||22|LA|1|121|West Baton Rouge|30.388526|-91.2898313|06/04/1980|
537040|Merryville|Populated Place|50010|P1|1540|221540011|22|LA|1|011|Beauregard|30.754367|-93.540451|06/04/1980|03/20/2008
537067|Midway|Populated Place|50430|U6|||22|LA|1|079|Rapides|31.0613002|-92.4726362|06/04/1980|
537068|Midway|Populated Place|50465|U6|||22|LA|1|119|Webster|32.9220833|-93.453506|06/04/1980|
537120|Millhaven|Populated Place|50675|U6|||22|LA|1|073|Ouachita|32.4968101|-91.990409|06/04/1980|
537123|Milldale|Populated Place|50535|U6|||22|LA|1|033|East Baton Rouge|30.6676851|-91.027604|06/04/1980|
537144|Millerville|Populated Place|50640|U6|||22|LA|1|033|East Baton Rouge|30.4513016|-91.0245475|06/04/1980|
537146|Millikin|Populated Place|50710|U6|||22|LA|1|035|East Carroll|32.9617919|-91.2259441|06/04/1980|
537163|Mitchell|Populated Place|51130|U6|1552|221552085|22|LA|1|085|Sabine|31.7910018|-93.6279588|06/04/1980|
537212|Morganza|Populated Place|52075|P1|1610|221610077|22|LA|1|077|Pointe Coupee|30.738518|-91.5942819|06/04/1980|03/20/2008
537264|Mossville|Populated Place|52495|U6|||22|LA|1|019|Calcasieu|30.2477051|-93.309044|06/04/1980|
537331|Mount Lebanon|Populated Place|52740|P1|||22|LA|1|013|Bienville|32.5037644|-93.0490508|06/04/1980|03/20/2008
537518|Naomi|Populated Place|53335|U6|||22|LA|1|075|Plaquemines|29.7102109|-89.9922927|06/04/1980|
537557|New California|Populated Place|53915|U6|||22|LA|1|077|Pointe Coupee|30.8485169|-91.7451168|06/04/1980|
537567|New Flanders|Populated Place|53975|U6|||22|LA|1|055|Lafayette|30.1093695|-92.0326217|06/04/1980|
537594|New Light|Populated Place|54070|U6|||22|LA|1|083|Richland|32.2612604|-91.7837378|06/04/1980|
537660|Newellton|Populated Place|53930|P1|1670|221670107|22|LA|1|107|Tensas|32.0726546|-91.2409459|06/04/1980|03/20/2008
537670|Newton|Populated Place|55175|U6|||22|LA|1|019|Calcasieu|30.3115928|-93.2004323|06/04/1980|
537681|Nine Forks|Populated Place|55378|U6|||22|LA|1|119|Webster|32.590151|-93.2046108|06/04/1980|
537692|Noble|Populated Place|55420|P1|1710|221710085|22|LA|1|085|Sabine|31.6896167|-93.6840713|06/04/1980|03/20/2008
537700|Norma|Populated Place|55560|U6|||22|LA|1|009|Avoyelles|31.0421337|-92.1337365|06/04/1980|
537759|Notnac|Populated Place|56365|U6|||22|LA|1|107|Tensas|32.1032093|-91.2023338|06/04/1980|
537770|Oak Grove|Populated Place|56785|U6|||22|LA|1|085|Sabine|31.787391|-93.6449037|06/04/1980|
537798|Oakdale|Populated Place|56540|P1|1740|221740003|22|LA|1|003|Allen|30.8160276|-92.660421|06/04/1980|03/20/2008
537858|Old Shongaloo|Populated Place|57765|U6|||22|LA|1|119|Webster|32.9918044|-93.310169|06/04/1980|
537875|Ollie|Populated Place|57940|U6|||22|LA|1|075|Plaquemines|29.7429878|-90.017571|06/04/1980|
537903|Osceola|Populated Place|58340|U6|||22|LA|1|107|Tensas|31.9696022|-91.2528905|06/04/1980|
537954|Palo Alto|Populated Place|58815|U6|||22|LA|1|005|Ascension|30.0918658|-91.0381562|06/04/1980|
538008|Patin|Populated Place|59270|U6|||22|LA|1|077|Pointe Coupee|30.6899078|-91.4062235|06/04/1980|
538012|Patoutville|Populated Place|59305|U6|||22|LA|1|045|Iberia|29.9035383|-91.7337272|06/04/1980|
538048|Pelican|Populated Place|59725|U6|1843|221843031|22|LA|1|031|De Soto|31.882388|-93.5860129|06/04/1980|
538116|Pickett|Populated Place|60025|U6|||22|LA|1|017|Caddo|32.6398696|-93.7887905|06/04/1980|
538124|Piermont|Populated Place|60050|U6|||22|LA|1|081|Red River|31.9515506|-93.2823925|06/04/1980|
538156|Pine|Populated Place|60285|U6|||22|LA|1|117|Washington|30.9076835|-90.0136933|06/04/1980|
538164|Pine Grove|Populated Place|60355|U6|||22|LA|1|073|Ouachita|32.4534786|-92.0512441|06/04/1980|
538183|Pine Island|Populated Place|60425|U6|||22|LA|1|053|Jefferson Davis|30.3499266|-92.7748667|06/04/1980|
538191|Pine Prairie|Populated Place|60495|P1|1848|221848039|22|LA|1|039|Evangeline|30.7838066|-92.425411|06/04/1980|03/20/2008
538227|Plain Dealing|Populated Place|60670|P1|1860|221860015|22|LA|1|015|Bossier|32.9051385|-93.6968433|06/04/1980|03/20/2008
538281|Point|Populated Place|61300|U6|1892|221892111|22|LA|1|111|Union|32.660974|-92.2776388|06/04/1980|
538285|Point Barre|Populated Place|61350|U6|||22|LA|1|109|Terrebonne|29.4257758|-90.5675867|06/04/1980|
538313|Poland|Populated Place|61510|U6|||22|LA|1|079|Rapides|31.1671311|-92.2756862|06/04/1980|
538352|Porterville|Populated Place|61965|U6|||22|LA|1|119|Webster|32.9459713|-93.4579505|06/04/1980|
538402|Prien|Populated Place|62647|U5|||22|LA|1|019|Calcasieu|30.1818739|-93.2737655|06/04/1980|03/20/2008
538406|Princeton|Populated Place|62665|U6|1954|221954015|22|LA|1|015|Bossier|32.5893162|-93.5151742|06/04/1980|
538414|Promised Land|Populated Place|62715|U6|||22|LA|1|075|Plaquemines|29.7954862|-90.0045148|06/04/1980|
538434|Puckett|Populated Place|62840|U6|||22|LA|1|033|East Baton Rouge|30.5685209|-91.0481598|06/04/1980|
538475|Raceland|Populated Place|63155|U5|1970|221970057|22|LA|1|057|Lafourche|29.7274331|-90.598976|06/04/1980|03/20/2008
538486|Ramah|Populated Place|63260|U6|||22|LA|1|047|Iberville|30.4024175|-91.5073329|06/04/1980|
538489|Rambin|Populated Place|63295|U6|||22|LA|1|031|De Soto|31.9518298|-93.4543423|06/04/1980|
538511|Raymond|Populated Place|63535|U6|||22|LA|1|053|Jefferson Davis|30.3499264|-92.705698|06/04/1980|
538521|Red Chute|Populated Place|63855|U5|1992|221992015|22|LA|1|015|Bossier|32.5559838|-93.6132317|06/04/1980|03/20/2008
538582|Richard|Populated Place|64485|U6|||22|LA|1|001|Acadia|30.4218671|-92.3129067|06/04/1980|
538598|Ridge|Populated Place|64730|U6|||22|LA|1|055|Lafayette|30.1590921|-92.1762368|06/04/1980|
538602|Rienzi Plantation|Populated Place|64835|U6|||22|LA|1|057|Lafourche|29.8140962|-90.8103708|06/04/1980|
538632|Robert|Populated Place|65360|U6|2043|222043105|22|LA|1|105|Tangipahoa|30.5063027|-90.3409185|06/04/1980|
538669|Rocky Branch|Populated Place|65605|U6|||22|LA|1|111|Union|32.6787503|-92.2031922|06/04/1980|
538681|Rodessa|Populated Place|65710|P1|2046|222046017|22|LA|1|017|Caddo|32.9712465|-93.9949029|06/04/1980|03/20/2008
538726|Rosepine|Populated Place|66200|P1|2060|222060115|22|LA|1|115|Vernon|30.9199148|-93.2823858|06/04/1980|03/20/2008
538760|Ruby|Populated Place|66515|U6|2067|222067079|22|LA|1|079|Rapides|31.1893529|-92.248741|06/04/1980|
538763|Rum Center|Populated Place|66565|U6|||22|LA|1|111|Union|32.9901385|-92.6518212|06/04/1980|
538783|Sadie|Populated Place|66725|U6|||22|LA|1|111|Union|32.9892965|-92.2309708|06/04/1980|
538825|Saint Clair|Populated Place|67040|U6|||22|LA|1|075|Plaquemines|29.8699282|-89.9689578|06/04/1980|
538839|Saint Elmo|Populated Place|67145|U6|||22|LA|1|005|Ascension|30.1199209|-90.9606544|06/04/1980|
538848|Saint Genevieve|Populated Place|67285|U6|||22|LA|1|029|Concordia|31.5265563|-91.525675|06/04/1980|
538931|Saint Landry|Populated Place|67530|U6|||22|LA|1|039|Evangeline|30.8443611|-92.257905|06/04/1980|
539122|Samstown|Populated Place|67915|U6|||22|LA|1|047|Iberville|30.1351979|-91.1592709|06/04/1980|
539175|Sarah|Populated Place|68070|U6|||22|LA|1|075|Plaquemines|29.7702092|-90.0300712|06/04/1980|
539184|Sarepta|Populated Place|68125|P1|2115|222115119|22|LA|1|119|Webster|32.8929177|-93.4485059|06/04/1980|03/20/2008
539193|Savage Fork|Populated Place|68175|U6|||22|LA|1|115|Vernon|31.0321348|-93.3534996|06/04/1980|
539208|Scarsdale|Populated Place|68265|U6|||22|LA|1|075|Plaquemines|29.8452068|-89.9778471|06/04/1980|
539248|Security|Populated Place|68625|U6|||22|LA|1|025|Catahoula|31.5343401|-91.8165149|06/04/1980|
539297|Sharon|Populated Place|68930|U6|||22|LA|1|027|Claiborne|32.7718133|-92.7640429|06/04/1980|
539309|Shear|Populated Place|69105|U6|||22|LA|1|011|Beauregard|30.808252|-93.3629446|06/04/1980|
539363|Sibley|Populated Place|70140|U6|||22|LA|1|061|Lincoln|32.5757021|-92.4673665|06/04/1980|
539366|Sicard|Populated Place|70210|U6|||22|LA|1|073|Ouachita|32.5265318|-92.0415213|06/04/1980|
539368|Sikes|Populated Place|70385|P1|2150|222150127|22|LA|1|127|Winn|32.080993|-92.486812|06/04/1980|03/20/2008
539381|Simmesport|Populated Place|70525|P1|2160|222160009|22|LA|1|009|Avoyelles|30.983516|-91.8001195|06/04/1980|03/20/2008
539394|Simsboro|Populated Place|70630|P1|2162|222162061|22|LA|1|061|Lincoln|32.5345953|-92.7884871|06/04/1980|03/20/2008
539395|Singer|Populated Place|70665|U5|2164|222164011|22|LA|1|011|Beauregard|30.6549209|-93.4123893|06/04/1980|01/29/2011
539424|Smiley Heights|Populated Place|70875|U4|||22|LA|1|033|East Baton Rouge|30.4707457|-91.1303838|06/04/1980|
539449|Smithfield|Populated Place|70910|U6|||22|LA|1|121|West Baton Rouge|30.5454669|-91.294554|06/04/1980|
539474|Sondheimer|Populated Place|71120|U6|2185|222185035|22|LA|1|035|East Carroll|32.5501381|-91.1759429|06/04/1980|
539503|South Mansfield|Populated Place|71820|P1|2190|222190031|22|LA|1|031|De Soto|32.0218301|-93.7143492|06/04/1980|03/20/2008
539555|Spokane|Populated Place|72310|U5|2196|222196029|22|LA|1|029|Concordia|31.6993313|-91.4603956|06/04/1980|01/29/2011
539605|Springhill|Populated Place|72485|P1|2200|222200119|22|LA|1|119|Webster|33.0059692|-93.4668396|06/04/1980|03/20/2008
539618|Stampley|Populated Place|72685|U6|||22|LA|1|067|Morehouse|32.8217999|-91.7798475|06/04/1980|
539619|Standard|Populated Place|72695|U6|||22|LA|1|059|La Salle|31.917664|-92.2201378|06/04/1980|
539623|Stanley|Populated Place|72765|U6|||22|LA|1|003|Allen|30.4979786|-92.8979267|06/04/1980|
539629|Starks|Populated Place|72975|U5|2205|222205019|22|LA|1|019|Calcasieu|30.3154826|-93.6618318|06/04/1980|01/29/2011
539654|Stella|Populated Place|73150|U6|||22|LA|1|075|Plaquemines|29.8193743|-89.9959034|06/04/1980|
539665|Stevensdale|Populated Place|73325|U6|||22|LA|1|033|East Baton Rouge|30.4776897|-91.0014915|06/04/1980|
539742|Superior|Populated Place|74165|U6|||22|LA|1|017|Caddo|32.8248627|-93.9787922|06/04/1980|
539772|Swindleville|Populated Place|74390|U6|||22|LA|1|015|Bossier|32.789309|-93.7207335|06/04/1980|
539784|Tangipahoa|Populated Place|74760|P1|2240|222240105|22|LA|1|105|Tangipahoa|30.8760151|-90.5120391|06/04/1980|03/20/2008
539793|Tate Cove|Populated Place|74865|U6|||22|LA|1|039|Evangeline|30.7440855|-92.2470701|06/04/1980|
539809|Taylortown|Populated Place|74970|U6|||22|LA|1|015|Bossier|32.3865439|-93.5960095|06/04/1980|
539830|Terrytown|Populated Place|75180|U5|2246|222246051|22|LA|1|051|Jefferson|29.910205|-90.0325709|06/04/1980|03/20/2008
539888|Thomastown|Populated Place|75565|U6|||22|LA|1|065|Madison|32.3573674|-91.0698302|06/04/1980|
539898|Thornwell|Populated Place|75580|U6|||22|LA|1|053|Jefferson Davis|30.0985422|-92.7973684|06/04/1980|
539910|Three States|Populated Place|75615|U6|||22|LA|1|017|Caddo|33.0193005|-94.0426821|06/04/1980|
539910|Three States|Populated Place|75615|U6|||48|TX|2|067|Cass|33.0193005|-94.0426821|06/04/1980|
539918|Tickfaw|Populated Place|75670|P1|2257|222257105|22|LA|1|105|Tangipahoa|30.5774119|-90.4831456|06/04/1980|03/20/2008
539961|Tony|Populated Place|75900|U6|||22|LA|1|045|Iberia|30.0415909|-91.7334485|06/04/1980|
539966|Topsy|Populated Place|75950|U6|||22|LA|1|053|Jefferson Davis|30.4093688|-93.1223764|06/04/1980|
539968|Torbert|Populated Place|75985|U6|2263|222263077|22|LA|1|077|Pointe Coupee|30.554358|-91.4903883|06/04/1980|
539980|Trees|Populated Place|76265|U6|2266|222266017|22|LA|1|017|Caddo|32.7876415|-94.0310157|06/04/1980|
539981|Tremont|Populated Place|76300|U6|||22|LA|1|061|Lincoln|32.5193147|-92.454866|06/04/1980|
540147|Verdun|Populated Place|78155|U6|||22|LA|1|063|Livingston|30.3396385|-90.7345386|06/04/1980|
540152|Verret|Populated Place|78240|U6|||22|LA|1|019|Calcasieu|30.1565968|-92.9290383|06/04/1980|
540152|Verret|Populated Place|78240|U6|||22|LA|2|053|Jefferson Davis|30.1565968|-92.9290383|06/04/1980|
540156|Victoria|Populated Place|78380|U6|||22|LA|1|069|Natchitoches|31.6640563|-93.2254462|06/04/1980|
540161|Vida|Populated Place|78435|U6|||22|LA|1|045|Iberia|30.034091|-91.7303931|06/04/1980|
540166|Vidrine|Populated Place|78505|U6|||22|LA|1|039|Evangeline|30.6926971|-92.3981875|06/04/1980|
540167|Vienna|Populated Place|78540|P1|||22|LA|1|061|Lincoln|32.5909817|-92.6479275|06/04/1980|03/20/2008
540170|Village de L'Est|Populated Place|78625|U6|||22|LA|1|071|Orleans|30.0371453|-89.9286782|06/04/1980|
540178|Vinton|Populated Place|78820|P1|2330|222330019|22|LA|1|019|Calcasieu|30.1907628|-93.5812717|06/04/1980|03/20/2008
540212|Wallace Ridge|Populated Place|79310|U5|||22|LA|1|025|Catahoula|31.7096126|-91.8273506|06/04/1980|01/29/2011
540233|Wardview|Populated Place|79695|U6|||22|LA|1|015|Bossier|32.9648585|-93.7943442|06/04/1980|
540254|Waterproof|Populated Place|79975|U6|||22|LA|1|109|Terrebonne|29.5629921|-90.7950923|06/04/1980|
540256|Watson|Populated Place|80010|U5|2375|222375063|22|LA|1|063|Livingston|30.5757431|-90.9531574|06/04/1980|01/29/2011
540279|Weeks|Populated Place|80220|U6|2380|222380045|22|LA|1|045|Iberia|29.8077075|-91.8070626|06/04/1980|
540330|West Pointe A La Hache|Populated Place|81060|U6|||22|LA|1|075|Plaquemines|29.5696594|-89.800622|06/04/1980|
540342|Weston|Populated Place|80990|U6|||22|LA|1|049|Jackson|32.2440446|-92.6134826|06/04/1980|
540373|White Plantation|Populated Place|81540|U6|||22|LA|1|057|Lafourche|29.8163174|-90.9117624|06/04/1980|
540409|Wildsville|Populated Place|81830|U6|2434|222434029|22|LA|1|029|Concordia|31.6157261|-91.7840152|06/04/1980|
540442|Williamsport|Populated Place|81990|U6|||22|LA|1|077|Pointe Coupee|30.8951816|-91.6673394|06/04/1980|
540473|Willowdale|Populated Place|82040|U6|||22|LA|1|051|Jefferson|30.0060362|-90.1947976|06/04/1980|
540474|Wills Point|Populated Place|82110|U6|||22|LA|1|075|Plaquemines|29.7468765|-90.0059039|06/04/1980|
540520|Woodlawn|Populated Place|82915|U6|||22|LA|1|053|Jefferson Davis|30.2929838|-92.9584821|06/04/1980|
540550|Wyatt|Populated Place|83230|U6|||22|LA|1|049|Jackson|32.1554356|-92.7032072|06/04/1980|
540611|Zwolle|Populated Place|83685|P1|2500|222500085|22|LA|1|085|Sabine|31.6315626|-93.6440698|06/04/1980|03/20/2008
540612|Zylks|Populated Place|83720|U6|||22|LA|1|017|Caddo|33.001801|-94.0115699|06/04/1980|
540625|Concord|Populated Place|17040|U6|||22|LA|1|123|West Carroll|32.9554046|-91.4467834|01/01/2000|
540631|Hagewood|Populated Place|32475|U6|||22|LA|1|069|Natchitoches|31.7151653|-93.2151681|01/01/2000|
540632|Davant|Populated Place|19595|U6|0536|220536075|22|LA|1|075|Plaquemines|29.6085472|-89.8484005|01/01/2000|
540634|Jay|Populated Place|38040|U6|||22|LA|1|057|Lafourche|29.5952151|-90.4684172|01/01/2000|
540635|Dixie Inn|Populated Place|21135|P1|0599|220599119|22|LA|1|119|Webster|32.5951503|-93.3385032|01/01/2000|03/20/2008
540636|Akers|Populated Place|00765|U6|0034|220034105|22|LA|1|105|Tangipahoa|30.2901963|-90.4017516|01/01/2000|
540639|Cross Roads|Populated Place|18615|U6|||22|LA|1|081|Red River|32.1834922|-93.389895|06/04/1980|
540668|Roseland|Populated Place|66165|P1|2050|222050105|22|LA|1|105|Tangipahoa|30.7649069|-90.5117599|06/04/1980|03/20/2008
540691|Bougere|Populated Place|09060|U6|||22|LA|1|029|Concordia|31.2829524|-91.6273421|06/01/1990|04/15/2011
540719|Hickory Valley|Populated Place|34260|U6|||22|LA|1|127|Winn|32.0229389|-92.405421|05/01/1990|
540799|Corinth|Populated Place|17565|U6|||22|LA|1|061|Lincoln|32.7295921|-92.7876542|09/01/1991|
540801|Mineral Springs|Populated Place|50920|U6|||22|LA|1|061|Lincoln|32.6398684|-92.5737587|09/01/1991|
540901|Ruple|Populated Place|66585|U6|||22|LA|1|027|Claiborne|32.8506993|-93.1643321|09/01/1991|
540903|Mount Union|Populated Place|52845|U6|||22|LA|1|111|Union|32.9334713|-92.55515|09/01/1991|
540912|Carlton|Populated Place|12805|U6|||22|LA|1|073|Ouachita|32.5373683|-92.3595855|09/01/1991|
540913|Eureka|Populated Place|24600|U6|||22|LA|1|073|Ouachita|32.5682006|-92.3548632|09/01/1991|
540921|Shipp|Populated Place|69420|U6|||22|LA|1|017|Caddo|32.5940381|-93.9812938|09/01/1991|
540943|Pleasant Hill|Populated Place|61020|U6|||22|LA|1|013|Bienville|32.4801537|-93.0765516|09/01/1991|
540983|Phillips|Populated Place|59935|U6|||22|LA|1|013|Bienville|32.5465413|-93.089052|09/01/1991|
541041|Abington|Populated Place|00205|U6|||22|LA|1|081|Red River|32.1115492|-93.4787867|06/04/1980|
541042|Acme|Populated Place|00310|U6|0025|220025029|22|LA|1|029|Concordia|31.2857351|-91.8204007|06/04/1980|
541043|Afton|Populated Place|00555|U6|||22|LA|1|065|Madison|32.2448715|-91.1915002|06/04/1980|
541045|Alsatia|Populated Place|01570|U6|||22|LA|1|035|East Carroll|32.6129138|-91.1823318|06/04/1980|
541046|Archie|Populated Place|02725|U6|||22|LA|1|025|Catahoula|31.5798958|-91.9673517|06/04/1980|
541047|Arkana|Populated Place|02950|U6|||22|LA|1|015|Bossier|33.0184682|-93.6746202|06/04/1980|
541048|Bancker|Populated Place|04100|U6|||22|LA|1|113|Vermilion|29.8852079|-92.1242925|06/04/1980|
541049|Barber Spur|Populated Place|04335|U6|||22|LA|1|039|Evangeline|30.6910305|-92.4267997|06/04/1980|
541050|Barso|Populated Place|04525|U6|||22|LA|1|015|Bossier|32.7448659|-93.7276784|06/04/1980|
541051|Bates|Populated Place|04755|U6|||22|LA|1|001|Acadia|30.42159|-92.3984652|06/04/1980|
541052|Belfield|Populated Place|05960|U6|||22|LA|1|019|Calcasieu|30.3390922|-93.2007106|06/04/1980|
541053|Bellevue|Populated Place|06485|U6|||22|LA|1|075|Plaquemines|29.618547|-89.8903461|06/04/1980|
541054|Bordenax|Populated Place|08760|U6|||22|LA|1|067|Morehouse|32.5818063|-91.7637362|06/04/1980|
541055|Bowie|Populated Place|09155|U6|||22|LA|1|057|Lafourche|29.7460437|-90.5945314|06/04/1980|
541056|Breton|Populated Place|09390|U6|||22|LA|1|075|Plaquemines|29.4940993|-89.1739351|06/04/1980|
541057|Bruly McCall|Populated Place|10475|U6|||22|LA|1|005|Ascension|30.1079764|-91.0898243|06/04/1980|
541058|Burnside|Populated Place|11160|U6|||22|LA|1|005|Ascension|30.1388095|-90.9239868|06/04/1980|
541059|Burtville|Populated Place|11317|U6|||22|LA|1|033|East Baton Rouge|30.3324157|-91.1345497|06/04/1980|
541060|Cadeville|Populated Place|11615|U6|||22|LA|1|073|Ouachita|32.4290379|-92.3390298|06/04/1980|
541061|Camille|Populated Place|12015|U6|||22|LA|1|113|Vermilion|29.9546498|-92.0059554|06/04/1980|
541062|Caplis|Populated Place|12595|U6|||22|LA|1|015|Bossier|32.3970992|-93.6096208|06/04/1980|
541063|Carlisle|Populated Place|12770|U6|0334|220334075|22|LA|1|075|Plaquemines|29.6868784|-89.9622919|06/04/1980|
541064|Carterville|Populated Place|13050|U6|||22|LA|1|015|Bossier|32.9698588|-93.5882304|06/04/1980|
541066|Caspiana|Populated Place|13155|U6|0337|220337017|22|LA|1|017|Caddo|32.289046|-93.5562871|06/04/1980|
541067|Catuna|Populated Place|13435|U6|||22|LA|1|031|De Soto|31.9037775|-93.7107387|06/04/1980|
541068|Cecil|Populated Place|13520|U6|||22|LA|1|111|Union|32.960964|-92.2359709|06/04/1980|
541069|Chamblee|Populated Place|14250|U6|||22|LA|1|107|Tensas|31.8615497|-91.3578929|06/04/1980|
541070|Chevey Chase|Populated Place|14880|U6|||22|LA|1|029|Concordia|31.6296143|-91.7656817|06/04/1980|
541071|Clare|Populated Place|15710|U6|||22|LA|1|085|Sabine|31.325461|-93.6046215|06/04/1980|
541072|Clovelly Farms|Populated Place|16130|U6|||22|LA|1|057|Lafourche|29.5404947|-90.2931349|06/04/1980|
541073|Coburn|Populated Place|16220|U6|||22|LA|1|105|Tangipahoa|30.5124136|-90.3984201|06/04/1980|
541074|Coleman|Populated Place|16355|U6|||22|LA|1|065|Madison|32.325702|-91.0845528|06/04/1980|
541075|Coon|Populated Place|17285|U6|||22|LA|1|077|Pointe Coupee|30.7754632|-91.7578933|06/04/1980|
541076|Corey|Populated Place|17530|U6|||22|LA|1|021|Caldwell|32.2226529|-92.1101358|06/04/1980|
541077|Cottonwood|Populated Place|17930|U6|||22|LA|1|035|East Carroll|32.8884609|-91.101774|06/04/1980|
541080|Crimea|Populated Place|18550|U6|||22|LA|1|107|Tensas|31.9771019|-91.336504|06/04/1980|
541081|Cross Keys|Populated Place|18570|U6|||22|LA|1|107|Tensas|31.8840491|-91.3578931|06/04/1980|
541082|D'Arbonne|Populated Place|19350|U6|||22|LA|1|111|Union|32.6748659|-92.4743115|06/04/1980|
541083|Darley|Populated Place|19385|U6|||22|LA|1|027|Claiborne|32.6109843|-93.054051|06/04/1980|
541084|Delaware|Populated Place|20100|U6|||22|LA|1|045|Iberia|29.8921497|-91.7512275|06/04/1980|
541085|Denhart|Populated Place|20450|U6|||22|LA|1|107|Tensas|31.8973821|-91.2976135|06/04/1980|
541086|Deslatte|Populated Place|20805|U6|||22|LA|1|045|Iberia|29.8846497|-91.712338|06/04/1980|
541088|Duty|Populated Place|22335|U6|||22|LA|1|025|Catahoula|31.9151622|-91.9240201|06/04/1980|
541089|Eden|Populated Place|22710|U6|||22|LA|1|059|La Salle|31.6540615|-92.2151346|06/04/1980|
541090|Enterprise|Populated Place|24040|U6|0676|220676025|22|LA|1|025|Catahoula|31.9032179|-91.8831858|06/04/1980|
541091|Fairview|Populated Place|25020|U6|||22|LA|1|029|Concordia|31.3251713|-91.5323407|06/04/1980|
541093|Foremans Hall|Populated Place|26330|U6|||22|LA|1|053|Jefferson Davis|30.1863187|-92.9293156|06/04/1980|
541094|Fort Jackson|Populated Place|26645|U6|||22|LA|1|075|Plaquemines|29.3577184|-89.4550559|06/04/1980|
541095|Fort Jesup|Populated Place|26665|U5|||22|LA|1|085|Sabine|31.6129491|-93.4029513|06/04/1980|01/29/2011
541097|Gahagan|Populated Place|27960|U6|||22|LA|1|081|Red River|32.0398834|-93.4065628|06/04/1980|
541098|Gassoway|Populated Place|28380|U6|||22|LA|1|035|East Carroll|32.9898466|-91.224833|06/04/1980|
541099|Gilead|Populated Place|28975|U6|||22|LA|1|037|East Feliciana|30.7943491|-90.8620454|06/04/1980|
541100|Goodwill|Populated Place|30060|U6|||22|LA|1|119|Webster|32.588761|-93.4326722|06/04/1980|
541101|Grambling Corners|Populated Place|30530|U6|||22|LA|1|061|Lincoln|32.505984|-92.7179293|06/04/1980|
541102|Grande Ecaille|Populated Place|30810|U6|||22|LA|1|075|Plaquemines|29.3791099|-89.7806235|06/04/1980|
541103|Greenfield|Populated Place|31415|U6|||22|LA|1|035|East Carroll|32.7581868|-91.2284437|06/04/1980|
541104|Greig|Populated Place|31825|U6|||22|LA|1|045|Iberia|29.9488156|-91.8298401|06/04/1980|
541105|Gulf Crossing|Populated Place|32090|U6|||22|LA|1|049|Jackson|32.2059894|-92.4732009|06/04/1980|
541106|Harris|Populated Place|33190|U6|||22|LA|1|069|Natchitoches|31.9123857|-93.4148966|06/04/1980|
541107|Helena|Populated Place|33770|U6|||22|LA|1|107|Tensas|31.8712716|-91.3934496|06/04/1980|
541108|Hipple|Populated Place|35030|U6|||22|LA|1|019|Calcasieu|30.2279842|-93.1470969|06/04/1980|
541109|Holloway|Populated Place|35240|U6|||22|LA|1|079|Rapides|31.3904583|-92.2298536|06/04/1980|
541110|Holly Ridge|Populated Place|35450|U6|||22|LA|1|107|Tensas|31.8957154|-91.4717854|06/04/1980|
541111|Howell|Populated Place|36340|U6|||22|LA|1|033|East Baton Rouge|30.5238|-91.1442733|06/04/1980|
541112|Hudson|Populated Place|36395|U6|||22|LA|1|127|Winn|32.0371051|-92.5851479|06/04/1980|
541113|Husser|Populated Place|36640|U6|1069|221069105|22|LA|1|105|Tangipahoa|30.679354|-90.3373098|06/04/1980|
541114|Irma|Populated Place|37550|U6|||22|LA|1|069|Natchitoches|31.7998856|-93.0123834|06/04/1980|
541115|Jenkins|Populated Place|38320|U6|||22|LA|1|117|Washington|30.8121293|-90.1370285|06/04/1980|
541117|Jonesburg|Populated Place|38705|U6|||22|LA|1|083|Richland|32.5251409|-91.7567918|06/04/1980|
541118|Justina|Populated Place|39010|U6|||22|LA|1|107|Tensas|31.9773797|-91.4295622|06/04/1980|
541119|Kessler|Populated Place|39580|U6|||22|LA|1|007|Assumption|30.0360336|-91.059545|06/04/1980|
541120|Kingston|Populated Place|39825|U6|||22|LA|1|031|De Soto|32.1843267|-93.7110132|06/04/1980|
541121|Lachute|Populated Place|40630|U6|||22|LA|1|017|Caddo|32.2637686|-93.5265645|06/04/1980|
541122|Lakefield|Populated Place|41240|U6|||22|LA|1|049|Jackson|32.2795999|-92.7548754|06/04/1980|
541123|Laran|Populated Place|42065|U6|||22|LA|1|111|Union|32.9737465|-92.4854256|06/04/1980|
541124|Lasalle|Populated Place|42220|U6|||22|LA|1|045|Iberia|29.9757602|-91.9476206|06/04/1980|
541125|Latanier|Populated Place|42240|U6|||22|LA|1|079|Rapides|31.20213|-92.3562445|06/04/1980|
541126|Lauderdale|Populated Place|42275|U6|||22|LA|1|003|Allen|30.4813125|-92.7751452|06/04/1980|
541127|Linton|Populated Place|44060|U6|||22|LA|1|015|Bossier|32.6879238|-93.6365656|06/04/1980|
541128|Lismore|Populated Place|44270|U6|||22|LA|1|029|Concordia|31.5157291|-91.7720693|06/04/1980|
541129|Litroe|Populated Place|44305|U6|||22|LA|1|111|Union|32.9934624|-92.1962477|06/04/1980|
541130|Longwood|Populated Place|45565|U6|||22|LA|1|017|Caddo|32.5593173|-93.9785162|06/04/1980|
541131|Lorraine|Populated Place|45760|U6|||22|LA|1|105|Tangipahoa|30.5060249|-90.2784168|06/04/1980|
541132|Lucas|Populated Place|46230|U6|||22|LA|1|017|Caddo|32.4007105|-93.6912891|06/04/1980|
541133|Lucky|Populated Place|46370|P1|||22|LA|1|013|Bienville|32.2551572|-92.9968268|06/04/1980|03/20/2008
541134|Ludger|Populated Place|46430|U6|||22|LA|1|045|Iberia|29.9488158|-91.8645632|06/04/1980|
541135|Lyons|Populated Place|46790|U6|||22|LA|1|049|Jackson|32.1598797|-92.4840343|06/04/1980|
541136|Lyons|Populated Place|46780|U6|||22|LA|1|045|Iberia|29.8840942|-91.6998378|06/04/1980|
541137|Marce|Populated Place|48565|U6|||22|LA|1|045|Iberia|29.9427049|-91.884286|06/04/1980|
541138|Mayflower|Populated Place|49360|U6|||22|LA|1|107|Tensas|31.9515471|-91.3915055|06/04/1980|
541139|McDade|Populated Place|47000|U6|1369|221369015|22|LA|1|015|Bossier|32.3234895|-93.5282308|06/04/1980|
541140|McGinty|Populated Place|47105|U6|||22|LA|1|067|Morehouse|33.0017933|-91.6290105|06/04/1980|
541142|Fairview Alpha|Populated Place|25065|U6|||22|LA|1|069|Natchitoches|31.9709944|-93.1865558|06/04/1980|
541142|Fairview Alpha|Populated Place|25065|U6|||22|LA|2|081|Red River|31.9709944|-93.1865558|06/04/1980|
541143|Mestayer|Populated Place|50100|U6|||22|LA|1|045|Iberia|30.0668681|-91.6926147|06/04/1980|
541144|Midway|Populated Place|50360|U6|||22|LA|1|015|Bossier|32.7145896|-93.5935092|06/04/1980|
541146|Morvant|Populated Place|52355|U6|||22|LA|1|057|Lafourche|29.8127065|-90.8970397|06/04/1980|
541147|Mulnix|Populated Place|53090|U6|||22|LA|1|027|Claiborne|32.6945937|-93.0390507|06/04/1980|
541148|Mulvey|Populated Place|53110|U6|||22|LA|1|113|Vermilion|30.0063178|-92.4040217|06/04/1980|
541149|Neale|Populated Place|53615|U6|||22|LA|1|011|Beauregard|30.7732543|-93.4585038|06/04/1980|
541150|New Friendship|Populated Place|53985|U6|||22|LA|1|013|Bienville|32.2643231|-92.8726566|06/04/1980|
541151|Niblett|Populated Place|55280|U6|||22|LA|1|053|Jefferson Davis|30.1029864|-92.8537591|06/04/1980|
541152|Nickel|Populated Place|55364|U6|||22|LA|1|059|La Salle|31.8093339|-92.0540225|06/04/1980|
541153|North Island|Populated Place|55925|U6|||22|LA|1|023|Cameron|29.7135537|-92.734586|06/04/1980|
541155|Oakland|Populated Place|56870|U6|||22|LA|1|015|Bossier|32.4682087|-93.5096184|06/04/1980|
541156|Oakley|Populated Place|57050|U6|||22|LA|1|047|Iberville|30.2690839|-91.103993|06/04/1980|
541157|Oaknolia|Populated Place|57100|U6|||22|LA|1|037|East Feliciana|30.7329612|-90.9906589|06/04/1980|
541158|Okaloosa|Populated Place|57625|U6|||22|LA|1|073|Ouachita|32.3801502|-92.3279187|06/04/1980|
541159|Old Athens|Populated Place|57660|U6|||22|LA|1|027|Claiborne|32.6457058|-93.0576623|06/04/1980|
541160|Olive Branch|Populated Place|57817|U6|||22|LA|1|037|East Feliciana|30.7440722|-91.0620495|06/04/1980|
541161|Omega|Populated Place|57975|U6|||22|LA|1|065|Madison|32.5165281|-91.1395533|06/04/1980|
541162|Peason|Populated Place|59480|U6|||22|LA|1|085|Sabine|31.4137888|-93.2946134|06/04/1980|
541163|Percle|Populated Place|59740|U6|||22|LA|1|007|Assumption|29.8685375|-91.0117653|06/04/1980|
541164|Peveto Beach|Populated Place|59915|U6|||22|LA|1|023|Cameron|29.7610565|-93.5584903|06/04/1980|
541165|Point Breeze|Populated Place|61380|U6|||22|LA|1|029|Concordia|31.054899|-91.5737289|06/04/1980|
541166|Point Celeste|Populated Place|61395|U6|||22|LA|1|075|Plaquemines|29.5982698|-89.8481229|06/04/1980|
541167|Point Pleasant|Populated Place|61475|U6|||22|LA|1|027|Claiborne|32.6879273|-92.9729376|06/04/1980|
541168|Poufette|Populated Place|62220|U6|||22|LA|1|045|Iberia|29.9432608|-91.9309537|06/04/1980|
541169|Presquille|Populated Place|62510|U5|||22|LA|1|109|Terrebonne|29.5638263|-90.6461996|06/04/1980|01/29/2011
541170|Preston|Populated Place|62525|U6|||22|LA|1|017|Caddo|32.2557151|-93.877405|06/04/1980|
541171|Quinton|Populated Place|63100|U6|||22|LA|1|077|Pointe Coupee|30.8224059|-91.7051163|06/04/1980|
541172|Reiley|Populated Place|64200|U6|||22|LA|1|037|East Feliciana|30.7437943|-90.9692697|06/04/1980|
541173|Rhymes|Populated Place|64405|U6|||22|LA|1|083|Richland|32.3790353|-91.8990183|06/04/1980|
541174|Richland|Populated Place|64570|U6|||22|LA|1|107|Tensas|31.8365504|-91.451229|06/04/1980|
541175|Rilla|Populated Place|64890|U6|||22|LA|1|073|Ouachita|32.4154247|-92.1009679|06/04/1980|
541176|Ringwood|Populated Place|64940|U6|||22|LA|1|127|Winn|31.9840513|-92.5232015|06/04/1980|
541177|Robson|Populated Place|65395|U6|||22|LA|1|017|Caddo|32.3618224|-93.642955|06/04/1980|
541178|Rogillioville|Populated Place|65825|U6|||22|LA|1|125|West Feliciana|30.9251792|-91.2312199|06/04/1980|
541179|Rork|Populated Place|65920|U6|||22|LA|1|001|Acadia|30.4396453|-92.4112434|06/04/1980|
541180|Rose Hill|Populated Place|66145|U6|||22|LA|1|113|Vermilion|29.9171515|-92.1281813|06/04/1980|
541181|Rosefield|Populated Place|66095|U6|2049|222049025|22|LA|1|025|Catahoula|31.8909972|-91.9987439|06/04/1980|
541182|Rousseau|Populated Place|66375|U6|||22|LA|1|057|Lafourche|29.7635428|-90.7225904|06/04/1980|
541183|Sailes|Populated Place|66795|U6|||22|LA|1|013|Bienville|32.4254325|-93.1082193|06/04/1980|
541184|Saint Rosalie|Populated Place|67705|U6|||22|LA|1|075|Plaquemines|29.6638235|-89.9695146|06/04/1980|
541185|Santiague|Populated Place|68060|U6|||22|LA|1|045|Iberia|29.9849263|-91.9042862|06/04/1980|
541186|Seale|Populated Place|68545|U6|||22|LA|1|011|Beauregard|30.5618656|-93.4359995|06/04/1980|
541187|Sentell|Populated Place|68720|U6|||22|LA|1|017|Caddo|32.6482027|-93.7976795|06/04/1980|
541188|Shady Grove|Populated Place|68800|U6|||22|LA|1|107|Tensas|31.961269|-91.4248398|06/04/1980|
541189|Sharkey|Populated Place|68912|U6|||22|LA|1|105|Tangipahoa|30.3701945|-90.4206417|06/04/1980|
541190|Sherwood|Populated Place|69300|U6|||22|LA|1|025|Catahoula|31.8504427|-91.9479094|06/04/1980|
541191|Shiloh|Populated Place|69385|U6|||22|LA|1|111|Union|32.7934759|-92.5893158|06/04/1980|
541192|Smurney|Populated Place|71030|U6|||22|LA|1|111|Union|32.6068108|-92.3754195|06/04/1980|
541193|Sparta|Populated Place|72150|U6|||22|LA|1|013|Bienville|32.3673778|-93.0796073|06/04/1980|
541194|Spillman|Populated Place|72240|U6|||22|LA|1|125|West Feliciana|30.9299012|-91.2837213|06/04/1980|
541195|Spring Lake|Populated Place|72500|U6|||22|LA|1|027|Claiborne|32.7334816|-93.0551623|06/04/1980|
541196|Stein|Populated Place|73125|U6|||22|LA|1|117|Washington|30.6904664|-89.9392424|06/04/1980|
541197|Summerfield|Populated Place|73760|U6|||22|LA|1|043|Grant|31.5798939|-92.721539|06/04/1980|
541198|Teddy|Populated Place|75040|U6|||22|LA|1|037|East Feliciana|30.984345|-90.9767696|06/04/1980|
541199|Thibodaux Junction|Populated Place|75460|U6|||22|LA|1|057|Lafourche|29.7529869|-90.7995368|06/04/1980|
541201|Tulip|Populated Place|76560|U6|||22|LA|1|027|Claiborne|32.6818164|-92.9865491|06/04/1980|
541202|Turnbull|Populated Place|76700|U6|||22|LA|1|125|West Feliciana|30.9546222|-91.4670599|06/04/1980|
541203|Turps|Populated Place|76735|U6|||22|LA|1|011|Beauregard|30.418257|-93.2004343|06/04/1980|
541204|Tyrone|Populated Place|76860|U6|||22|LA|1|039|Evangeline|30.4971453|-92.511247|06/04/1980|
541205|Union Point|Populated Place|77130|U6|||22|LA|1|029|Concordia|31.2207311|-91.6256751|06/04/1980|
541206|Vernon|Populated Place|78225|U6|2309|222309049|22|LA|1|049|Jackson|32.3887633|-92.5715365|06/04/1980|
541207|Vowells Mill|Populated Place|78995|U6|||22|LA|1|069|Natchitoches|31.5673941|-93.2840589|06/04/1980|
541208|Walters|Populated Place|79555|U6|2352|222352025|22|LA|1|025|Catahoula|31.5473971|-91.995963|06/04/1980|
541209|Webre|Populated Place|80175|U6|||22|LA|1|047|Iberville|30.4185276|-91.4470544|06/04/1980|
541210|Weiss|Populated Place|80325|U6|||22|LA|1|063|Livingston|30.6471302|-90.9056567|06/04/1980|
541211|Weldon|Populated Place|80395|U6|||22|LA|1|027|Claiborne|32.859588|-92.7254324|06/04/1980|
541211|Weldon|Populated Place|80395|U6|||22|LA|2|111|Union|32.859588|-92.7254324|06/04/1980|
541212|Wemple|Populated Place|80465|U6|||22|LA|1|031|De Soto|32.0123843|-93.4796207|06/04/1980|
541213|Westdale|Populated Place|80605|U6|||22|LA|1|081|Red River|32.1648815|-93.4798975|06/04/1980|
541214|Weyanoke|Populated Place|81200|U6|2425|222425125|22|LA|1|125|West Feliciana|30.9468448|-91.4612264|06/04/1980|
541215|Wilhite|Populated Place|81935|U6|||22|LA|1|111|Union|32.6168089|-92.2804167|06/04/1980|
541216|Williams|Populated Place|81950|U6|||22|LA|1|001|Acadia|30.4657566|-92.4662454|06/04/1980|
541217|Womack|Populated Place|82635|U6|||22|LA|1|081|Red River|32.1882143|-93.2423912|06/04/1980|
541218|Womack|Populated Place|82600|U6|||22|LA|1|049|Jackson|32.2382108|-92.4729231|06/04/1980|
541219|Woodland|Populated Place|82845|U6|2462|222462075|22|LA|1|075|Plaquemines|29.5849368|-89.8253447|06/04/1980|
541220|Youngs|Populated Place|83300|U6|||22|LA|1|113|Vermilion|29.9677059|-92.1162361|06/04/1980|
541221|Zona|Populated Place|83650|U6|||22|LA|1|117|Washington|30.7482424|-90.0811921|06/04/1980|
541277|Cypress|Populated Place|19105|U6|||22|LA|1|073|Ouachita|32.3223733|-92.2498613|12/01/1991|
541284|Indian Village|Populated Place|37165|U6|||22|LA|1|073|Ouachita|32.4729265|-92.4118094|12/01/1991|
541288|Cartwright|Populated Place|13085|U6|||22|LA|1|049|Jackson|32.4679273|-92.4698665|12/01/1991|
541290|East Hodge|Populated Place|22465|P1|0651|220651049|22|LA|1|049|Jackson|32.2779331|-92.7140409|12/01/1991|03/20/2008
541349|Mason|Populated Place|49135|U6|||22|LA|1|041|Franklin|32.0696009|-91.8870746|12/01/1991|
541539|Oak Grove|Populated Place|56715|U6|||22|LA|1|043|Grant|31.520176|-92.5423646|12/01/1991|
541541|Farmland|Populated Place|25195|U6|||22|LA|1|043|Grant|31.5529535|-92.3940267|12/01/1991|
541582|Ridgecrest|Populated Place|64765|P1|||22|LA|1|029|Concordia|31.6029441|-91.5278975|12/01/1991|03/20/2008
541605|Quaid|Populated Place|62980|U6|||22|LA|1|025|Catahoula|31.6757247|-91.8126277|12/01/1991|
541944|Argo|Populated Place|02865|U6|||22|LA|1|025|Catahoula|31.3307355|-91.8859577|12/01/1991|
542093|State Line|Populated Place|73080|U6|||22|LA|1|117|Washington|30.980738|-89.9503594|12/01/1991|
542094|Stoney Point|Populated Place|73430|U6|||22|LA|1|117|Washington|30.8182395|-90.2786996|12/01/1991|
542482|South Pass|Populated Place|71925|U6|||22|LA|1|075|Plaquemines|28.9946746|-89.1428244|06/01/1992|
542794|Myrtle Grove|Populated Place|53195|U4|||22|LA|1|047|Iberville|30.2960276|-91.246497|06/01/1992|
542797|Choctaw|Populated Place|15185|U6|||22|LA|1|121|West Baton Rouge|30.3882484|-91.2987202|06/01/1992|
542910|Abby Plantation|Populated Place|00135|U6|||22|LA|1|057|Lafourche|29.8118738|-90.8409271|06/04/1980|
542911|Acadia|Populated Place|00260|U6|||22|LA|1|057|Lafourche|29.7688198|-90.8014815|06/04/1980|
542912|Ada|Populated Place|00380|U6|||22|LA|1|013|Bienville|32.5459856|-93.1404423|06/04/1980|
542913|Adner|Populated Place|00485|U6|||22|LA|1|015|Bossier|32.5670946|-93.6079538|06/04/1980|
542914|Ajax|Populated Place|00730|U6|||22|LA|1|069|Natchitoches|31.8765528|-93.3898959|06/04/1980|
542915|Albemarle|Populated Place|00870|U6|||22|LA|1|007|Assumption|29.8827041|-90.9748199|06/04/1980|
542916|Alice|Populated Place|01150|U6|||22|LA|1|125|West Feliciana|30.9199014|-91.2976106|06/04/1980|
542917|Allemand|Populated Place|01255|U6|||22|LA|1|109|Terrebonne|29.660212|-90.7656472|06/04/1980|
542918|Allendale|Populated Place|01395|U6|||22|LA|1|121|West Baton Rouge|30.496579|-91.2728872|06/04/1980|
542919|Alliance|Populated Place|01420|U6|||22|LA|1|075|Plaquemines|29.6885449|-89.981737|06/04/1980|
542920|Allon|Populated Place|01440|U6|||22|LA|1|077|Pointe Coupee|30.6412989|-91.4940016|06/04/1980|
542921|Almadane|Populated Place|01480|U6|||22|LA|1|115|Vernon|30.9418614|-93.5048936|06/04/1980|
542924|Alsen|Populated Place|01605|U6|||22|LA|1|033|East Baton Rouge|30.5712989|-91.204275|06/04/1980|
542925|Anandale|Populated Place|01955|U6|||22|LA|1|079|Rapides|31.255184|-92.4540258|06/04/1980|
542926|Anchor|Populated Place|01975|U6|||22|LA|1|077|Pointe Coupee|30.6835189|-91.3551114|06/04/1980|
542928|Anchorage|Populated Place|01990|U6|||22|LA|1|121|West Baton Rouge|30.48269|-91.2103861|06/04/1980|
542929|Andrew|Populated Place|02060|U6|||22|LA|1|113|Vermilion|30.0849269|-92.2429057|06/04/1980|
542931|Ansley|Populated Place|02340|U6|||22|LA|1|049|Jackson|32.3957084|-92.6929289|06/04/1980|
542932|Antonio|Populated Place|02460|U6|||22|LA|1|121|West Baton Rouge|30.4063028|-91.2248304|06/04/1980|
542933|Arceneaux|Populated Place|02675|U6|||22|LA|1|001|Acadia|30.2904795|-92.2281824|06/04/1980|
542934|Ardoyne|Populated Place|02830|U6|||22|LA|1|109|Terrebonne|29.6466007|-90.8217597|06/04/1980|
542935|Argyle|Populated Place|02885|U6|||22|LA|1|077|Pointe Coupee|30.6585213|-91.6440032|06/04/1980|
542936|Argyle|Populated Place|02910|U6|||22|LA|1|109|Terrebonne|29.5721589|-90.7470355|06/04/1980|
542937|Ashland|Populated Place|03180|U6|||22|LA|1|109|Terrebonne|29.5296604|-90.6756449|06/04/1980|
542938|Ashland|Populated Place|03160|U6|||22|LA|1|107|Tensas|31.9748798|-91.3923389|06/04/1980|
542939|Ashly|Populated Place|03215|U6|||22|LA|1|065|Madison|32.4415309|-91.1231645|06/04/1980|
542940|Atherton|Populated Place|03340|U6|||22|LA|1|035|East Carroll|32.6984664|-91.1703869|06/04/1980|
542941|Aubin|Populated Place|03445|U6|||22|LA|1|033|East Baton Rouge|30.419358|-91.0631595|06/04/1980|
542942|Augusta|Populated Place|03565|U6|||22|LA|1|075|Plaquemines|29.8002082|-90.017293|06/04/1980|
542943|Avondale|Populated Place|03825|U6|||22|LA|1|107|Tensas|31.9404364|-91.28178|06/04/1980|
542944|Avondale|Populated Place|03810|U5|0097|220097051|22|LA|1|051|Jefferson|29.9129834|-90.2036869|06/04/1980|03/20/2008
542945|Azucena|Populated Place|03880|U6|||22|LA|1|107|Tensas|31.777941|-91.4378951|06/04/1980|
542946|Bakers|Populated Place|04000|U6|||22|LA|1|041|Franklin|32.3412571|-91.5212304|06/04/1980|
542947|Balmoral|Populated Place|04075|U6|||22|LA|1|107|Tensas|32.1148755|-91.224001|06/04/1980|
542948|Banks Springs|Populated Place|04230|U5|||22|LA|1|021|Caldwell|32.082102|-92.0929133|06/04/1980|01/29/2011
542949|Barataria|Populated Place|04300|U5|0114|220114051|22|LA|1|051|Jefferson|29.7232665|-90.1236852|06/04/1980|03/20/2008
542950|Barcelona|Populated Place|04350|U6|||22|LA|1|107|Tensas|31.852661|-91.4228949|06/04/1980|
542951|Bardel|Populated Place|04360|U6|||22|LA|1|083|Richland|32.5509736|-91.757625|06/04/1980|
542952|Barmen|Populated Place|04405|U6|||22|LA|1|005|Ascension|30.1624204|-90.8162062|06/04/1980|
542953|Barnet Springs|Populated Place|04440|U6|||22|LA|1|061|Lincoln|32.5076503|-92.6759836|06/04/1980|
542954|Barnsdall|Populated Place|04455|U6|||22|LA|1|053|Jefferson Davis|30.4807569|-92.6551411|06/04/1980|
542955|Barron|Populated Place|04510|U6|||22|LA|1|079|Rapides|31.3368488|-92.2495756|06/04/1980|
542956|Barton|Populated Place|04545|U6|||22|LA|1|005|Ascension|30.0863103|-91.0545454|06/04/1980|
542957|Baskin|Populated Place|04615|P1|0130|220130041|22|LA|1|041|Franklin|32.2590381|-91.7476257|06/04/1980|03/20/2008
542958|Baskinton|Populated Place|04650|U6|||22|LA|1|041|Franklin|32.3112584|-91.6806793|06/04/1980|
542959|Bassa Bassa|Populated Place|04670|U6|||22|LA|1|051|Jefferson|29.3638343|-89.9945166|06/04/1980|
542961|Bawcomville|Populated Place|05105|U5|0152|220152073|22|LA|1|073|Ouachita|32.4704237|-92.1673582|06/04/1980|01/29/2011
542962|Bayou Corne|Populated Place|05255|U5|||22|LA|1|007|Assumption|30.014645|-91.1551028|06/04/1980|04/05/2014
542965|Bayou Sorrel|Populated Place|05490|U6|0158|220158047|22|LA|1|047|Iberville|30.1618646|-91.3356646|06/04/1980|
542966|Baywood|Populated Place|05560|U6|||22|LA|1|033|East Baton Rouge|30.6910181|-90.8831565|06/04/1980|
542968|Bear Skin|Populated Place|05645|U6|||22|LA|1|123|West Carroll|32.6818028|-91.5962318|06/04/1980|
542969|Beaud|Populated Place|05675|U6|||22|LA|1|077|Pointe Coupee|30.7068519|-91.4934476|06/04/1980|
542970|Beaulieu|Populated Place|05685|U6|||22|LA|1|121|West Baton Rouge|30.4240802|-91.2162192|06/04/1980|
542971|Bee Bayou|Populated Place|05735|U6|||22|LA|1|083|Richland|32.4731977|-91.6956791|06/04/1980|
542972|Beech Springs|Populated Place|05750|U6|||22|LA|1|049|Jackson|32.3068211|-92.6468167|06/04/1980|
542973|Bel|Populated Place|05840|U6|||22|LA|1|003|Allen|30.5199219|-93.0845991|06/04/1980|
542974|Belle Amie|Populated Place|06050|U6|||22|LA|1|057|Lafourche|29.4941072|-90.3278581|06/04/1980|
542975|Belle Chasse|Populated Place|06120|U5|0163|220163075|22|LA|1|075|Plaquemines|29.8549287|-89.9906253|06/04/1980|03/20/2008
542976|Belle Place|Populated Place|06165|U6|||22|LA|1|045|Iberia|30.015758|-91.7267821|06/04/1980|
542977|Belle d'Eau|Populated Place|06145|U6|||22|LA|1|009|Avoyelles|31.0843553|-92.1917942|06/04/1980|
542978|Bellevue|Populated Place|06470|U6|||22|LA|1|019|Calcasieu|30.1924295|-93.0843185|06/04/1980|
542979|Belmont|Populated Place|06790|U6|||22|LA|1|121|West Baton Rouge|30.4988007|-91.2356646|06/04/1980|
542981|Bemis|Populated Place|06795|U6|||22|LA|1|111|Union|32.9570744|-92.1784693|06/04/1980|
542982|Benson|Populated Place|06855|U6|0169|220169031|22|LA|1|031|De Soto|31.8662784|-93.6937938|06/04/1980|
542983|Bermuda|Populated Place|06960|U6|||22|LA|1|069|Natchitoches|31.6623887|-93.0037723|06/04/1980|
542984|Bernice|Populated Place|07030|P1|0180|220180111|22|LA|1|111|Union|32.8220876|-92.6579295|06/04/1980|03/20/2008
542985|Beshel|Populated Place|07110|U6|||22|LA|1|075|Plaquemines|29.5599375|-89.770899|06/04/1980|
542986|Bethel|Populated Place|07145|U6|||22|LA|1|069|Natchitoches|31.7893303|-93.0512737|06/04/1980|
542987|Bickham|Populated Place|07190|U6|||22|LA|1|117|Washington|30.8674052|-90.2156434|06/04/1980|
542989|Big Creek|Populated Place|07310|U6|||22|LA|1|041|Franklin|32.2918149|-91.7631816|06/04/1980|
542990|Big Island|Populated Place|07345|U6|||22|LA|1|079|Rapides|31.3371265|-92.1654073|06/04/1980|
542991|Big Woods|Populated Place|07400|U6|||22|LA|1|019|Calcasieu|30.2857602|-93.5632167|06/04/1980|
542993|Billeaud|Populated Place|07450|U6|||22|LA|1|055|Lafayette|30.1357573|-91.9456748|06/04/1980|
542994|Billy Goat Hill|Populated Place|07465|U6|||22|LA|1|115|Vernon|31.088799|-93.2707199|06/04/1980|
542995|Bird|Populated Place|07485|U4|||22|LA|1|033|East Baton Rouge|30.4743567|-91.1231615|06/04/1980|
542996|Bivens|Populated Place|07555|U6|||22|LA|1|011|Beauregard|30.6299231|-93.6062833|06/04/1980|
542997|Blanchard|Populated Place|07730|P1|0205|220205017|22|LA|1|017|Caddo|32.580983|-93.8926813|06/04/1980|03/20/2008
542998|Blanks|Populated Place|07800|U6|0206|220206077|22|LA|1|077|Pointe Coupee|30.5532473|-91.6003902|06/04/1980|
543001|Bob Acres|Populated Place|07975|U6|||22|LA|1|045|Iberia|29.9485386|-91.9653989|06/04/1980|
543002|Bogalusa|Populated Place|08150|P1|0210|220210117|22|LA|1|117|Washington|30.7910204|-89.8486858|06/04/1980|03/20/2008
543003|Bohemia|Populated Place|08185|U6|||22|LA|1|075|Plaquemines|29.5438268|-89.7556212|06/04/1980|09/03/2014
543004|Bolinger|Populated Place|08325|U6|||22|LA|1|015|Bossier|32.9443039|-93.6976763|06/04/1980|
543005|Bolivar|Populated Place|08360|U6|||22|LA|1|105|Tangipahoa|30.8690712|-90.3948142|06/04/1980|
543006|Bon Air|Populated Place|08395|U6|||22|LA|1|019|Calcasieu|30.1907631|-93.0257067|06/04/1980|
543007|Bond|Populated Place|08465|U6|||22|LA|1|003|Allen|30.6910304|-92.6129185|06/04/1980|
543009|Bonnabel Place|Populated Place|08605|U6|||22|LA|1|051|Jefferson|29.9971473|-90.1431294|06/04/1980|
543010|Book|Populated Place|08675|U6|||22|LA|1|025|Catahoula|31.3374015|-91.8715132|06/04/1980|
543011|Bordelonville|Populated Place|08745|U5|0225|220225009|22|LA|1|009|Avoyelles|31.1054624|-91.9073439|06/04/1980|01/29/2011
543012|Borodino|Populated Place|08815|U6|||22|LA|1|009|Avoyelles|31.0660199|-91.9509548|06/04/1980|
543014|Boudreaux|Populated Place|08970|U6|||22|LA|1|045|Iberia|29.9140939|-91.7848393|06/04/1980|
543015|Bourg|Populated Place|09095|U5|0235|220235109|22|LA|1|109|Terrebonne|29.5535491|-90.6023096|06/04/1980|01/29/2011
543017|Bowie|Populated Place|09145|U6|||22|LA|1|035|East Carroll|32.7581869|-91.268167|06/04/1980|
543018|Brake|Populated Place|09215|U6|||22|LA|1|125|West Feliciana|30.922957|-91.5440055|06/04/1980|
543019|Brandon|Populated Place|09250|U6|||22|LA|1|125|West Feliciana|30.9043461|-91.5190052|06/04/1980|
543021|Breard|Populated Place|09305|U4|||22|LA|1|073|Ouachita|32.5365318|-92.0818002|06/04/1980|
543022|Bridge City|Populated Place|09480|U5|0255|220255051|22|LA|1|051|Jefferson|29.9332605|-90.1700748|06/04/1980|03/20/2008
543023|Bridge Junction|Populated Place|09530|U6|||22|LA|1|019|Calcasieu|30.2638162|-93.1970979|06/04/1980|
543024|Broadmoor|Populated Place|09795|U4|||22|LA|1|033|East Baton Rouge|30.447135|-91.0851047|06/04/1980|
543025|Broadmoor|Populated Place|09865|U6|||22|LA|1|109|Terrebonne|29.6324351|-90.7470355|06/04/1980|
543026|Bronson|Populated Place|09915|U6|||22|LA|1|045|Iberia|30.0696459|-91.7359482|06/04/1980|
543027|Brookstown|Populated Place|09970|U4|||22|LA|1|033|East Baton Rouge|30.4935229|-91.1284394|06/04/1980|
543029|Brousville|Populated Place|10095|U6|||22|LA|1|045|Iberia|29.9629826|-91.938176|06/04/1980|
543030|Brown Heights|Populated Place|10180|U6|||22|LA|1|033|East Baton Rouge|30.5901872|-91.1167728|06/04/1980|
543031|Brownell|Populated Place|10125|U6|||22|LA|1|041|Franklin|32.1165428|-91.7420706|06/04/1980|
543032|Brule|Populated Place|10335|U6|||22|LA|1|057|Lafourche|29.8040958|-90.8753725|06/04/1980|
543033|Bruly Saint Martin|Populated Place|10495|U6|||22|LA|1|007|Assumption|30.0460333|-91.0973239|06/04/1980|
543034|Bruns|Populated Place|10530|U6|||22|LA|1|047|Iberville|30.2282516|-91.0664916|06/04/1980|
543035|Brusly|Populated Place|10600|P1|0280|220280121|22|LA|1|121|West Baton Rouge|30.3943588|-91.2537199|06/04/1980|03/20/2008
543036|Brusly Landing|Populated Place|10635|U6|||22|LA|1|121|West Baton Rouge|30.3876922|-91.2373306|06/04/1980|
543038|Buckner|Populated Place|10775|U6|||22|LA|1|083|Richland|32.3009824|-91.938742|06/04/1980|
543039|Bueche|Populated Place|10845|U6|0297|220297121|22|LA|1|121|West Baton Rouge|30.5710223|-91.3484434|06/04/1980|
543040|Buhler|Populated Place|10880|U6|||22|LA|1|019|Calcasieu|30.3329808|-93.3621026|06/04/1980|
543041|Buie|Populated Place|10890|U6|||22|LA|1|041|Franklin|32.0501569|-91.8584628|06/04/1980|
543043|Bull Run|Populated Place|10925|U6|||22|LA|1|109|Terrebonne|29.6535444|-90.8737054|06/04/1980|
543044|Buller|Populated Place|10900|U6|||22|LA|1|053|Jefferson Davis|30.3799258|-93.0184845|06/04/1980|
543045|Bullion|Populated Place|10915|U6|||22|LA|1|005|Ascension|30.3279714|-90.9973238|06/04/1980|
543046|Buncombe (historical)|Populated Place|10940|U6|||22|LA|1|017|Caddo|32.4582094|-93.8457366|06/04/1980|
543048|Bushes|Populated Place|11370|U6|||22|LA|1|041|Franklin|32.2173724|-91.6162334|06/04/1980|
543050|Campbell|Populated Place|12110|U6|||22|LA|1|079|Rapides|31.4018428|-92.7945962|06/04/1980|
543051|Canbeal|Populated Place|12300|U6|||22|LA|1|111|Union|32.8195815|-92.3531971|06/04/1980|
543053|Caney|Populated Place|12385|U6|||22|LA|1|115|Vernon|31.120188|-93.3876683|06/04/1980|
543054|Capitan|Populated Place|12525|U6|||22|LA|1|055|Lafayette|30.065481|-91.9826207|06/04/1980|
543056|Carboco|Populated Place|12630|U6|||22|LA|1|009|Avoyelles|30.922137|-92.2312382|06/04/1980|
543057|Cargas|Populated Place|12715|U6|||22|LA|1|073|Ouachita|32.694026|-92.0145756|06/04/1980|
543058|Carlyss|Populated Place|12840|U5|||22|LA|1|019|Calcasieu|30.1688187|-93.3759893|06/04/1980|03/20/2008
543059|Caroline|Populated Place|12885|U6|||22|LA|1|045|Iberia|30.0727012|-91.6667811|06/04/1980|
543060|Cash Point|Populated Place|13135|U6|||22|LA|1|017|Caddo|32.617926|-93.7712903|06/04/1980|
543061|Cassandra|Populated Place|13165|U6|||22|LA|1|009|Avoyelles|31.1890751|-92.1690168|06/04/1980|
543062|Castille|Populated Place|13180|U6|||22|LA|1|001|Acadia|30.3021459|-92.2234599|06/04/1980|
543063|Castlewood|Populated Place|13225|U4|||22|LA|1|033|East Baton Rouge|30.4549126|-91.0867715|06/04/1980|
543065|Cavett|Populated Place|13470|U6|||22|LA|1|017|Caddo|32.7926419|-93.8379573|06/04/1980|
543066|Cedar Grove|Populated Place|13760|U6|||22|LA|1|079|Rapides|31.2493513|-92.279298|06/04/1980|
543067|Cedar Grove|Populated Place|13715|U4|||22|LA|1|017|Caddo|32.4420984|-93.7426789|06/04/1980|
543068|Cedarton|Populated Place|13785|U6|||22|LA|1|061|Lincoln|32.6301458|-92.5276462|06/04/1980|
543069|Central|Populated Place|14030|U6|||22|LA|1|109|Terrebonne|29.6416009|-90.8137039|06/04/1980|
543071|Chalkley|Populated Place|14115|U6|||22|LA|1|019|Calcasieu|30.1521523|-93.0973747|06/04/1980|
543072|Chamberlin|Populated Place|14205|U6|||22|LA|1|121|West Baton Rouge|30.5351895|-91.3034429|06/04/1980|
543073|Charlieville|Populated Place|14380|U6|||22|LA|1|083|Richland|32.3068155|-91.919297|06/04/1980|
543074|Charlotte|Populated Place|14390|U6|||22|LA|1|045|Iberia|29.9957596|-91.9128974|06/04/1980|
543075|Chase|Populated Place|14415|U6|0356|220356041|22|LA|1|041|Franklin|32.0970988|-91.699014|06/04/1980|
543076|Chef Menteur|Populated Place|14555|U4|||22|LA|1|071|Orleans|30.0696436|-89.8020065|06/04/1980|
543077|Chackbay|Populated Place|14100|U5|||22|LA|1|057|Lafourche|29.8835389|-90.7973151|01/01/2000|03/20/2008
543079|Chenango|Populated Place|14650|U6|||22|LA|1|121|West Baton Rouge|30.3324157|-91.2562196|06/04/1980|
543080|Cheniere|Populated Place|14730|U6|||22|LA|1|073|Ouachita|32.5087566|-92.2473602|06/04/1980|
543081|Chesbrough|Populated Place|14835|U6|||22|LA|1|105|Tangipahoa|30.8487938|-90.4562042|06/04/1980|
543082|Chickasaw|Populated Place|14940|U6|||22|LA|1|123|West Carroll|32.9626258|-91.3309469|06/04/1980|
543083|Choctaw|Populated Place|15115|U6|||22|LA|1|047|Iberville|30.1263093|-91.2764961|06/04/1980|
543085|Chopin|Populated Place|15220|U6|0378|220378069|22|LA|1|069|Natchitoches|31.4968389|-92.8593222|06/04/1980|
543086|Choupique|Populated Place|15325|U6|||22|LA|1|057|Lafourche|29.8588168|-90.8564833|06/04/1980|
543087|Cinclare|Populated Place|15500|U6|||22|LA|1|121|West Baton Rouge|30.3963031|-91.2301083|06/04/1980|
543089|Claybank|Populated Place|15830|U6|||22|LA|1|005|Ascension|30.3388048|-90.8631534|06/04/1980|
543090|Clotilda|Populated Place|16060|U6|||22|LA|1|057|Lafourche|29.6721571|-90.5348077|06/04/1980|
543091|Clubhouse Landing|Populated Place|16180|U6|||22|LA|1|079|Rapides|30.9671358|-92.4754137|06/04/1980|
543092|Cobb|Populated Place|16200|U6|||22|LA|1|073|Ouachita|32.4009808|-92.1187462|06/04/1980|
543093|Coburn|Populated Place|16210|U6|||22|LA|1|085|Sabine|31.4932305|-93.2737805|06/04/1980|
543094|Cocodrie|Populated Place|16270|U6|0426|220426109|22|LA|1|109|Terrebonne|29.246893|-90.661477|06/04/1980|
543095|Cocoville|Populated Place|16305|U6|||22|LA|1|009|Avoyelles|31.1029656|-92.064013|06/04/1980|
543096|Cole|Populated Place|16347|U6|||22|LA|1|037|East Feliciana|30.7712941|-91.2362204|06/04/1980|
543097|College Hills|Populated Place|16480|U4|||22|LA|1|033|East Baton Rouge|30.3924142|-91.1501061|06/04/1980|
543098|Comite|Populated Place|16935|U6|||22|LA|1|033|East Baton Rouge|30.5113001|-91.0298258|06/04/1980|07/19/2010
543099|Como|Populated Place|16970|U6|||22|LA|1|041|Franklin|32.0987651|-91.6026224|06/04/1980|
543100|Conn|Populated Place|17090|U6|||22|LA|1|017|Caddo|32.590427|-93.7718459|06/04/1980|
543101|Converse|Populated Place|17215|P1|0460|220460085|22|LA|1|085|Sabine|31.7815585|-93.693794|06/04/1980|03/20/2008
543102|Conway|Populated Place|17250|U6|||22|LA|1|111|Union|32.8884693|-92.3970879|06/04/1980|
543105|Corbin|Populated Place|17495|U4|0465|220465063|22|LA|1|063|Livingston|30.4957455|-90.849543|06/04/1980|
543106|Corleyville|Populated Place|17580|U6|||22|LA|1|085|Sabine|31.4990641|-93.3618385|06/04/1980|
543107|Cornerview|Populated Place|17600|U6|||22|LA|1|005|Ascension|30.2410292|-90.9667668|06/04/1980|
543108|Coteau|Populated Place|17705|U6|||22|LA|1|045|Iberia|30.0471474|-91.9142859|06/04/1980|
543109|Cotton Valley|Populated Place|17915|P1|0490|220490119|22|LA|1|119|Webster|32.8193093|-93.4176721|06/04/1980|03/20/2008
543110|Couchwood|Populated Place|17950|U6|||22|LA|1|119|Webster|32.758756|-93.3910048|06/04/1980|
543111|Coulon Plantation|Populated Place|17985|U6|||22|LA|1|057|Lafourche|29.8146515|-90.8295379|06/04/1980|
543113|Coverdale|Populated Place|18090|U6|||22|LA|1|051|Jefferson|30.484368|-92.7745896|06/04/1980|
543113|Coverdale|Populated Place|18090|U6|||22|LA|2|003|Allen|30.484368|-92.7745896|06/04/1980|
543115|Crescent|Populated Place|18370|U6|||22|LA|1|109|Terrebonne|29.6141019|-90.7909255|06/04/1980|
543117|Crew Lake|Populated Place|18475|U6|||22|LA|1|083|Richland|32.4881984|-91.8870729|06/04/1980|
543118|Crown Point|Populated Place|18685|U6|0519|220519051|22|LA|1|051|Jefferson|29.7721537|-90.0853506|06/04/1980|
543119|Crowville|Populated Place|18720|U6|0521|220521041|22|LA|1|041|Franklin|32.240705|-91.5901215|06/04/1980|
543120|Crozier|Populated Place|18755|U6|||22|LA|1|109|Terrebonne|29.5377155|-90.7200905|06/04/1980|
543121|Cullen|Populated Place|18790|P1|0513|220513119|22|LA|1|119|Webster|32.9690262|-93.4507281|06/04/1980|03/20/2008
543122|Curtis|Populated Place|18860|U6|||22|LA|1|015|Bossier|32.4393206|-93.6423991|06/04/1980|
543124|Cut-off Junction|Populated Place|19000|U4|||22|LA|1|017|Caddo|32.4362654|-93.8037913|06/04/1980|
543126|Cypress Gardens|Populated Place|19175|U6|||22|LA|1|109|Terrebonne|29.6260463|-90.7534246|06/04/1980|
543127|Darrow|Populated Place|19490|U6|0528|220528005|22|LA|1|005|Ascension|30.1182542|-90.9853773|06/04/1980|
543128|Daspit|Populated Place|19525|U6|||22|LA|1|045|Iberia|30.040758|-91.8003943|06/04/1980|
543130|Dayson|Populated Place|19735|U6|||22|LA|1|119|Webster|32.8012544|-93.4096163|06/04/1980|
543132|De Loutre|Populated Place|20275|U6|||22|LA|1|111|Union|32.8326359|-92.3112512|06/04/1980|
543133|De Siard|Populated Place|20790|U6|||22|LA|1|073|Ouachita|32.7081927|-92.0626325|06/04/1980|
543134|Dean|Populated Place|19770|U6|||22|LA|1|111|Union|32.9067979|-92.1509685|06/04/1980|
543135|Dearborn|Populated Place|19855|U6|||22|LA|1|107|Tensas|32.1820956|-91.2787246|06/04/1980|
543136|Degeneres|Populated Place|19960|U6|||22|LA|1|009|Avoyelles|30.8829706|-92.127345|06/04/1980|
543137|Delhi|Populated Place|20190|P1|0550|220550083|22|LA|1|083|Richland|32.4576421|-91.4931736|06/04/1980|03/20/2008
543138|Delombre|Populated Place|20260|U6|||22|LA|1|037|East Feliciana|30.7196288|-91.273999|06/04/1980|
543139|Delta|Populated Place|20330|P1|0560|220560065|22|LA|1|065|Madison|32.3257022|-90.9270496|06/04/1980|03/20/2008
543141|Deshotel|Populated Place|20750|U6|||22|LA|1|001|Acadia|30.3118679|-92.2095704|06/04/1980|
543142|Dess|Populated Place|20815|U6|||22|LA|1|085|Sabine|31.4387897|-93.5304536|06/04/1980|
543143|Deville|Populated Place|20890|U5|0597|220597079|22|LA|1|079|Rapides|31.3574037|-92.1654076|06/04/1980|03/20/2008
543144|Diamond|Populated Place|20975|U6|0596|220596075|22|LA|1|075|Plaquemines|29.5354938|-89.7620103|06/04/1980|
543146|Dixie Gardens|Populated Place|21100|U6|||22|LA|1|017|Caddo|32.4512648|-93.6993447|06/04/1980|
543148|Dixie Plantation|Populated Place|21150|U6|||22|LA|1|057|Lafourche|29.8374281|-90.8920397|06/04/1980|
543149|Donner|Populated Place|21275|U6|0612|220612109|22|LA|1|109|Terrebonne|29.6957647|-90.9442629|06/04/1980|
543150|Dossman|Populated Place|21400|U6|||22|LA|1|039|Evangeline|30.8610273|-92.2820726|06/04/1980|
543151|Dove Landing|Populated Place|21430|U6|||22|LA|1|079|Rapides|30.9563028|-92.478747|06/04/1980|
543152|Drew|Populated Place|21695|U6|||22|LA|1|073|Ouachita|32.5451442|-92.2412489|06/04/1980|
543154|Dukedale|Populated Place|21920|U6|||22|LA|1|015|Bossier|32.6351476|-93.7457344|06/04/1980|
543156|Dunn|Populated Place|22010|U6|0647|220647083|22|LA|1|083|Richland|32.4643088|-91.5784536|06/04/1980|
543157|Dupont|Populated Place|22220|U6|||22|LA|1|077|Pointe Coupee|30.6443543|-91.479557|06/04/1980|
543158|Dwight Fields|Populated Place|22350|U6|||22|LA|1|007|Assumption|29.8549266|-91.0512106|06/04/1980|
543159|Dykesville|Populated Place|22360|U6|||22|LA|1|027|Claiborne|32.9154187|-93.2337783|06/04/1980|
543160|Easton|Populated Place|22535|U6|0653|220653039|22|LA|1|039|Evangeline|30.7513073|-92.4287443|06/04/1980|
543161|Ebenezer|Populated Place|22620|U6|||22|LA|1|001|Acadia|30.1613152|-92.3123521|06/04/1980|
543163|Ecco|Populated Place|22630|U6|||22|LA|1|119|Webster|32.7793108|-93.4001717|06/04/1980|
543164|Eden Park|Populated Place|22745|U4|||22|LA|1|033|East Baton Rouge|30.4582461|-91.1551066|06/04/1980|
543165|Edgefield|Populated Place|22850|P1|0661|220661081|22|LA|1|081|Red River|32.0507163|-93.3329495|06/04/1980|03/20/2008
543166|Edward Daigle|Populated Place|22970|U6|||22|LA|1|109|Terrebonne|29.6391015|-90.7609247|06/04/1980|
543167|Effie|Populated Place|22990|U6|0657|220657009|22|LA|1|009|Avoyelles|31.2160189|-92.1556834|06/04/1980|
543168|Elam|Populated Place|23060|U6|||22|LA|1|041|Franklin|31.954881|-91.656791|06/04/1980|
543169|Elder|Populated Place|23130|U6|||22|LA|1|003|Allen|30.5679773|-92.7970911|06/04/1980|
543170|Eliza|Populated Place|23200|U6|||22|LA|1|121|West Baton Rouge|30.3288046|-91.2289967|06/04/1980|
543171|Elizabeth|Populated Place|23235|P1|0660|220660003|22|LA|1|003|Allen|30.868526|-92.7929262|06/04/1980|03/20/2008
543172|Elks|Populated Place|23270|U6|||22|LA|1|055|Lafayette|30.1827012|-91.9892866|06/04/1980|
543173|Ellendale|Populated Place|23305|U6|||22|LA|1|109|Terrebonne|29.6321567|-90.8092594|06/04/1980|
543174|Ellis|Populated Place|23320|U6|||22|LA|1|001|Acadia|30.3035362|-92.4067992|06/04/1980|
543175|Elm Hall Junction|Populated Place|23530|U6|||22|LA|1|007|Assumption|29.9202029|-91.0420439|06/04/1980|
543176|Elm Park|Populated Place|23550|U6|||22|LA|1|125|West Feliciana|30.8262927|-91.3342783|06/04/1980|
543177|Elmer|Populated Place|23375|U6|||22|LA|1|057|Lafourche|29.8188178|-90.8659278|06/04/1980|
543178|Elmwood|Populated Place|23585|U6|||22|LA|1|115|Vernon|31.0365787|-93.3062759|06/04/1980|
543180|Emma|Populated Place|23690|U6|||22|LA|1|045|Iberia|29.9385383|-91.8856749|06/04/1980|
543181|Emmett|Populated Place|23710|U6|||22|LA|1|081|Red River|32.0718276|-93.4426748|06/04/1980|
543182|Encalade|Populated Place|23760|U4|||22|LA|1|075|Plaquemines|29.5193829|-89.7303429|06/04/1980|
543183|Englewood|Populated Place|23865|U6|||22|LA|1|065|Madison|32.3851441|-91.2070554|06/04/1980|
543184|English|Populated Place|23935|U6|||22|LA|1|013|Bienville|32.2598782|-92.791821|06/04/1980|
543185|Enoka|Populated Place|23985|U6|||22|LA|1|065|Madison|32.5304165|-91.1673317|06/04/1980|
543186|Enon|Populated Place|23995|U6|||22|LA|1|117|Washington|30.7274094|-90.0842475|06/04/1980|
543187|Eola|Populated Place|24110|U6|0678|220678009|22|LA|1|009|Avoyelles|30.9113038|-92.2159597|06/04/1980|
543189|Essen|Populated Place|24320|U6|||22|LA|1|033|East Baton Rouge|30.3985251|-91.1070494|06/04/1980|
543190|Esto|Populated Place|24475|U6|||22|LA|1|085|Sabine|31.3924033|-93.608789|06/04/1980|
543191|Evangeline|Populated Place|24670|U6|0725|220725001|22|LA|1|001|Acadia|30.2624271|-92.5706934|06/04/1980|
543192|Evergreen|Populated Place|24775|P1|0730|220730009|22|LA|1|009|Avoyelles|30.9526911|-92.1087345|06/04/1980|03/20/2008
543193|Evergreen Plantation|Populated Place|24785|U6|||22|LA|1|047|Iberville|30.2699171|-91.1992734|06/04/1980|
543194|Ewing|Populated Place|24800|U6|||22|LA|1|057|Lafourche|29.7582653|-90.6862005|06/04/1980|
543195|Extension|Populated Place|24810|U6|0733|220733041|22|LA|1|041|Franklin|31.9707148|-91.8059617|06/04/1980|
543197|Fairlane|Populated Place|24950|U6|||22|LA|1|109|Terrebonne|29.6838222|-90.7867588|06/04/1980|
543198|Felixville|Populated Place|25265|U6|0745|220745037|22|LA|1|037|East Feliciana|30.9424016|-90.8767683|06/04/1980|
543199|Felps|Populated Place|25317|U6|||22|LA|1|037|East Feliciana|30.977123|-90.9187133|06/04/1980|
543200|Ferguson|Populated Place|25370|U6|||22|LA|1|015|Bossier|32.5507063|-93.6754551|06/04/1980|
543202|Fifth Ward|Populated Place|25545|U5|||22|LA|1|009|Avoyelles|31.1301875|-92.1729052|06/04/1980|01/29/2011
543203|Fillmore|Populated Place|25580|U6|||22|LA|1|015|Bossier|32.5629282|-93.5151741|06/04/1980|
543204|Fiske|Populated Place|25660|U6|||22|LA|1|123|West Carroll|32.8867959|-91.4923401|06/04/1980|
543205|Flatwoods|Populated Place|25720|U6|0754|220754079|22|LA|1|079|Rapides|31.4026755|-92.8682104|06/04/1980|
543206|Flower Hill|Populated Place|25945|U6|||22|LA|1|125|West Feliciana|30.8818466|-91.4167806|06/04/1980|
543207|Floyd|Populated Place|25965|U6|||22|LA|1|123|West Carroll|32.6776349|-91.4059488|06/04/1980|
543209|Fondale|Populated Place|26175|U6|||22|LA|1|073|Ouachita|32.3545932|-92.1079129|06/04/1980|
543210|Fontenot|Populated Place|26210|U6|||22|LA|1|053|Jefferson Davis|30.4382579|-92.87737|06/04/1980|
543210|Fontenot|Populated Place|26210|U6|||22|LA|2|003|Allen|30.4382579|-92.87737|06/04/1980|
543211|Fordoche|Populated Place|26280|P1|0766|220766077|22|LA|1|077|Pointe Coupee|30.5960234|-91.6165022|06/04/1980|03/20/2008
543212|Fords|Populated Place|26300|U6|||22|LA|1|013|Bienville|32.5482079|-92.9954382|06/04/1980|
543213|Forest|Populated Place|26350|P1|0769|220769123|22|LA|1|123|West Carroll|32.7920758|-91.413449|06/04/1980|03/20/2008
543214|Fort Randolph|Populated Place|26764|U6|||22|LA|1|079|Rapides|31.3235154|-92.4487484|06/04/1980|
543215|Fortune Fork|Populated Place|26795|U6|||22|LA|1|065|Madison|32.3593118|-91.1259426|06/04/1980|
543216|Fosters|Populated Place|26875|U4|||22|LA|1|015|Bossier|32.5265404|-93.6707328|06/04/1980|
543217|Foules|Populated Place|26945|U6|||22|LA|1|025|Catahoula|31.8223847|-91.5951223|06/04/1980|
543218|Four Forks|Populated Place|27050|U6|||22|LA|1|017|Caddo|32.2237721|-93.9849082|06/04/1980|
543219|Fowler|Populated Place|27085|U6|||22|LA|1|073|Ouachita|32.6568052|-92.0329096|06/04/1980|
543220|Fred|Populated Place|27225|U6|||22|LA|1|033|East Baton Rouge|30.6487968|-91.1053837|06/04/1980|
543221|Freeland|Populated Place|27260|U6|||22|LA|1|125|West Feliciana|30.7782385|-91.2670544|06/04/1980|
543222|Frogmore|Populated Place|27655|U6|||22|LA|1|077|Pointe Coupee|30.5193596|-91.5242769|06/04/1980|
543223|Gajan|Populated Place|27985|U6|||22|LA|1|045|Iberia|29.9910365|-91.7759497|06/04/1980|
543224|Gall|Populated Place|28045|U6|||22|LA|1|045|Iberia|29.9432602|-91.8228956|06/04/1980|
543225|Galliano|Populated Place|28065|U5|0795|220795057|22|LA|1|057|Lafourche|29.4421645|-90.2992464|06/04/1980|03/20/2008
543226|Galvez|Populated Place|28135|U6|||22|LA|1|005|Ascension|30.2990835|-90.9048209|06/04/1980|
543227|Gandy|Populated Place|28150|U6|||22|LA|1|085|Sabine|31.4026791|-93.447673|06/04/1980|
543228|Galbraith|Populated Place|27995|U6|||22|LA|1|069|Natchitoches|31.4912839|-92.8123758|06/04/1980|
543229|Ged|Populated Place|28450|U6|||22|LA|1|019|Calcasieu|30.1396531|-93.592661|06/04/1980|
543230|Gibson|Populated Place|28870|U6|0825|220825109|22|LA|1|109|Terrebonne|29.6868756|-90.990653|06/04/1980|
543233|Gifford|Populated Place|28890|U6|||22|LA|1|119|Webster|32.5934836|-93.334892|06/04/1980|
543234|Gilbert|Populated Place|28940|P1|0830|220830041|22|LA|1|041|Franklin|32.0493225|-91.6581797|06/04/1980|03/20/2008
543235|Gilliam|Populated Place|29010|P1|0831|220831017|22|LA|1|017|Caddo|32.8270851|-93.8451793|06/04/1980|03/20/2008
543236|Gilleyville|Populated Place|28990|U6|||22|LA|1|083|Richland|32.3029265|-91.894574|06/04/1980|
543237|Girard|Populated Place|29080|U6|0832|220832083|22|LA|1|083|Richland|32.4818091|-91.8065154|06/04/1980|
543239|Glenmore|Populated Place|29230|U6|||22|LA|1|047|Iberville|30.2046408|-91.1973282|06/04/1980|
543240|Glynn|Populated Place|29430|U6|0847|220847077|22|LA|1|077|Pointe Coupee|30.6265763|-91.3553885|06/04/1980|
543241|Goldman|Populated Place|29710|U6|||22|LA|1|107|Tensas|31.8284951|-91.3806713|06/04/1980|04/08/2011
543243|Goldridge|Populated Place|29780|U6|||22|LA|1|047|Iberville|30.1157539|-91.1903826|06/04/1980|
543244|Gonzales|Populated Place|29850|P1|0870|220870005|22|LA|1|005|Ascension|30.2385294|-90.9200987|06/04/1980|03/20/2008
543245|Good Pine|Populated Place|29990|U6|0873|220873059|22|LA|1|059|La Salle|31.6932269|-92.1620787|06/04/1980|
543246|Goodwill|Populated Place|30095|U6|||22|LA|1|123|West Carroll|32.7790219|-91.5617865|06/04/1980|
543247|Goodwood|Populated Place|30130|U4|||22|LA|1|033|East Baton Rouge|30.4446351|-91.1109386|06/04/1980|
543248|Gordon|Populated Place|30235|U6|||22|LA|1|011|Beauregard|30.4843661|-93.3232169|06/04/1980|
543249|Goss|Populated Place|30375|U6|||22|LA|1|031|De Soto|32.0612727|-93.5579558|06/04/1980|
543250|Goss|Populated Place|30360|U6|||22|LA|1|019|Calcasieu|30.3068712|-93.1498755|06/04/1980|
543251|Grand Bayou|Populated Place|30585|U6|||22|LA|1|081|Red River|32.0868274|-93.4732312|06/04/1980|
543252|Grand Bayou|Populated Place|30570|U6|||22|LA|1|007|Assumption|30.0152006|-91.1306578|06/04/1980|
543253|Grand River|Populated Place|31005|U6|||22|LA|1|047|Iberville|30.2265864|-91.4184444|06/04/1980|
543254|Grant|Populated Place|31075|U6|0925|220925003|22|LA|1|003|Allen|30.7885279|-92.9484868|06/04/1980|
543255|Gravel|Populated Place|31145|U6|||22|LA|1|111|Union|32.9323526|-92.1518019|06/04/1980|
543256|Gray Point|Populated Place|31215|U6|||22|LA|1|039|Evangeline|30.7138079|-92.4281887|06/04/1980|
543257|Greendale|Populated Place|31410|U6|||22|LA|1|033|East Baton Rouge|30.5071336|-91.1153836|06/04/1980|
543258|Greenville|Populated Place|31615|U6|||22|LA|1|025|Catahoula|31.7929411|-91.5792885|06/04/1980|
543259|Greenwell Springs|Populated Place|31635|U6|0945|220945033|22|LA|1|033|East Baton Rouge|30.5796316|-90.9942696|06/04/1980|
543260|Greenwood|Populated Place|31740|U6|||22|LA|1|109|Terrebonne|29.6204895|-90.9037062|06/04/1980|
543262|Greinwich Village|Populated Place|31880|U4|||22|LA|1|019|Calcasieu|30.1946514|-93.1832088|06/04/1980|
543263|Gretna Green|Populated Place|31925|U6|||22|LA|1|107|Tensas|31.8793269|-91.4634517|06/04/1980|
543264|Griffin|Populated Place|31940|U6|||22|LA|1|041|Franklin|32.0376558|-91.567066|06/04/1980|
543265|Grosse Isle|Populated Place|31985|U6|||22|LA|1|113|Vermilion|29.9652058|-92.0909576|06/04/1980|
543266|Gueydan|Populated Place|32055|P1|0970|220970113|22|LA|1|113|Vermilion|30.0260404|-92.5084692|06/04/1980|03/20/2008
543267|Gum Ridge|Populated Place|32230|U6|||22|LA|1|067|Morehouse|32.625972|-91.8115151|06/04/1980|
543268|Guthrie|Populated Place|32300|U6|||22|LA|1|073|Ouachita|32.6812487|-92.0201314|06/04/1980|
543269|Guyton|Populated Place|32345|U6|||22|LA|1|073|Ouachita|32.4132054|-92.3773642|06/04/1980|
543270|Hackberry|Populated Place|32405|U5|0971|220971023|22|LA|1|023|Cameron|29.9960464|-93.3420996|06/04/1980|03/20/2008
543271|Halfway|Populated Place|32625|U6|||22|LA|1|081|Red River|32.1098822|-93.3676725|06/04/1980|
543272|Hammock|Populated Place|32735|U6|||22|LA|1|073|Ouachita|32.6365281|-92.0379098|06/04/1980|
543273|Hancock|Populated Place|32825|U6|||22|LA|1|073|Ouachita|32.5959733|-91.9554077|06/04/1980|
543274|Harahan|Populated Place|32930|P1|0990|220990051|22|LA|1|051|Jefferson|29.9404826|-90.2031313|06/04/1980|03/20/2008
543275|Harahan Junction|Populated Place|32940|U6|||22|LA|1|051|Jefferson|29.9732594|-90.1934087|06/04/1980|
543276|Hardwood|Populated Place|32965|U6|0993|220993125|22|LA|1|125|West Feliciana|30.8062931|-91.3840018|06/04/1980|
543277|Hargrove|Populated Place|33050|U6|||22|LA|1|019|Calcasieu|30.478255|-93.4604428|06/04/1980|
543278|Harlem|Populated Place|33070|U6|||22|LA|1|075|Plaquemines|29.6229913|-89.9006241|06/04/1980|
543279|Harmon|Populated Place|33140|U6|0996|220996081|22|LA|1|081|Red River|32.0659942|-93.4304523|06/04/1980|
543280|Harmony|Populated Place|33155|U6|||22|LA|1|003|Allen|30.596032|-92.9137616|06/04/1980|
543283|Hayti|Populated Place|33540|U6|||22|LA|1|017|Caddo|32.7120891|-93.8354577|06/04/1980|
543284|Head of Island|Populated Place|33595|U6|||22|LA|1|063|Livingston|30.2696401|-90.7534274|06/04/1980|
543285|Hecker|Populated Place|33700|U6|||22|LA|1|019|Calcasieu|30.3552037|-93.0882082|06/04/1980|
543287|Hemphill|Populated Place|33855|U6|||22|LA|1|079|Rapides|31.2493483|-92.7745936|06/04/1980|
543288|Henry|Populated Place|33945|U6|||22|LA|1|113|Vermilion|29.8832631|-92.0784579|06/04/1980|
543289|Hermitage|Populated Place|33980|U6|||22|LA|1|077|Pointe Coupee|30.6451867|-91.338444|06/04/1980|
543290|Hester Landing|Populated Place|34100|U6|||22|LA|1|079|Rapides|30.9579694|-92.4895807|06/04/1980|
543291|Hickory|Populated Place|34155|U6|||22|LA|1|009|Avoyelles|30.9515794|-92.0209538|06/04/1980|
543294|High Island|Populated Place|34375|U6|||22|LA|1|015|Bossier|32.2698796|-93.4351735|06/04/1980|
543295|Highland|Populated Place|34390|U6|||22|LA|1|035|East Carroll|32.8562394|-91.2184436|06/04/1980|
543296|Highland Park|Populated Place|34540|U6|||22|LA|1|109|Terrebonne|29.6488234|-90.7650915|06/04/1980|
543298|Hilltop|Populated Place|34870|U6|||22|LA|1|049|Jackson|32.3409873|-92.7018182|06/04/1980|
543299|Hinkle|Populated Place|34995|U4|||22|LA|1|015|Bossier|32.5320957|-93.7182338|06/04/1980|
543300|Hite|Populated Place|35065|U6|||22|LA|1|011|Beauregard|30.8226955|-93.3237764|06/04/1980|
543301|Hobart|Populated Place|35080|U6|||22|LA|1|005|Ascension|30.3224161|-90.9389887|06/04/1980|
543302|Hollingsworth|Populated Place|35205|U6|||22|LA|1|081|Red River|31.977662|-93.3626728|06/04/1980|
543303|Holly Beach|Populated Place|35310|U6|1046|221046023|22|LA|1|023|Cameron|29.7707791|-93.4593223|06/04/1980|
543304|Holly Ridge|Populated Place|35415|U6|1047|221047083|22|LA|1|083|Richland|32.4676421|-91.6267883|06/04/1980|
543305|Hollywood|Populated Place|35590|U6|||22|LA|1|125|West Feliciana|30.9499003|-91.4090027|06/04/1980|
543306|Hollywood|Populated Place|35555|U6|||22|LA|1|109|Terrebonne|29.6002136|-90.758147|06/04/1980|
543307|Hollywood|Populated Place|35485|U4|1048|221048019|22|LA|1|019|Calcasieu|30.2277057|-93.3259886|06/04/1980|
543308|Holton|Populated Place|35730|U6|||22|LA|1|105|Tangipahoa|30.7443523|-90.3642559|06/04/1980|
543309|Holmesville|Populated Place|35640|U6|||22|LA|1|009|Avoyelles|30.9035261|-92.19457|06/04/1980|
543310|Honore|Populated Place|35890|U6|||22|LA|1|015|Bossier|32.5565394|-93.7329563|06/04/1980|
543311|Hope|Populated Place|35955|U6|||22|LA|1|045|Iberia|29.9449261|-91.7081712|06/04/1980|
543313|Hornbeck|Populated Place|36045|P1|1060|221060115|22|LA|1|115|Vernon|31.325737|-93.3985041|06/04/1980|03/20/2008
543314|Hortman|Populated Place|36080|U6|||22|LA|1|119|Webster|32.728757|-93.3773934|06/04/1980|
543315|Hosston|Populated Place|36150|P1|1062|221062017|22|LA|1|017|Caddo|32.8876386|-93.8785127|06/04/1980|03/20/2008
543316|Hubertville|Populated Place|36360|U4|||22|LA|1|045|Iberia|29.9274264|-91.6795596|06/04/1980|
543317|Humphreys|Populated Place|36465|U6|||22|LA|1|109|Terrebonne|29.6088236|-90.8567606|06/04/1980|
543318|Humphries (historical)|Populated Place|36475|U6|||22|LA|1|005|Ascension|30.1926969|-90.9984338|06/04/1980|
543319|Hundley|Populated Place|36485|U6|||22|LA|1|001|Acadia|30.4410338|-92.3662418|06/04/1980|
543320|Hunt|Populated Place|36495|U6|||22|LA|1|111|Union|32.8440315|-92.6576521|06/04/1980|
543322|Hyams|Populated Place|36710|U6|||22|LA|1|069|Natchitoches|31.8371072|-93.1204426|06/04/1980|
543323|Hydell|Populated Place|36760|U6|||22|LA|1|047|Iberville|30.3010275|-91.1142713|06/04/1980|
543324|Idlewild|Populated Place|36955|U6|||22|LA|1|109|Terrebonne|29.6421569|-90.7575914|06/04/1980|
543325|Ikes|Populated Place|36990|U6|||22|LA|1|011|Beauregard|30.874082|-93.2176615|06/04/1980|
543326|Independent|Populated Place|37040|U6|||22|LA|1|045|Iberia|30.0324251|-91.8506734|06/04/1980|
543327|Indian Bayou|Populated Place|37060|U6|||22|LA|1|113|Vermilion|30.1260374|-92.2426278|06/04/1980|
543328|Indian Beach|Populated Place|37075|U6|||22|LA|1|051|Jefferson|30.0190913|-90.1411851|06/04/1980|
543331|Indian Village|Populated Place|37130|U6|||22|LA|1|003|Allen|30.4490908|-92.9718173|06/04/1980|
543332|Irene|Populated Place|37500|U6|||22|LA|1|033|East Baton Rouge|30.6124091|-91.230109|06/04/1980|
543333|Ironton|Populated Place|37585|U6|||22|LA|1|075|Plaquemines|29.6488239|-89.961459|06/04/1980|
543334|Istrouma|Populated Place|37690|U4|||22|LA|1|033|East Baton Rouge|30.4790789|-91.1598291|06/04/1980|
543335|Ithra|Populated Place|37710|U6|||22|LA|1|121|West Baton Rouge|30.461302|-91.2748314|06/04/1980|
543336|Ivan|Populated Place|37725|U6|||22|LA|1|015|Bossier|32.7943094|-93.5354526|06/04/1980|
543338|Jarreau|Populated Place|38005|U6|1115|221115077|22|LA|1|077|Pointe Coupee|30.6207439|-91.450945|06/04/1980|
543339|Jeanerette|Populated Place|38075|P1|1120|221120045|22|LA|1|045|Iberia|29.9110378|-91.6634483|06/04/1980|03/20/2008
543341|Jefferson Island|Populated Place|38215|U6|||22|LA|1|045|Iberia|29.9727048|-91.9756768|06/04/1980|
543342|Jewella (historical)|Populated Place|38460|U4|||22|LA|1|017|Caddo|32.4687645|-93.8062912|06/04/1980|
543343|Jigger|Populated Place|38495|U6|1143|221143041|22|LA|1|041|Franklin|32.0348788|-91.7467934|06/04/1980|
543344|Johnson Landing|Populated Place|38555|U6|||22|LA|1|039|Evangeline|30.9674137|-92.4345789|06/04/1980|
543345|Johnson Ridge|Populated Place|38565|U6|||22|LA|1|109|Terrebonne|29.7657642|-90.816204|06/04/1980|
543346|Jones|Populated Place|38635|U6|1149|221149067|22|LA|1|067|Morehouse|32.9676278|-91.6481777|06/04/1980|
543347|Juanita|Populated Place|38900|U6|||22|LA|1|011|Beauregard|30.6185322|-93.4251669|06/04/1980|
543348|Judd|Populated Place|38915|U6|||22|LA|1|001|Acadia|30.3629798|-92.4040212|06/04/1980|
543349|Kaplan|Populated Place|39055|P1|1180|221180113|22|LA|1|113|Vermilion|29.997984|-92.2848515|06/04/1980|03/20/2008
543350|Karo|Populated Place|39065|U6|||22|LA|1|009|Avoyelles|30.9838014|-92.0937345|06/04/1980|
543351|Kenmore|Populated Place|39405|U6|||22|LA|1|077|Pointe Coupee|30.5096377|-91.5403882|06/04/1980|
543352|Kentwood|Populated Place|39545|P1|1200|221200105|22|LA|1|105|Tangipahoa|30.9382358|-90.5089843|06/04/1980|03/20/2008
543353|Kilbourne|Populated Place|39650|P1|1208|221208123|22|LA|1|123|West Carroll|32.9995689|-91.3151133|06/04/1980|03/20/2008
543354|King|Populated Place|39770|U6|||22|LA|1|065|Madison|32.2407051|-91.1214985|06/04/1980|
543355|Kingsville|Populated Place|39860|U6|||22|LA|1|079|Rapides|31.3624033|-92.4115254|06/04/1980|
543357|Kiroli Woods|Populated Place|39895|U6|||22|LA|1|073|Ouachita|32.5368104|-92.1598578|06/04/1980|
543358|Kleinpeter|Populated Place|39965|U6|||22|LA|1|033|East Baton Rouge|30.3499152|-91.0259358|06/04/1980|
543359|Klondyke|Populated Place|40000|U6|||22|LA|1|109|Terrebonne|29.546605|-90.5864759|06/04/1980|
543360|Klotzville|Populated Place|40035|U6|||22|LA|1|007|Assumption|30.0154786|-91.0467668|06/04/1980|
543361|Knapp|Populated Place|40050|U6|||22|LA|1|077|Pointe Coupee|30.5990778|-91.425111|06/04/1980|
543362|Knight|Populated Place|40070|U6|||22|LA|1|115|Vernon|30.9154725|-93.4485028|06/04/1980|
543363|Knot Point|Populated Place|40085|U6|||22|LA|1|015|Bossier|32.3184896|-93.5329532|06/04/1980|
543364|Kolin|Populated Place|40105|U6|||22|LA|1|079|Rapides|31.2832391|-92.322633|06/04/1980|
543365|Kolter|Populated Place|40140|U6|||22|LA|1|031|De Soto|32.15294|-93.9243523|06/04/1980|
543366|Koran|Populated Place|40175|U6|||22|LA|1|015|Bossier|32.4251541|-93.462951|06/04/1980|
543367|L T Plantation|Populated Place|46210|U6|||22|LA|1|057|Lafourche|29.8349282|-90.8875951|06/04/1980|
543368|La Rosen|Populated Place|42170|U4|||22|LA|1|017|Caddo|32.4034884|-93.7893467|06/04/1980|
543369|Laark|Populated Place|40350|U6|||22|LA|1|067|Morehouse|32.9920705|-91.5101183|06/04/1980|
543370|Labarre|Populated Place|40455|U6|1224|221224077|22|LA|1|077|Pointe Coupee|30.7146296|-91.5456703|06/04/1980|
543371|Lake Arthur|Populated Place|41050|P1|1240|221240053|22|LA|1|053|Jefferson Davis|30.080764|-92.6715308|06/04/1980|03/20/2008
543372|Lake Bruin|Populated Place|41085|U6|||22|LA|1|107|Tensas|31.9879351|-91.256224|06/04/1980|
543373|Lake Cove|Populated Place|41210|U6|||22|LA|1|039|Evangeline|30.9176926|-92.4515237|06/04/1980|
543374|Lake Hayes|Populated Place|41275|U6|||22|LA|1|017|Caddo|32.4315436|-93.9079603|06/04/1980|
543375|Lake Judge Perez|Populated Place|41330|U6|||22|LA|1|075|Plaquemines|29.5585488|-89.8861799|06/04/1980|
543376|Lakeland|Populated Place|41365|U6|1259|221259077|22|LA|1|077|Pointe Coupee|30.6007442|-91.397333|06/04/1980|
543377|Lapeyrouse|Populated Place|41985|U6|||22|LA|1|109|Terrebonne|29.3977212|-90.5856427|06/04/1980|
543378|Larto|Populated Place|42205|U6|1283|221283025|22|LA|1|025|Catahoula|31.372679|-91.9045697|06/04/1980|
543380|Latex|Populated Place|42250|U6|||22|LA|1|017|Caddo|32.604593|-94.0429621|06/04/1980|
543381|Laurel Grove|Populated Place|42310|U6|||22|LA|1|057|Lafourche|29.8238175|-90.8789838|06/04/1980|
543382|Laurel Grove Plantation|Populated Place|42320|U6|||22|LA|1|057|Lafourche|29.8274285|-90.878706|06/04/1980|
543383|Laurel Hill|Populated Place|42345|U6|||22|LA|1|125|West Feliciana|30.9535115|-91.3403896|06/04/1980|
543384|Laurel Valley Plantation|Populated Place|42450|U6|||22|LA|1|057|Lafourche|29.81243|-90.7717586|06/04/1980|
543385|Lawhon|Populated Place|42485|U6|||22|LA|1|013|Bienville|32.3765447|-93.2204453|06/04/1980|
543386|Lazy Acres|Populated Place|42555|U6|||22|LA|1|109|Terrebonne|29.6677117|-90.7773141|06/04/1980|
543387|Leavel|Populated Place|42660|U6|||22|LA|1|077|Pointe Coupee|30.7057408|-91.4887253|06/04/1980|
543388|Lee Bayou|Populated Place|42870|U6|||22|LA|1|025|Catahoula|31.7632196|-91.560399|06/04/1980|
543389|Lees Creek|Populated Place|42940|U6|||22|LA|1|117|Washington|30.7421323|-89.8747968|06/04/1980|
543390|Legonier|Populated Place|43115|U6|||22|LA|1|077|Pointe Coupee|30.9735159|-91.7940082|06/04/1980|
543391|Leighton|Populated Place|43150|U6|||22|LA|1|057|Lafourche|29.7965962|-90.857872|06/04/1980|
543392|Lejeune|Populated Place|43160|U6|||22|LA|1|121|West Baton Rouge|30.4829683|-91.281776|06/04/1980|
543393|Lela|Populated Place|43200|U6|||22|LA|1|015|Bossier|32.974303|-93.6818426|06/04/1980|
543394|Leland|Populated Place|43220|U6|||22|LA|1|025|Catahoula|31.823219|-91.7215152|06/04/1980|
543395|Lenwil|Populated Place|43375|U6|||22|LA|1|073|Ouachita|32.4373696|-92.2245822|06/04/1980|
543396|Leslie|Populated Place|43445|U6|||22|LA|1|015|Bossier|32.5887607|-93.483229|06/04/1980|
543397|Lewistown|Populated Place|43710|U6|||22|LA|1|057|Lafourche|29.7385438|-90.617032|06/04/1980|
543398|Liddieville|Populated Place|43850|U6|||22|LA|1|041|Franklin|32.1357096|-91.8456845|06/04/1980|
543399|Lindsay|Populated Place|43990|U6|||22|LA|1|037|East Feliciana|30.7176843|-91.2178866|06/04/1980|
543400|Little Valley Plantation|Populated Place|44460|U6|||22|LA|1|045|Iberia|29.9204825|-91.7676166|06/04/1980|
543401|Little Woods|Populated Place|44480|U4|||22|LA|1|071|Orleans|30.0752002|-89.9442349|06/04/1980|
543402|Live Oak Manor|Populated Place|44585|U6|||22|LA|1|051|Jefferson|29.9502047|-90.2386878|06/04/1980|
543403|Livonia|Populated Place|44690|P1|1316|221316077|22|LA|1|077|Pointe Coupee|30.5590803|-91.555945|06/04/1980|03/20/2008
543404|Loch Lomond|Populated Place|44775|U6|||22|LA|1|111|Union|32.6765277|-92.1420793|06/04/1980|
543405|Lockhart|Populated Place|44795|U6|||22|LA|1|063|Livingston|30.4904676|-90.9045444|06/04/1980|
543406|Lockhart|Populated Place|44830|U6|||22|LA|1|111|Union|33.008192|-92.5832076|06/04/1980|
543407|Lockmoor|Populated Place|44865|U6|||22|LA|1|019|Calcasieu|30.2368721|-93.2918216|06/04/1980|
