FEATURE_ID|FEATURE_NAME|FEATURE_CLASS|CENSUS_CODE|CENSUS_CLASS_CODE|GSA_CODE|OPM_CODE|STATE_NUMERIC|STATE_ALPHA|COUNTY_SEQUENCE|COUNTY_NUMERIC|COUNTY_NAME|PRIMARY_LATITUDE|PRIMARY_LONGITUDE|DATE_CREATED|DATE_EDITED
873769|Pennsauken|Populated Place|57690|U5|2545|342545007|34|NJ|1|007|Camden|39.9562238|-75.0579502|07/01/1989|12/06/2013
873814|Chadwick Beach|Populated Place|11860|U6|||34|NJ|1|029|Ocean|39.9828957|-74.0634696|03/01/1990|
873843|Baywood|Populated Place|03850|U6|||34|NJ|1|029|Ocean|40.0228949|-74.0890266|03/01/1990|
873895|Cedar Bridge Manor|Populated Place|11020|U6|||34|NJ|1|029|Ocean|40.0562274|-74.1295841|03/01/1990|
873905|Leisure Village East|Populated Place|39910|U5|||34|NJ|1|029|Ocean|40.0301169|-74.1643075|03/01/1990|03/17/2008
874190|Clermont|Populated Place|13510|U6|||34|NJ|1|009|Cape May|39.1512252|-74.7626642|07/01/1992|
874242|Absecon|Populated Place|00100|P1|0010|340010001|34|NJ|1|001|Atlantic|39.4284503|-74.4957076|09/08/1979|12/06/2013
874247|Absecon Highlands|Populated Place|00160|U6|||34|NJ|1|001|Atlantic|39.4467839|-74.4740399|09/08/1979|
874250|Ackerson|Populated Place|00234|U6|||34|NJ|1|037|Sussex|41.0823191|-74.6679402|09/08/1979|
874253|Acton|Populated Place|00241|U6|||34|NJ|1|033|Salem|39.58428|-75.4132506|09/08/1979|
874254|Adams|Populated Place|00250|U6|||34|NJ|1|023|Middlesex|40.4509385|-74.4932089|09/08/1979|
874258|Adamston|Populated Place|00280|U6|0015|340015029|34|NJ|1|029|Ocean|40.0453944|-74.0951383|09/08/1979|
874260|Adelphia|Populated Place|00310|U6|0016|340016025|34|NJ|1|025|Monmouth|40.2181677|-74.2562566|09/08/1979|
874263|Afton|Populated Place|00325|U6|||34|NJ|1|027|Morris|40.7726004|-74.3895961|09/08/1979|
874270|Albion|Populated Place|00400|U6|||34|NJ|1|007|Camden|39.7787261|-74.9548875|09/08/1979|
874271|Albion Place|Populated Place|00430|U4|||34|NJ|1|031|Passaic|40.8912101|-74.1757|09/08/1979|
874275|Aldene|Populated Place|00460|U4|||34|NJ|1|039|Union|40.6634358|-74.2729247|09/08/1979|
874278|Aldine|Populated Place|00490|U6|||34|NJ|1|033|Salem|39.5690032|-75.2749107|09/08/1979|
874284|Alexauken|Populated Place|00565|U6|||34|NJ|1|019|Hunterdon|40.38955|-74.9390559|09/08/1979|
874287|Algers Mills|Populated Place|00595|U6|||34|NJ|1|025|Monmouth|40.1653917|-74.0745832|09/08/1979|
874292|Allamuchy|Populated Place|00640|U5|0018|340018041|34|NJ|1|041|Warren|40.921765|-74.8101665|09/08/1979|01/29/2011
874296|Allendale|Populated Place|00700|P1|0020|340020003|34|NJ|1|003|Bergen|41.0414858|-74.129032|09/08/1979|03/17/2008
874297|Allenhurst|Populated Place|00730|P1|0030|340030025|34|NJ|1|025|Monmouth|40.2362237|-74.0006926|09/08/1979|03/17/2008
874299|Allens Mills|Populated Place|00745|U6|||34|NJ|1|041|Warren|40.7400986|-75.118508|09/08/1979|
874300|Allentown|Populated Place|00760|P1|0040|340040025|34|NJ|1|025|Monmouth|40.1778887|-74.5834887|09/08/1979|06/06/2014
874301|Allenwood|Populated Place|00790|U5|0041|340041025|34|NJ|1|025|Monmouth|40.1415033|-74.0998616|09/08/1979|03/17/2008
874303|Allerton|Populated Place|00820|U6|||34|NJ|1|019|Hunterdon|40.6112131|-74.8784999|09/08/1979|
874305|Alliance|Populated Place|00835|U6|||34|NJ|1|033|Salem|39.5187265|-75.0918455|09/08/1979|
874308|Alloway|Populated Place|00850|U5|0045|340045033|34|NJ|1|033|Salem|39.560947|-75.3624151|09/08/1979|12/06/2013
874312|Allwood|Populated Place|00940|U4|||34|NJ|1|031|Passaic|40.8425998|-74.1587551|09/08/1979|
874314|Almonesson|Populated Place|01000||0049|340049015|34|NJ|1|015|Gloucester|39.8190027|-75.0985071|09/08/1979|12/06/2013
874318|Alpha|Populated Place|01030|P1|0050|340050041|34|NJ|1|041|Warren|40.6670439|-75.1573972|09/08/1979|03/17/2008
874319|Alphano|Populated Place|01060|U6|||34|NJ|1|041|Warren|40.9023206|-74.861557|09/08/1979|
874320|Alpine|Populated Place|01090|P1|0060|340060003|34|NJ|1|003|Bergen|40.9559316|-73.9312478|09/08/1979|03/17/2008
874335|Amsterdam|Populated Place|01195|U6|||34|NJ|1|019|Hunterdon|40.5876009|-75.1585076|09/08/1979|
874336|Amwell|Populated Place|01210|U6|||34|NJ|1|019|Hunterdon|40.4314941|-74.7521061|09/08/1979|
874338|Ancora|Populated Place|01240|U6|||34|NJ|1|007|Camden|39.6945609|-74.8412742|09/08/1979|
874341|Anderson|Populated Place|01300|U5|||34|NJ|1|041|Warren|40.770655|-74.919058|09/08/1979|11/19/2014
874343|Andover|Populated Place|01330|P1|0070|340070037|34|NJ|1|037|Sussex|40.9859311|-74.7421089|09/08/1979|03/17/2008
874349|Anglesea|Populated Place|01450|U4|||34|NJ|1|009|Cape May|39.0187243|-74.7948883|09/08/1979|
874352|Annandale|Populated Place|01480|U5|0072|340072019|34|NJ|1|019|Hunterdon|40.6409348|-74.881278|09/08/1979|03/17/2008
874357|Anthony|Populated Place|01510|U6|||34|NJ|1|019|Hunterdon|40.7484331|-74.8812788|09/08/1979|
874361|Applegarth|Populated Place|01540|U6|||34|NJ|1|023|Middlesex|40.2784428|-74.4726519|09/08/1979|
874364|Apshawa|Populated Place|01600|U6|||34|NJ|1|031|Passaic|41.0175974|-74.3629292|09/08/1979|
874368|Archers Corner|Populated Place|01670|U6|||34|NJ|1|029|Ocean|40.0884471|-74.455429|09/08/1979|
874369|Archertown|Populated Place|01680|U6|||34|NJ|1|029|Ocean|40.0653918|-74.4998749|09/08/1979|
874370|Arcola|Populated Place|01690|U4|||34|NJ|1|003|Bergen|40.9259319|-74.0893083|09/08/1979|
874371|Ardena|Populated Place|01720|U6|||34|NJ|1|025|Monmouth|40.2115012|-74.2326447|09/08/1979|
874373|Arlington|Populated Place|01750|U4|||34|NJ|1|017|Hudson|40.7776008|-74.138199|09/08/1979|
874379|Armstrong|Populated Place|01770|U6|||34|NJ|1|037|Sussex|41.1495406|-74.6898856|09/08/1979|
874380|Arneys Mount|Populated Place|01790|U6|||34|NJ|1|005|Burlington|40.0098346|-74.6965481|09/08/1979|
874381|Arneytown|Populated Place|01810|U6|||34|NJ|1|025|Monmouth|40.1015014|-74.5659882|09/08/1979|06/06/2014
874381|Arneytown|Populated Place|01810|U6|||34|NJ|2|005|Burlington|40.1015014|-74.5659882|09/08/1979|06/06/2014
874390|Asbury|Populated Place|01885|U6|||34|NJ|1|015|Gloucester|39.7726134|-75.2837973|09/08/1979|
874391|Asbury|Populated Place|01900|U5|0077|340077041|34|NJ|1|041|Warren|40.6959334|-75.0101715|09/08/1979|11/19/2014
874396|Asbury Park|Populated Place|01960|P1|0080|340080025|34|NJ|1|025|Monmouth|40.2203907|-74.0120817|09/08/1979|03/17/2008
874410|Atco|Populated Place|02020|U6|0085|340085007|34|NJ|1|007|Camden|39.769838|-74.8873855|09/08/1979|
874412|Athenia|Populated Place|02050|U4|||34|NJ|1|031|Passaic|40.8667661|-74.1543105|09/08/1979|
874413|Atlantic City|Populated Place|02080|P1|0090|340090001|34|NJ|1|001|Atlantic|39.3642834|-74.4229266|09/08/1979|03/17/2008
874418|Atsion|Populated Place|02140|U6|||34|NJ|1|005|Burlington|39.7426177|-74.725992|09/08/1979|12/06/2013
874420|Auburn|Populated Place|02170|U6|||34|NJ|1|033|Salem|39.710947|-75.3676911|09/08/1979|
874421|Audubon|Populated Place|02200|P1|0110|340110007|34|NJ|1|007|Camden|39.8909466|-75.0729504|09/08/1979|03/17/2008
874423|Audubon Park|Populated Place|02230|P1|0120|340120007|34|NJ|1|007|Camden|39.8965021|-75.0876736|09/08/1979|03/17/2008
874424|Augusta|Populated Place|02260|U6|0125|340125037|34|NJ|1|037|Sussex|41.1289854|-74.72822|09/08/1979|
874427|Aura|Populated Place|02290||||34|NJ|1|015|Gloucester|39.6728923|-75.1374003|09/08/1979|12/06/2013
874428|Avalon|Populated Place|02320|P1|0130|340130009|34|NJ|1|009|Cape May|39.101225|-74.7176622|09/08/1979|12/16/2014
874429|Avenel|Populated Place|02350|U5|0135|340135023|34|NJ|1|023|Middlesex|40.5803818|-74.2851469|09/08/1979|03/17/2008
874432|Avon-by-the-Sea|Populated Place|02440|P1|||34|NJ|1|025|Monmouth|40.1923357|-74.0159703|09/08/1979|03/17/2008
874433|Avondale|Populated Place|02470|U6|||34|NJ|1|013|Essex|40.8148224|-74.1501438|09/08/1979|
874434|Awosting|Populated Place|02500|U6|||34|NJ|1|031|Passaic|41.1545398|-74.3365404|09/08/1979|
874439|Babbitt|Populated Place|02530|U6|||34|NJ|1|017|Hudson|40.8098228|-74.019862|09/08/1979|
874459|Baileys Corner|Populated Place|02567|U6|||34|NJ|1|025|Monmouth|40.152892|-74.0720829|09/08/1979|
874461|Bairdsville|Populated Place|02581|U6|||34|NJ|1|025|Monmouth|40.2420552|-74.3837604|09/08/1979|
874466|Bakersville|Populated Place|02620|U6|||34|NJ|1|021|Mercer|40.2748305|-74.7062708|09/08/1979|
874475|Balesville|Populated Place|02680|U6|||34|NJ|1|037|Sussex|41.1042634|-74.7596098|09/08/1979|
874479|Baltusrol|Populated Place|02710|U6|||34|NJ|1|039|Union|40.7245456|-74.327927|09/08/1979|
874483|Baptistown|Populated Place|02800|U6|0143|340143019|34|NJ|1|019|Hunterdon|40.5217698|-75.006003|09/08/1979|
874487|Barbertown|Populated Place|02860|U6|||34|NJ|1|019|Hunterdon|40.4853814|-75.0271144|09/08/1979|
874491|Barclay Farm|Populated Place|02890|U3|||34|NJ|1|007|Camden|39.9059465|-74.9937796|09/08/1979|01/29/2011
874495|Bargaintown|Populated Place|02920|U6|||34|NJ|1|001|Atlantic|39.3626162|-74.5809892|09/08/1979|12/06/2013
874499|Barnegat|Populated Place|03040|U5|0145|340145029|34|NJ|1|029|Ocean|39.7531754|-74.2229179|09/08/1979|03/17/2008
874501|Barnegat Bay|Populated Place|03055|U6|||34|NJ|1|029|Ocean|39.7581754|-74.1915278|09/08/1979|
874502|Barnegat Beach|Populated Place|03070|U6|||34|NJ|1|029|Ocean|39.7787307|-74.1906947|09/08/1979|
874503|Barnegat Estates|Populated Place|03100|U6|||34|NJ|1|029|Ocean|39.7612307|-74.2590306|09/08/1979|
874505|Barnegat Light|Populated Place|03130|P1|0150|340150029|34|NJ|1|029|Ocean|39.7576202|-74.1062466|09/08/1979|03/17/2008
874508|Barnegat Pines|Populated Place|03190|U6|||34|NJ|1|029|Ocean|39.8962296|-74.2098635|09/08/1979|
874512|Barnsboro|Populated Place|03220|U6|0155|340155015|34|NJ|1|015|Gloucester|39.7617806|-75.1599002|09/08/1979|12/06/2013
874518|Barrington|Populated Place|03250|P1|0160|340160007|34|NJ|1|007|Camden|39.8648357|-75.0551714|09/08/1979|03/17/2008
874520|Bartles Corners|Populated Place|03295|U6|||34|NJ|1|019|Hunterdon|40.5367699|-74.8573876|09/08/1979|
874523|Bartley|Populated Place|03310|U6|||34|NJ|1|027|Morris|40.8225996|-74.7182182|09/08/1979|
874531|Basking Ridge|Populated Place|03340|U6|0170|340170035|34|NJ|1|035|Somerset|40.7062122|-74.5493233|09/08/1979|06/06/2014
874537|Bates Mill|Populated Place|03385|U6|||34|NJ|1|007|Camden|39.7070607|-74.8651635|09/08/1979|
874539|Batsto|Populated Place|03430|U6|||34|NJ|1|005|Burlington|39.6417844|-74.6476573|09/08/1979|12/16/2014
874544|Bay Head|Populated Place|03520|P1|0180|340180029|34|NJ|1|029|Ocean|40.0717828|-74.0543036|09/08/1979|03/17/2008
874546|Bay Head Junction|Populated Place|03550|U4|||34|NJ|1|029|Ocean|40.0778938|-74.04597|09/08/1979|
874550|Bay Shore|Populated Place|03610|U6|||34|NJ|1|029|Ocean|39.9509515|-74.1131935|09/08/1979|
874551|Bay Side|Populated Place|03670|U6|||34|NJ|1|011|Cumberland|39.3826131|-75.4065853|09/08/1979|
874552|Bay Side|Populated Place|03700|U6|||34|NJ|1|029|Ocean|39.6687303|-74.2131952|09/08/1979|
874554|Bayonne|Populated Place|03580|P1|0190|340190017|34|NJ|1|017|Hudson|40.6687141|-74.1143091|09/08/1979|03/17/2008
874560|Bayville|Populated Place|03760|U6|0195|340195029|34|NJ|1|029|Ocean|39.9092852|-74.1548614|09/08/1979|
874562|Bayway|Populated Place|03820|U4|||34|NJ|1|039|Union|40.6389921|-74.2123672|09/08/1979|
874568|Beach Glen|Populated Place|03910|U6|||34|NJ|1|027|Morris|40.9298209|-74.4862669|09/08/1979|
874569|Beach Haven|Populated Place|03940|P1|0200|340200029|34|NJ|1|029|Ocean|39.5592848|-74.2431963|09/08/1979|03/17/2008
874570|Beach Haven Crest|Populated Place|03970|U6|||34|NJ|1|029|Ocean|39.6126188|-74.2029169|09/08/1979|
874571|Beach Haven Gardens|Populated Place|04000|U6|||34|NJ|1|029|Ocean|39.5823406|-74.2270846|09/08/1979|
874572|Beach Haven Heights|Populated Place|04030|U6|||34|NJ|1|029|Ocean|39.5345623|-74.2604192|09/08/1979|
874574|Beach Haven Terrace|Populated Place|04090|U6|||34|NJ|1|029|Ocean|39.5862296|-74.2234733|09/08/1979|
874575|Beach Haven West|Populated Place|04120|U5|||34|NJ|1|029|Ocean|39.6698413|-74.2318071|09/08/1979|03/17/2008
874577|Beach View|Populated Place|04150|U6|||34|NJ|1|029|Ocean|39.7248417|-74.242641|09/08/1979|
874578|Beachwood|Populated Place|04180|P1|0210|340210029|34|NJ|1|029|Ocean|39.939007|-74.1929188|09/08/1979|03/17/2008
874582|Beals Mill|Populated Place|04195|U6|||34|NJ|1|011|Cumberland|39.5287257|-75.2657441|09/08/1979|
874602|Bear Tavern|Populated Place|04210|U6|||34|NJ|1|021|Mercer|40.3089961|-74.8484974|09/08/1979|
874607|Beattystown|Populated Place|04252|U5|||34|NJ|1|041|Warren|40.8131549|-74.8429446|09/08/1979|11/19/2014
874607|Beattystown|Populated Place|04252|U5|||34|NJ|2|027|Morris|40.8131549|-74.8429446|09/08/1979|11/19/2014
874608|Beaufort|Populated Place|04270|U4|||34|NJ|1|013|Essex|40.8178777|-74.3295941|09/08/1979|
874617|Beaver Dam|Populated Place|04330|U6|||34|NJ|1|033|Salem|39.650391|-75.4921424|09/08/1979|
874619|Beaver Lake|Populated Place|04360|U6|||34|NJ|1|037|Sussex|41.1075966|-74.5534925|09/08/1979|
874620|Beaver Run|Populated Place|04370|U6|||34|NJ|1|037|Sussex|41.1534294|-74.6196058|09/08/1979|
874628|Beaverville|Populated Place|04380|U6|||34|NJ|1|005|Burlington|39.9017809|-74.7418267|09/08/1979|
874631|Bedminster|Populated Place|04420|U6|0214|340214035|34|NJ|1|035|Somerset|40.680657|-74.6454373|09/08/1979|
874637|Beemerville|Populated Place|04510|U6|||34|NJ|1|037|Sussex|41.2106512|-74.6915525|09/08/1979|
874641|Beesleys Point|Populated Place|04540|U6|||34|NJ|1|009|Cape May|39.276782|-74.6362695|09/08/1979|12/06/2013
874643|Belcoville|Populated Place|04570|U6|0219|340219001|34|NJ|1|001|Atlantic|39.4373383|-74.7359963|09/08/1979|
874645|Belle Mead|Populated Place|04630|U5|||34|NJ|1|035|Somerset|40.4667713|-74.6607144|09/08/1979|01/29/2011
874648|Belleplain|Populated Place|04660|U5|||34|NJ|1|009|Cape May|39.2687258|-74.866558|09/08/1979|01/29/2011
874650|Belleville|Populated Place|04690|U5|0230|340230013|34|NJ|1|013|Essex|40.7937116|-74.1501438|09/08/1979|03/17/2008
874654|Bellmawr|Populated Place|04750|P1|0240|340240007|34|NJ|1|007|Camden|39.8676134|-75.0946183|09/08/1979|03/17/2008
874656|Bells Crossing|Populated Place|04810|U4|||34|NJ|1|019|Hunterdon|40.7045446|-74.943225|09/08/1979|
874658|Bells Lake|Populated Place|04840|U6|||34|NJ|1|015|Gloucester|39.7537257|-75.0487809|09/08/1979|
874659|Belmar|Populated Place|04930|P1|0250|340250025|34|NJ|1|025|Monmouth|40.1784471|-74.0218037|09/08/1979|03/17/2008
874662|Belvidere|Populated Place|04990|P1|0260|340260041|34|NJ|1|041|Warren|40.82982|-75.0776747|09/08/1979|12/16/2014
874668|Benders Corner|Populated Place|05035|U6|||34|NJ|1|039|Union|40.6803795|-74.411263|09/08/1979|
874671|Bennett|Populated Place|05050|U6|||34|NJ|1|009|Cape May|38.983446|-74.9012828|09/08/1979|
874673|Bennetts Mill|Populated Place|05065|U6|||34|NJ|1|011|Cumberland|39.42456|-74.9112819|09/08/1979|
874674|Bennetts Mills|Populated Place|05080|U6|||34|NJ|1|029|Ocean|40.129003|-74.2751456|09/08/1979|
874678|Berdines Corners|Populated Place|05110|U6|||34|NJ|1|023|Middlesex|40.4673273|-74.4534855|09/08/1979|
874679|Bergen Mills|Populated Place|05270|U6|||34|NJ|1|025|Monmouth|40.2628879|-74.4193169|09/08/1979|
874681|Bergen Point|Populated Place|05290|U4|||34|NJ|1|017|Hudson|40.6476033|-74.1412543|09/08/1979|
874686|Bergenfield|Populated Place|05170|P1|0270|340270003|34|NJ|1|003|Bergen|40.9275987|-73.9973608|09/08/1979|07/21/2011
874688|Berkeley Heights|Populated Place|05350|U5|||34|NJ|1|039|Union|40.6834349|-74.442653|09/08/1979|07/21/2011
874694|Berkshire Valley|Populated Place|05425|U6|||34|NJ|1|027|Morris|40.9300986|-74.5907148|09/08/1979|
874695|Berlin|Populated Place|05440|P1|0280|340280007|34|NJ|1|007|Camden|39.7912262|-74.9290536|09/08/1979|12/16/2014
874698|Bernardsville|Populated Place|05590|P1|0290|340290035|34|NJ|1|035|Somerset|40.718712|-74.569324|09/08/1979|06/06/2014
874699|Berryland|Populated Place|05605|U6|||34|NJ|1|015|Gloucester|39.6112271|-74.9057228|09/08/1979|
874735|Beverly|Populated Place|05740|P1|0300|340300005|34|NJ|1|005|Burlington|40.0653889|-74.9190558|09/08/1979|12/06/2013
874758|Big Oak|Populated Place|05750|U6|||34|NJ|1|011|Cumberland|39.4862261|-75.2085193|09/08/1979|
874762|Big Springs|Populated Place|05760|U6|||34|NJ|1|037|Sussex|41.1278742|-74.621828|09/08/1979|
874765|Billingsport|Populated Place|05770|U4|||34|NJ|1|015|Gloucester|39.8484465|-75.2418496|09/08/1979|12/06/2013
874769|Birch Hills|Populated Place|05800|U6|||34|NJ|1|027|Morris|40.8095443|-74.4315421|09/08/1979|
874771|Birchwood Lakes|Populated Place|05830|U6|||34|NJ|1|005|Burlington|39.8662257|-74.8123843|09/08/1979|
874772|Birmingham|Populated Place|05890|U6|0305|340305005|34|NJ|1|005|Burlington|39.9759462|-74.7101596|09/08/1979|12/06/2013
874775|Bishops|Populated Place|05920|U6|||34|NJ|1|007|Camden|39.7853932|-74.9062751|09/08/1979|
874778|Bissell|Populated Place|05940|U6|||34|NJ|1|019|Hunterdon|40.6667681|-74.7918308|09/08/1979|
874780|Bivalve|Populated Place|05950|U6|||34|NJ|1|011|Cumberland|39.234281|-75.033789|09/08/1979|
874798|Blackwood|Populated Place|06040|U5|0310|340310007|34|NJ|1|007|Camden|39.8023363|-75.0640602|09/08/1979|03/17/2008
874800|Blackwood Terrace|Populated Place|06070|U6|0311|340311015|34|NJ|1|015|Gloucester|39.805114|-75.0857284|09/08/1979|
874804|Blairstown|Populated Place|06130|U5|0314|340314041|34|NJ|1|041|Warren|40.9828753|-74.9604501|09/08/1979|11/19/2014
874805|Blairstown Station|Locale|06100|U6|||34|NJ|1|041|Warren|40.9692643|-74.9548943|09/08/1979|
874806|Blansingburg|Populated Place|06175|U6|||34|NJ|1|025|Monmouth|40.1367813|-74.0570822|09/08/1979|
874808|Blawenburg|Populated Place|06190|U5|0318|340318035|34|NJ|1|035|Somerset|40.4076057|-74.70266|09/08/1979|01/29/2011
874809|Blenheim|Populated Place|06220|U6|0319|340319007|34|NJ|1|007|Camden|39.8092807|-75.0773945|09/08/1979|
874817|Bloomfield|Populated Place|06250|U5|0320|340320013|34|NJ|1|013|Essex|40.806767|-74.1854226|09/08/1979|12/16/2014
874819|Bloomingdale|Populated Place|06355|U6|||34|NJ|1|035|Somerset|40.497604|-74.6473808|09/08/1979|
874820|Bloomingdale|Populated Place|06340|P1|0330|340330031|34|NJ|1|031|Passaic|41.002042|-74.3265388|09/08/1979|03/17/2008
874821|Bloomsbury|Populated Place|06370|P1|0340|340340019|34|NJ|1|019|Hunterdon|40.6539892|-75.0865619|09/08/1979|03/17/2008
874822|Blue Anchor|Populated Place|06400|U6|0341|340341007|34|NJ|1|007|Camden|39.6895606|-74.8826645|09/08/1979|
874825|Blue Bell|Populated Place|06430|U6|||34|NJ|1|015|Gloucester|39.5720601|-74.9740597|09/08/1979|
874841|Bogota|Populated Place|06490|P1|0350|340350003|34|NJ|1|003|Bergen|40.8762106|-74.0298621|09/08/1979|03/17/2008
874845|Bon Air|Populated Place|06520|U6|||34|NJ|1|007|Camden|39.9692792|-75.0229487|09/08/1979|
874849|Bonhamtown|Populated Place|06550|U6|||34|NJ|1|023|Middlesex|40.5234379|-74.357649|09/08/1979|
874855|Boonton|Populated Place|06610|P1|0360|340360027|34|NJ|1|027|Morris|40.9025989|-74.4070971|09/08/1979|12/16/2014
874858|Bordentown|Populated Place|06670|P1|0370|340370005|34|NJ|1|005|Burlington|40.1462213|-74.7118264|09/08/1979|12/16/2014
874865|Bound Brook|Populated Place|06790|P1|0380|340380035|34|NJ|1|035|Somerset|40.5684363|-74.5384889|09/08/1979|03/17/2008
874868|Bowentown|Populated Place|06865|U6|||34|NJ|1|011|Cumberland|39.4245588|-75.2763013|09/08/1979|
874874|Bowman Manor|Populated Place|06880|U6|||34|NJ|1|009|Cape May|39.0162239|-74.9340621|09/08/1979|
874875|Bowne|Populated Place|06890|U6|||34|NJ|1|019|Hunterdon|40.4198273|-74.9126664|09/08/1979|
874879|Boynton Beach|Populated Place|06895|U6|||34|NJ|1|023|Middlesex|40.5473271|-74.25459|09/08/1979|
874880|Bozuretown|Populated Place|06900|U6|||34|NJ|1|005|Burlington|39.826783|-74.6890467|09/08/1979|
874881|Braddock|Populated Place|06910|U6|0386|340386007|34|NJ|1|007|Camden|39.7009494|-74.8896088|09/08/1979|
874884|Bradevelt|Populated Place|06940|U6|||34|NJ|1|025|Monmouth|40.3345539|-74.2393116|09/08/1979|
874887|Bradley Gardens|Populated Place|07000|U5|||34|NJ|1|035|Somerset|40.5628809|-74.6546036|09/08/1979|01/29/2011
874888|Bradley Park|Populated Place|07030|U6|||34|NJ|1|025|Monmouth|40.2051132|-74.0243041|09/08/1979|
874891|Braeburn Heights|Populated Place|07060|U6|||34|NJ|1|021|Mercer|40.256775|-74.7682171|09/08/1979|
874892|Brainards|Populated Place|07120|U5|||34|NJ|1|041|Warren|40.7737088|-75.1696208|09/08/1979|01/29/2011
874902|Branchburg Park|Populated Place|07210|U6|0398|340398035|34|NJ|1|035|Somerset|40.5723251|-74.6848824|09/08/1979|
874904|Branchville|Populated Place|07300|P1|0400|340400037|34|NJ|1|037|Sussex|41.1464852|-74.7523874|09/08/1979|03/17/2008
874909|Brant Beach|Populated Place|07330|U6|0402|340402029|34|NJ|1|029|Ocean|39.6209522|-74.1970834|09/08/1979|
874910|Brass Castle|Populated Place|07360|U5|||34|NJ|1|041|Warren|40.7648213|-75.0110055|09/08/1979|03/17/2008
874918|Breton Woods|Populated Place|07390|U6|0410|340410029|34|NJ|1|029|Ocean|40.0456722|-74.1087499|09/08/1979|
874923|Bricksboro|Populated Place|07480|U6|||34|NJ|1|011|Cumberland|39.3020591|-74.9785078|09/08/1979|
874925|Bridgeboro|Populated Place|07540|U6|||34|NJ|1|005|Burlington|40.0220561|-74.9323899|09/08/1979|12/16/2014
874926|Bridgepoint|Populated Place|07555|U6|||34|NJ|1|035|Somerset|40.4326054|-74.6484917|09/08/1979|
874928|Bridgeport|Populated Place|07570|U6|0419|340419015|34|NJ|1|015|Gloucester|39.8009464|-75.3474118|09/08/1979|
874930|Bridgeton|Populated Place|07600||0420|340420011|34|NJ|1|011|Cumberland|39.427337|-75.2340768|09/08/1979|12/06/2013
874931|Bridgeton Junction|Populated Place|07630|U4|||34|NJ|1|011|Cumberland|39.4528927|-75.2126866|09/08/1979|
874932|Bridgeville|Populated Place|07660|U5|||34|NJ|1|041|Warren|40.836765|-75.0260066|09/08/1979|01/29/2011
874935|Brielle|Populated Place|07750|P1|0430|340430025|34|NJ|1|025|Monmouth|40.1078931|-74.0565263|09/08/1979|03/17/2008
874936|Brigantine|Populated Place|07810|P1|0440|340440001|34|NJ|1|001|Atlantic|39.4101171|-74.3645906|09/08/1979|12/06/2013
874942|Brighton|Populated Place|07840|U6|||34|NJ|1|037|Sussex|40.9850978|-74.7634986|09/08/1979|
874943|Brighton Beach|Populated Place|07870|U6|||34|NJ|1|029|Ocean|39.6065076|-74.2079171|09/08/1979|
874947|Brindletown|Populated Place|07970|U6|||34|NJ|1|029|Ocean|40.0473365|-74.5051529|09/08/1979|
874952|Broad Lane|Populated Place|07980|U6|||34|NJ|1|015|Gloucester|39.6703936|-74.9262774|09/08/1979|
874955|Broadway|Populated Place|08020|U5|0445|340445041|34|NJ|1|041|Warren|40.7320436|-75.0515617|09/08/1979|01/29/2011
874959|Brook Valley|Populated Place|08290|U4|||34|NJ|1|027|Morris|40.9645425|-74.3679292|09/08/1979|
874961|Brookdale|Populated Place|08110|U5|||34|NJ|1|013|Essex|40.833711|-74.1829225|09/08/1979|01/29/2011
874965|Brooklawn|Populated Place|08170|P1|0450|340450007|34|NJ|1|007|Camden|39.8781689|-75.120731|09/08/1979|03/17/2008
874966|Brookside|Populated Place|08260|U6|0454|340454027|34|NJ|1|027|Morris|40.7942667|-74.5679354|09/08/1979|
874972|Brookville|Populated Place|08335|U6|||34|NJ|1|019|Hunterdon|40.400661|-74.9660013|09/08/1979|
874973|Brookville|Populated Place|08350|U6|||34|NJ|1|029|Ocean|39.7817859|-74.3073661|09/08/1979|
874976|Brotmanville|Populated Place|08410|U6|||34|NJ|1|033|Salem|39.520671|-75.0824005|09/08/1979|
874980|Brownings|Populated Place|08425|U6|||34|NJ|1|041|Warren|40.952596|-75.1132328|09/08/1979|
874981|Browns Mills|Populated Place|08455|U5|0455|340455005|34|NJ|1|005|Burlington|39.9726147|-74.5829331|09/08/1979|12/16/2014
874982|Browns Mills Junction|Populated Place|08457|U6|||34|NJ|1|005|Burlington|39.9484483|-74.5898776|09/08/1979|
874985|Browntown|Populated Place|08470|U6|0458|340458023|34|NJ|1|023|Middlesex|40.4017743|-74.3065359|09/08/1979|
874988|Brunswick Gardens|Populated Place|08530|U6|||34|NJ|1|023|Middlesex|40.3906633|-74.3362591|09/08/1979|
875004|Buckingham|Populated Place|08540|U6|||34|NJ|1|029|Ocean|39.9312278|-74.4473727|09/08/1979|
875008|Bucks Mill|Populated Place|08605|U6|||34|NJ|1|025|Monmouth|40.2845551|-74.1976438|09/08/1979|
875011|Buckshutem|Populated Place|08590|U6|||34|NJ|1|011|Cumberland|39.3190037|-75.0126762|09/08/1979|
875014|Budd Lake|Populated Place|08620|U5|0460|340460027|34|NJ|1|027|Morris|40.8712101|-74.7340523|09/08/1979|03/17/2008
875017|Buddtown|Populated Place|08650|U6|||34|NJ|1|005|Burlington|39.9392805|-74.7029368|09/08/1979|10/22/2007
875018|Buena|Populated Place|08680|P1|0470|340470001|34|NJ|1|001|Atlantic|39.5137271|-74.9246151|09/08/1979|03/17/2008
875023|Bullock|Populated Place|08725|U6|||34|NJ|1|029|Ocean|39.8817841|-74.4495946|09/08/1979|
875023|Bullock|Populated Place|08725|U6|||34|NJ|2|005|Burlington|39.8817841|-74.4495946|09/08/1979|
875026|Bulltown|Populated Place|08740|U6|||34|NJ|1|005|Burlington|39.6381735|-74.5940441|09/08/1979|
875030|Bunnvale|Populated Place|08800|U6|||34|NJ|1|019|Hunterdon|40.7017672|-74.8832229|09/08/1979|
875034|Burkesville|Populated Place|08860|U6|||34|NJ|1|029|Ocean|40.160668|-74.4209835|09/08/1979|
875035|Burleigh|Populated Place|08890|U5|0478|340478009|34|NJ|1|009|Cape May|39.0456688|-74.8515578|09/08/1979|12/06/2013
875038|Burlington|Populated Place|08920|P1|0480|340480005|34|NJ|1|005|Burlington|40.071222|-74.8648873|09/08/1979|12/16/2014
875049|Burnt Mills|Populated Place|08995|U6|||34|NJ|1|035|Somerset|40.6359353|-74.6868272|09/08/1979|
875051|Burrs Mill|Populated Place|09000|U6|||34|NJ|1|005|Burlington|39.8884487|-74.6498792|09/08/1979|
875055|Bustleton|Populated Place|09010|U6|||34|NJ|1|005|Burlington|40.0881663|-74.7826622|09/08/1979|
875056|Butler|Populated Place|09040|P1|0490|340490027|34|NJ|1|027|Morris|41.0037087|-74.3415394|09/08/1979|03/17/2008
875058|Butler Park|Populated Place|09060|U6|||34|NJ|1|041|Warren|40.7517662|-74.9310028|09/08/1979|
875065|Buttzville|Populated Place|09100|U5|0492|340492041|34|NJ|1|041|Warren|40.8323207|-75.0062838|09/08/1979|01/29/2011
875066|Byram|Populated Place|09130|U6|||34|NJ|1|019|Hunterdon|40.4237156|-75.059615|09/08/1979|
875070|Byram Cove|Populated Place|09190|U4|||34|NJ|1|037|Sussex|40.9556538|-74.6598839|09/08/1979|
875084|Caldwell|Populated Place|09250|P1|0500|340500013|34|NJ|1|013|Essex|40.8398218|-74.2765366|09/08/1979|03/17/2008
875086|Califon|Populated Place|09280|P1|0510|340510019|34|NJ|1|019|Hunterdon|40.7195448|-74.8357215|09/08/1979|03/17/2008
875103|Cambridge|Populated Place|09340|U6|||34|NJ|1|005|Burlington|40.0290006|-74.9726691|09/08/1979|
875105|Camden|Populated Place|10000|P1|0520|340520007|34|NJ|1|007|Camden|39.9259463|-75.1196199|09/08/1979|12/16/2014
875121|Camp Columbus|Populated Place|10045|U6|||34|NJ|1|029|Ocean|39.8959513|-74.3212567|09/08/1979|
875152|Camp Osborne|Populated Place|10120|U6|||34|NJ|1|029|Ocean|40.0084508|-74.0587475|09/08/1979|
875182|Canton|Populated Place|10210|U6|||34|NJ|1|033|Salem|39.4709464|-75.4149187|09/08/1979|
875189|Cape May|Populated Place|10270|P1|0530|340530009|34|NJ|1|009|Cape May|38.9351126|-74.9060053|09/08/1979|12/06/2013
875191|Cape May Court House|Populated Place|10300|U5|0530|340530009|34|NJ|1|009|Cape May|39.0826135|-74.8237786|09/08/1979|12/06/2013
875194|Cape May Point|Populated Place|10330|P1|0550|340550009|34|NJ|1|009|Cape May|38.9373346|-74.9693418|09/08/1979|12/06/2013
875195|Capitol Hill|Populated Place|10360|U6|||34|NJ|1|005|Burlington|40.055389|-74.9034998|09/08/1979|
875198|Cardiff|Populated Place|10390|U6|0552|340552001|34|NJ|1|001|Atlantic|39.4101165|-74.5871006|09/08/1979|
875199|Carey|Populated Place|10435|U6|||34|NJ|1|027|Morris|40.8556548|-74.6784949|09/08/1979|
875203|Carlls Corner|Populated Place|10450|U6|||34|NJ|1|011|Cumberland|39.4628928|-75.2051861|09/08/1979|
875204|Carlstadt|Populated Place|10480|P1|0560|340560003|34|NJ|1|003|Bergen|40.8403778|-74.0906974|09/08/1979|12/16/2014
875205|Carlton Hill|Populated Place|10510|U4|||34|NJ|1|003|Bergen|40.8464887|-74.110698|09/08/1979|
875206|Carmantown|Populated Place|10525|U6|||34|NJ|1|001|Atlantic|39.5092835|-74.6940498|09/08/1979|
875207|Carmel|Populated Place|10540|U6|||34|NJ|1|011|Cumberland|39.4342818|-75.1212927|09/08/1979|
875209|Carmerville|Populated Place|10570|U6|||34|NJ|1|025|Monmouth|40.1770579|-74.1290296|09/08/1979|
875212|Carneys Point|Populated Place|10600|U5|0567|340567033|34|NJ|1|033|Salem|39.7112247|-75.4701961|09/08/1979|12/06/2013
875216|Carpentersville|Populated Place|10630|U6|||34|NJ|1|041|Warren|40.6359332|-75.1885088|09/08/1979|
875219|Carrs Corner|Populated Place|10690|U6|||34|NJ|1|025|Monmouth|40.2331667|-74.3704266|09/08/1979|
875223|Carsons Mills|Populated Place|10730|U6|||34|NJ|1|025|Monmouth|40.2170547|-74.5598768|09/08/1979|
875226|Carteret|Populated Place|10750|P1|0570|340570023|34|NJ|1|023|Middlesex|40.5773266|-74.2282005|09/08/1979|03/17/2008
875233|Cassville|Populated Place|10810|U6|1505|341505029|34|NJ|1|029|Ocean|40.1045583|-74.3865379|09/08/1979|
875241|Catawba|Populated Place|10855|U6|||34|NJ|1|001|Atlantic|39.4070604|-74.7140508|09/08/1979|
875249|Cecil|Populated Place|10900|U6|||34|NJ|1|015|Gloucester|39.648449|-74.9471121|09/08/1979|12/06/2013
875251|Cedar Beach|Populated Place|10960|U6|||34|NJ|1|029|Ocean|39.8734522|-74.1493052|09/08/1979|
875258|Cedar Bridge|Populated Place|11005|U6|||34|NJ|1|029|Ocean|40.0559496|-74.1281952|09/08/1979|
875260|Cedar Brook|Populated Place|11050|U6|0572|340572007|34|NJ|1|007|Camden|39.7153938|-74.9007198|09/08/1979|
875272|Cedar Crest|Populated Place|11065|U6|||34|NJ|1|029|Ocean|39.9026179|-74.3220901|09/08/1979|
875273|Cedar Crest Manor|Populated Place|11080|U6|||34|NJ|1|033|Salem|39.6773356|-75.4757523|09/08/1979|
875275|Cedar Grove|Populated Place|11240|U6|||34|NJ|1|015|Gloucester|39.7020582|-75.2307395|09/08/1979|
875276|Cedar Grove|Populated Place|11245|U6|||34|NJ|1|021|Mercer|40.3681621|-74.6948818|09/08/1979|
875277|Cedar Grove|Populated Place|11170|U6|||34|NJ|1|009|Cape May|39.1626141|-74.7665532|09/08/1979|
875278|Cedar Grove|Populated Place|11250|U6|||34|NJ|1|029|Ocean|39.9734511|-74.1684738|09/08/1979|
875279|Cedar Grove|Populated Place|11230|U5|0574|340574013|34|NJ|1|013|Essex|40.8517662|-74.229035|09/08/1979|03/17/2008
875287|Cedar Heights|Populated Place|11260|U6|||34|NJ|1|019|Hunterdon|40.6606568|-74.8768335|09/08/1979|
875295|Cedar Knolls|Populated Place|11290|U6|0577|340577027|34|NJ|1|027|Morris|40.8220442|-74.448765|09/08/1979|
875299|Cedar Lake|Populated Place|11320|U6|||34|NJ|1|001|Atlantic|39.5837271|-74.9001678|09/08/1979|
875311|Cedar Run|Populated Place|11380|U6|0579|340579029|34|NJ|1|029|Ocean|39.6848413|-74.2670863|09/08/1979|
875315|Cedar Springs|Populated Place|11395|U6|||34|NJ|1|009|Cape May|39.2453926|-74.7068281|09/08/1979|
875320|Cedarville|Populated Place|11410|U5|0580|340580011|34|NJ|1|011|Cumberland|39.3326145|-75.1996314|09/08/1979|12/16/2014
875321|Cedarville|Populated Place|11440|U6|||34|NJ|1|033|Salem|39.6245582|-75.3413021|09/08/1979|
875323|Cedarwood Park|Populated Place|11470|U6|0585|340585029|34|NJ|1|029|Ocean|40.0498387|-74.1301397|09/08/1979|
875331|Centerton|Populated Place|11590|U6|||34|NJ|1|005|Burlington|39.9956677|-74.8729433|09/08/1979|
875333|Centerton|Populated Place|11620|U6|||34|NJ|1|033|Salem|39.5253929|-75.1676831|09/08/1979|12/16/2014
875334|Centerville|Populated Place|11635|U6|||34|NJ|1|021|Mercer|40.3464956|-74.7640506|09/08/1979|
875335|Centerville|Populated Place|11640|U6|||34|NJ|1|025|Monmouth|40.4148303|-74.1576427|09/08/1979|
875336|Centerville|Populated Place|11630|U6|||34|NJ|1|019|Hunterdon|40.5384367|-74.754051|09/08/1979|
875336|Centerville|Populated Place|11630|U6|||34|NJ|2|035|Somerset|40.5384367|-74.754051|09/08/1979|
875343|Central Park|Populated Place|11710|U6|||34|NJ|1|033|Salem|39.6598354|-75.5146435|09/08/1979|
875355|Centre City|Populated Place|11740|U6|||34|NJ|1|015|Gloucester|39.775947|-75.180735|09/08/1979|
875356|Centre Grove|Populated Place|11770|U6|||34|NJ|1|011|Cumberland|39.3565037|-75.1218489|09/08/1979|
875358|Chadwick|Populated Place|11845|U6|||34|NJ|1|029|Ocean|39.9931734|-74.0637475|09/08/1979|
875359|Chairville|Populated Place|11890|U6|||34|NJ|1|005|Burlington|39.8984473|-74.7890505|09/08/1979|
875363|Chambers Corners|Populated Place|11950|U6|||34|NJ|1|005|Burlington|40.0178896|-74.7326604|09/08/1979|
875365|Changewater|Populated Place|11980||0588|340588041|34|NJ|1|041|Warren|40.7381553|-74.9440586|09/08/1979|11/19/2014
875372|Charleston Springs|Populated Place|12040|U6|||34|NJ|1|025|Monmouth|40.2006674|-74.3732044|09/08/1979|
875373|Charlestown|Populated Place|12055|U6|||34|NJ|1|019|Hunterdon|40.6892671|-74.9723925|09/08/1979|
875375|Charlotteburg|Populated Place|12070|U6|||34|NJ|1|027|Morris|41.0303752|-74.4237651|09/08/1979|
875378|Chatham|Populated Place|12100|P1|0590|340590027|34|NJ|1|027|Morris|40.7409341|-74.3837624|09/08/1979|12/16/2014
875379|Chatsworth|Populated Place|12160|U6|0593|340593005|34|NJ|1|005|Burlington|39.8176178|-74.5348749|09/08/1979|12/06/2013
875383|Cheesequake|Populated Place|12220|U6|||34|NJ|1|023|Middlesex|40.4248294|-74.2876465|09/08/1979|
875388|Cherry Hill|Populated Place|12310|U6|0598|340598007|34|NJ|1|007|Camden|39.9348351|-75.0307264|09/08/1979|05/12/2008
875395|Cherry Quay|Populated Place|12430|U6|||34|NJ|1|029|Ocean|40.0265059|-74.1229169|09/08/1979|
875399|Cherryville|Populated Place|12520|U6|||34|NJ|1|019|Hunterdon|40.5612138|-74.9032225|09/08/1979|
875400|Chesilhurst|Populated Place|12550|P1|0600|340600007|34|NJ|1|007|Camden|39.7323384|-74.8809966|09/08/1979|03/17/2008
875401|Chester|Populated Place|12580|P1|0610|340610027|34|NJ|1|027|Morris|40.7842667|-74.6968284|09/08/1979|12/16/2014
875404|Chesterfield|Populated Place|12640|U6|0611|340611005|34|NJ|1|005|Burlington|40.1151114|-74.6393239|09/08/1979|
875413|Chewalla Park|Populated Place|12760|U6|||34|NJ|1|021|Mercer|40.2314979|-74.712382|09/08/1979|
875416|Chimney Rock|Populated Place|12860|U6|||34|NJ|1|035|Somerset|40.579825|-74.5568228|09/08/1979|
875428|Chrome|Populated Place|12880|U4|||34|NJ|1|023|Middlesex|40.5764933|-74.2162558|09/08/1979|
875439|Churchtown|Populated Place|12910|U6|||34|NJ|1|033|Salem|39.6720577|-75.5099209|09/08/1979|
875452|Clark|Populated Place|13180|U5|0616|340616039|34|NJ|1|039|Union|40.6409361|-74.3107037|09/08/1979|03/17/2008
875460|Clarks Landing|Populated Place|13270|U4|||34|NJ|1|029|Ocean|40.0906712|-74.0606929|09/08/1979|
875463|Clarks Mills|Populated Place|13290|U6|||34|NJ|1|023|Middlesex|40.3170537|-74.3501484|09/08/1979|
875467|Clarksboro|Populated Place|13210|U6|0617|340617015|34|NJ|1|015|Gloucester|39.7998356|-75.2237934|09/08/1979|10/22/2007
875468|Clarksburg|Populated Place|13240|U6|0618|340618025|34|NJ|1|025|Monmouth|40.1887228|-74.4407064|09/08/1979|
875469|Clarkstown|Populated Place|13330|U6|||34|NJ|1|001|Atlantic|39.4351162|-74.7151621|09/08/1979|
875470|Clarksville|Populated Place|13320|U6|||34|NJ|1|021|Mercer|40.2964969|-74.6801589|09/08/1979|
875472|Clayton|Populated Place|13360|P1|0620|340620015|34|NJ|1|015|Gloucester|39.6601148|-75.0921197|09/08/1979|03/17/2008
875478|Clearwater|Populated Place|13405|U6|||34|NJ|1|037|Sussex|41.0278752|-74.7121081|09/08/1979|
875482|Clementon|Populated Place|13420|P1|0630|340630007|34|NJ|1|007|Camden|39.8115033|-74.9829443|09/08/1979|12/06/2013
875484|Clements Bridge|Populated Place|13465|U6|||34|NJ|1|007|Camden|39.840947|-75.0832285|09/08/1979|
875484|Clements Bridge|Populated Place|13465|U6|||34|NJ|2|015|Gloucester|39.840947|-75.0832285|09/08/1979|
875486|Clermont|Populated Place|13480|U6|0632|340632005|34|NJ|1|005|Burlington|39.9906677|-74.7996072|09/08/1979|
875495|Cliffside Park|Populated Place|13570|P1|0640|340640003|34|NJ|1|003|Bergen|40.8214894|-73.9876388|09/08/1979|03/17/2008
875496|Cliffwood|Populated Place|13600|U6|0649|340649025|34|NJ|1|025|Monmouth|40.436774|-74.2395893|09/08/1979|
875498|Cliffwood Beach|Populated Place|13630|U5|||34|NJ|1|025|Monmouth|40.4420516|-74.2168109|09/08/1979|03/17/2008
875500|Clifton|Populated Place|13690|P1|0660|340660031|34|NJ|1|031|Passaic|40.8584328|-74.1637553|09/08/1979|03/17/2008
875503|Clinton|Populated Place|13765|U6|||34|NJ|1|031|Passaic|41.0714858|-74.4504331|09/08/1979|
875504|Clinton|Populated Place|13720|P1|0670|340670019|34|NJ|1|019|Hunterdon|40.6367682|-74.90989|09/08/1979|12/17/2014
875505|Clinton|Populated Place|13705|U6|||34|NJ|1|013|Essex|40.8792658|-74.3148715|09/08/1979|
875515|Closter|Populated Place|13810|P1|0680|340680003|34|NJ|1|003|Bergen|40.9731536|-73.9615262|09/08/1979|03/17/2008
875521|Clover Leaf Lakes|Populated Place|13960|U6|||34|NJ|1|001|Atlantic|39.4703943|-74.7104396|09/08/1979|
875522|Cloverhill|Populated Place|13930|U6|||34|NJ|1|019|Hunterdon|40.4881597|-74.7821072|09/08/1979|
875525|Clyde|Populated Place|13990|U5|||34|NJ|1|035|Somerset|40.4864932|-74.5104319|09/08/1979|01/29/2011
875530|Cobbs Corner|Populated Place|14008|U6|||34|NJ|1|027|Morris|40.8706549|-74.4187641|09/08/1979|
875534|Coffins Corner|Populated Place|14016|U6|||34|NJ|1|007|Camden|39.8601138|-74.9887787|09/08/1979|
875535|Cohansey|Populated Place|14020|U6|||34|NJ|1|033|Salem|39.5115033|-75.2949125|09/08/1979|
875535|Cohansey|Populated Place|14020|U6|||34|NJ|2|011|Cumberland|39.5115033|-75.2949125|09/08/1979|
875541|Cokesbury|Populated Place|14050|U6|||34|NJ|1|019|Hunterdon|40.6834343|-74.8362768|09/08/1979|
875543|Cold Indian Springs|Populated Place|14080|U6|||34|NJ|1|025|Monmouth|40.2423344|-74.0662504|09/08/1979|
875544|Cold Spring|Populated Place|14110|U6|0685|340685009|34|NJ|1|009|Cape May|38.9667793|-74.9162836|09/08/1979|12/06/2013
875550|Coleman Hollow|Populated Place|14120|U6|||34|NJ|1|027|Morris|40.812322|-74.6073813|09/08/1979|
875553|Colestown|Populated Place|14130|U6|||34|NJ|1|007|Camden|39.9334462|-74.9887799|09/08/1979|
875555|Colesville|Populated Place|14140|U6|||34|NJ|1|037|Sussex|41.2750949|-74.6498848|09/08/1979|
875558|Colliers Mills|Populated Place|14200|U6|||34|NJ|1|029|Ocean|40.0676143|-74.4493177|09/08/1979|
875560|Collings Lakes|Populated Place|14230|U5|0687|340687001|34|NJ|1|001|Atlantic|39.5956717|-74.8815556|09/08/1979|03/17/2008
875561|Collingswood|Populated Place|14260||0690|340690007|34|NJ|1|007|Camden|39.9181686|-75.071284|09/08/1979|12/17/2014
875563|Collingwood Park|Populated Place|14290|U6|||34|NJ|1|025|Monmouth|40.2223346|-74.1337525|09/08/1979|
875569|Cologne|Populated Place|14350|U6|0691|340691001|34|NJ|1|001|Atlantic|39.5048393|-74.6132129|09/08/1979|
875570|Colonia|Populated Place|14380|U5|0693|340693023|34|NJ|1|023|Middlesex|40.5745485|-74.3020918|09/08/1979|07/21/2011
875572|Colonial Manor|Populated Place|14470|U6|||34|NJ|1|015|Gloucester|39.8551134|-75.1512884|09/08/1979|12/06/2013
875574|Colts Neck|Populated Place|14530|U6|0692|340692025|34|NJ|1|025|Monmouth|40.2876108|-74.1723652|09/08/1979|
875575|Columbia|Populated Place|14590|U5|0694|340694041|34|NJ|1|041|Warren|40.9262077|-75.0926763|09/08/1979|01/29/2011
875584|Columbus|Populated Place|14650|U6|0696|340696005|34|NJ|1|005|Burlington|40.0726112|-74.7207156|09/08/1979|12/17/2014
875594|Colwick|Populated Place|14680|U6|||34|NJ|1|007|Camden|39.9520571|-75.0229484|09/08/1979|
875595|Comical Corners|Populated Place|14695|U6|||34|NJ|1|005|Burlington|39.9834464|-74.6832142|09/08/1979|
875597|Communipaw|Populated Place|14740|U4|||34|NJ|1|017|Hudson|40.7087134|-74.0609745|09/08/1979|
875607|Conovertown|Populated Place|14830|U6|||34|NJ|1|001|Atlantic|39.4398393|-74.4784846|09/08/1979|
875620|Cookstown|Populated Place|14980|U6|0698|340698005|34|NJ|1|005|Burlington|40.0490024|-74.562377|09/08/1979|
875629|Coontown|Populated Place|15010|U6|||34|NJ|1|035|Somerset|40.6187134|-74.5182107|09/08/1979|
875630|Cooper|Populated Place|15020|U6|||34|NJ|1|015|Gloucester|39.7992799|-75.3326888|09/08/1979|
875631|Cooper|Populated Place|15030|U6|||34|NJ|1|031|Passaic|41.1628731|-74.3320959|09/08/1979|
875645|Coopersville|Populated Place|15090|U6|||34|NJ|1|041|Warren|40.7070436|-75.1090629|09/08/1979|
875648|Copper Hill|Populated Place|15130|U6|||34|NJ|1|019|Hunterdon|40.4751042|-74.8634985|09/08/1979|
875650|Corbin City|Populated Place|15160|P1|0700|340700001|34|NJ|1|001|Atlantic|39.3034484|-74.7557193|09/08/1979|12/06/2013
875655|Cornish|Populated Place|15190|U6|||34|NJ|1|041|Warren|40.7975986|-75.0346176|09/08/1979|
875665|Cottrell Corners|Populated Place|15235|U6|||34|NJ|1|023|Middlesex|40.4031633|-74.29598|09/08/1979|
875669|Country Lake Estates|Populated Place|15250|U5|||34|NJ|1|005|Burlington|39.9426157|-74.5440427|09/08/1979|03/17/2008
875682|Coxs Corner|Populated Place|15290|U6|||34|NJ|1|005|Burlington|39.9206689|-74.878776|09/08/1979|
875683|Coxs Corner|Populated Place|15295|U6|||34|NJ|1|021|Mercer|40.3262184|-74.6940482|09/08/1979|
875684|Coytesville|Populated Place|15310|U4|||34|NJ|1|003|Bergen|40.8642665|-73.9620823|09/08/1979|
875690|Cragmere Park|Populated Place|15370|U6|||34|NJ|1|003|Bergen|41.0945405|-74.1359772|09/08/1979|
875693|Cramer Hill|Populated Place|15430|U4|||34|NJ|1|007|Camden|39.9576127|-75.0848961|09/08/1979|10/22/2007
875702|Cranberry Lake|Populated Place|15460|U6|||34|NJ|1|037|Sussex|40.9542649|-74.7465533|09/08/1979|
875704|Cranbury|Populated Place|15520|U5|0704|340704023|34|NJ|1|023|Middlesex|40.3162195|-74.5137645|09/08/1979|03/17/2008
875706|Cranbury Station|Populated Place|15490|U6|||34|NJ|1|023|Middlesex|40.3020532|-74.4918192|09/08/1979|
875707|Crane Square|Populated Place|15625|U6|||34|NJ|1|039|Union|40.6820468|-74.2082007|09/08/1979|
875709|Cranford Junction|Populated Place|15700|U6|||34|NJ|1|039|Union|40.6620469|-74.2912587|09/08/1979|
875713|Crawford Corners|Populated Place|15720|U6|||34|NJ|1|025|Monmouth|40.3848308|-74.1887547|09/08/1979|
875715|Cream Ridge|Populated Place|15730|U6|0707|340707025|34|NJ|1|025|Monmouth|40.1351122|-74.5240423|09/08/1979|
875717|Crescent Heights|Populated Place|15760|U6|||34|NJ|1|005|Burlington|39.9687241|-74.7165485|09/08/1979|
875723|Cresskill|Populated Place|15820|P1|0680|340680003|34|NJ|1|003|Bergen|40.9414874|-73.9593041|09/08/1979|03/17/2008
875729|Crestmoore|Populated Place|15850|U6|||34|NJ|1|027|Morris|40.7484333|-74.8265546|09/08/1979|
875730|Creston|Populated Place|15880|U6|||34|NJ|1|021|Mercer|40.231498|-74.6929368|09/08/1979|
875740|Cropwell|Populated Place|15940|U6|||34|NJ|1|005|Burlington|39.8937247|-74.9354441|09/08/1979|
875744|Cross Keys|Populated Place|15970|U6|||34|NJ|1|015|Gloucester|39.7134482|-75.0296138|09/08/1979|
875746|Crossmans|Populated Place|16000|U4|||34|NJ|1|023|Middlesex|40.4851056|-74.3212587|09/08/1979|
875747|Crossroads|Populated Place|16030|U6|||34|NJ|1|005|Burlington|39.9153914|-74.8259963|09/08/1979|
875749|Crosswicks|Populated Place|16060|U6|0711|340711005|34|NJ|1|005|Burlington|40.153444|-74.6476576|09/08/1979|06/06/2014
875751|Croton|Populated Place|16090|U6|||34|NJ|1|019|Hunterdon|40.5109368|-74.9301674|09/08/1979|
875754|Crowfoot|Populated Place|16120|U6|||34|NJ|1|005|Burlington|39.7945597|-74.8990528|09/08/1979|
875754|Crowfoot|Populated Place|16120|U6|||34|NJ|2|007|Camden|39.7945597|-74.8990528|09/08/1979|
875755|Crowleytown|Populated Place|16135|U6|||34|NJ|1|005|Burlington|39.628451|-74.6176563|09/08/1979|
875760|Crystal Lake|Populated Place|16210|U6|||34|NJ|1|029|Ocean|39.8942853|-74.1884737|09/08/1979|
875761|Crystal Lake|Populated Place|16180|U4|||34|NJ|1|003|Bergen|41.0189861|-74.2123681|09/08/1979|
875776|Culvers Inlet|Populated Place|16225|U6|||34|NJ|1|037|Sussex|41.1687069|-74.7921109|09/08/1979|
875778|Cumberland|Populated Place|16270|U6|||34|NJ|1|011|Cumberland|39.3698374|-74.9407279|09/08/1979|
875784|Cushetunk|Populated Place|16315|U6|||34|NJ|1|019|Hunterdon|40.6223242|-74.7907193|09/08/1979|
875789|Da Costa|Populated Place|16390|U4|||34|NJ|1|001|Atlantic|39.6167835|-74.774607|07/01/1981|07/21/2011
875793|Danceys Corner|Populated Place|16420|U6|||34|NJ|1|033|Salem|39.7015025|-75.4388058|09/08/1979|
875799|Daretown|Populated Place|16450|U6|||34|NJ|1|033|Salem|39.604281|-75.2574093|09/08/1979|
875801|Darlington|Populated Place|16480|U6|0712|340712003|34|NJ|1|003|Bergen|41.080374|-74.1820897|09/08/1979|
875804|Darts Mills|Populated Place|16540|U6|||34|NJ|1|019|Hunterdon|40.5389921|-74.8337758|09/08/1979|
875810|Davis Bridge|Populated Place|16600|U6|||34|NJ|1|027|Morris|40.6803792|-74.5268224|09/08/1979|
875812|Davis Mill|Populated Place|16610|U6|||34|NJ|1|011|Cumberland|39.4248357|-75.3665832|09/08/1979|
875815|Davisville|Populated Place|16620|U6|||34|NJ|1|007|Camden|39.7931699|-75.0462811|09/08/1979|
875818|Dayton|Populated Place|16630|U5|0713|340713023|34|NJ|1|023|Middlesex|40.372607|-74.5101536|09/08/1979|03/17/2008
875823|DeKays|Populated Place|17040|U6|||34|NJ|1|037|Sussex|41.2303726|-74.440434|09/08/1979|
875828|Deacons|Populated Place|16645|U6|||34|NJ|1|005|Burlington|40.0378892|-74.827386|09/08/1979|
875833|Deans|Populated Place|16720|U6|||34|NJ|1|023|Middlesex|40.404273|-74.5159872|09/08/1979|
875855|Deepwater|Populated Place|16840|U6|0723|340723033|34|NJ|1|033|Salem|39.6834468|-75.4904752|09/08/1979|
875859|Deer Park|Populated Place|16990|U6|||34|NJ|1|007|Camden|39.9062244|-74.9760013|09/08/1979|
875864|Deerfield|Populated Place|16930|U6|0724|340724011|34|NJ|1|011|Cumberland|39.5237259|-75.2360204|09/08/1979|
875867|Del Haven|Populated Place|17380|U6|0727|340727009|34|NJ|1|009|Cape May|39.0467797|-74.9196169|09/08/1979|
875868|Delair|Populated Place|17050|U6|||34|NJ|1|007|Camden|39.9815013|-75.0515613|09/08/1979|
875869|Delair Junction|Populated Place|17065|U6|||34|NJ|1|007|Camden|39.9742792|-75.0646174|09/08/1979|
875870|Delanco|Populated Place|17110|U6|0730|340730005|34|NJ|1|005|Burlington|40.0506669|-74.9535016|09/08/1979|12/17/2014
875872|Delawanna|Populated Place|17140|U4|||34|NJ|1|031|Passaic|40.8289889|-74.1409768|09/08/1979|
875874|Delaware|Populated Place|17200|U5|0733|340733041|34|NJ|1|041|Warren|40.8928751|-75.0646194|09/08/1979|01/29/2011
875878|Delaware Gardens|Populated Place|17230|U6|||34|NJ|1|007|Camden|39.9606683|-75.0671174|09/08/1979|
875884|Dellette|Populated Place|17395|U6|0480|340480005|34|NJ|1|005|Burlington|39.7909497|-74.7740492|09/08/1979|
875885|Delmont|Populated Place|17410|U6|0734|340734011|34|NJ|1|011|Cumberland|39.2142809|-74.9498957|09/08/1979|10/22/2007
875886|Demarest|Populated Place|17530|P1|0740|340740003|34|NJ|1|003|Bergen|40.9573205|-73.9634708|09/08/1979|03/17/2008
875895|Dennisville|Populated Place|17590||0742|340742009|34|NJ|1|009|Cape May|39.1931698|-74.8251673|09/08/1979|12/06/2013
875896|Denville|Populated Place|17620|U6|0745|340745027|34|NJ|1|027|Morris|40.8923212|-74.4773775|09/08/1979|
875906|Devonshire|Populated Place|17800|U6|||34|NJ|1|001|Atlantic|39.5426171|-74.6673816|09/08/1979|
875911|Dias Creek|Populated Place|17830|U6|||34|NJ|1|009|Cape May|39.0890023|-74.8804481|09/08/1979|12/17/2014
875918|Dicktown|Populated Place|17840|U6|||34|NJ|1|007|Camden|39.7562262|-74.9812768|09/08/1979|
875922|Dilts Corner|Populated Place|17860|U6|||34|NJ|1|019|Hunterdon|40.4126052|-74.9346115|09/08/1979|
875926|Dividing Creek|Populated Place|17920|U6|0746|340746011|34|NJ|1|011|Cumberland|39.2703922|-75.101015|09/08/1979|12/06/2013
875928|Dividing Creek Station|Locale|17890|U6|||34|NJ|1|011|Cumberland|39.3042813|-75.0985146|09/08/1979|
875946|Dorchester|Populated Place|18010|U6|0748|340748011|34|NJ|1|011|Cumberland|39.2728924|-74.9768412|09/08/1979|
875947|Dorothy|Populated Place|18040|U6|0749|340749001|34|NJ|1|001|Atlantic|39.4006712|-74.823778|09/08/1979|
875951|Double Trouble|Populated Place|18050|U6|||34|NJ|1|029|Ocean|39.8978962|-74.2206973|09/08/1979|
875956|Dover|Populated Place|18070|P1|0750|340750027|34|NJ|1|027|Morris|40.883988|-74.5621025|09/08/1979|12/24/2014
875959|Downer|Populated Place|18250|U6|||34|NJ|1|015|Gloucester|39.6945592|-75.0518382|09/08/1979|
875960|Downstown|Populated Place|18290|U6|||34|NJ|1|015|Gloucester|39.539838|-74.9557267|09/08/1979|
875966|Dragston|Populated Place|18305|U6|||34|NJ|1|011|Cumberland|39.26567|-75.0721245|09/08/1979|
875969|Drakestown|Populated Place|18310|U6|||34|NJ|1|027|Morris|40.8437103|-74.7823872|09/08/1979|
875970|Dreahook|Populated Place|18340|U6|||34|NJ|1|019|Hunterdon|40.6001024|-74.7812745|09/08/1979|
876001|Dukes Bridge|Populated Place|18385|U6|||34|NJ|1|005|Burlington|39.7948405|-74.5243188|09/08/1979|
876003|Dumont|Populated Place|18400|P1|0760|340760003|34|NJ|1|003|Bergen|40.9406541|-73.9968051|09/08/1979|03/17/2008
876004|Dunbarton|Populated Place|18430|U6|||34|NJ|1|007|Camden|39.7492829|-74.874885|09/08/1979|
876008|Dunellen|Populated Place|18490|P1|0770|340770023|34|NJ|1|023|Middlesex|40.5892696|-74.4718201|09/08/1979|12/24/2014
876010|Dunhams Corners|Populated Place|18520|U6|||34|NJ|1|023|Middlesex|40.4239952|-74.4218175|09/08/1979|
876014|Dunnfield|Populated Place|18560|U6|||34|NJ|1|041|Warren|40.9712067|-75.123789|09/08/1979|
876016|Dunns Mills|Populated Place|18570|U6|||34|NJ|1|005|Burlington|40.1292774|-74.6934924|09/08/1979|
876019|Dutch Neck|Populated Place|18640|U6|0773|340773021|34|NJ|1|021|Mercer|40.2823308|-74.6137677|09/08/1979|
876020|Dutchtown|Populated Place|18650|U6|||34|NJ|1|005|Burlington|39.7206731|-74.7371039|09/08/1979|
876022|Duttonville|Populated Place|18655|U6|||34|NJ|1|037|Sussex|41.3514829|-74.6859963|09/08/1979|
876036|Earle|Populated Place|18715|U6|||34|NJ|1|025|Monmouth|40.2253901|-74.1401417|09/08/1979|
876037|Earlys Crossing|Populated Place|18745|U6|||34|NJ|1|005|Burlington|39.9087266|-74.6057112|09/08/1979|
876038|East Berlin|Populated Place|18850|U6|||34|NJ|1|007|Camden|39.7973373|-74.9151645|09/08/1979|
876044|East Burlington|Populated Place|19060|U4|||34|NJ|1|005|Burlington|40.0789997|-74.8379418|09/08/1979|
876045|East Camden|Populated Place|19090|U4|||34|NJ|1|007|Camden|39.9528905|-75.1015635|09/08/1979|
876052|East Freehold|Populated Place|19150|U5|0782|340782025|34|NJ|1|025|Monmouth|40.2809439|-74.2512566|09/08/1979|03/17/2008
876057|East Millstone|Populated Place|19330|U5|0785|340785035|34|NJ|1|035|Somerset|40.5014929|-74.580712|09/08/1979|01/29/2011
876058|East Newark|Populated Place|19360|P1|0790|340790017|34|NJ|1|017|Hudson|40.7484345|-74.1618108|09/08/1979|03/17/2008
876059|East Orange|Populated Place|19390|P1|0800|340800013|34|NJ|1|013|Essex|40.767323|-74.2048677|09/08/1979|01/08/2015
876060|Elmwood Park|Populated Place|21300|P1|0810|340810003|34|NJ|1|003|Bergen|40.9039878|-74.118476|09/08/1979|03/17/2008
876061|East Pennsauken|Populated Place|19450|U6|||34|NJ|1|007|Camden|39.9712236|-75.0223932|09/08/1979|
876064|East Riverton|Populated Place|19480|U6|||34|NJ|1|005|Burlington|40.0176119|-74.9948922|09/08/1979|
876065|East Rutherford|Populated Place|19510|P1|0820|340820003|34|NJ|1|003|Bergen|40.833989|-74.0970865|09/08/1979|03/17/2008
876069|East Spotswood|Populated Place|19600|U6|||34|NJ|1|023|Middlesex|40.4114959|-74.3643156|09/08/1979|
876070|East Trenton Heights|Populated Place|19660|U6|||34|NJ|1|021|Mercer|40.2587196|-74.7098819|09/08/1979|
876071|East Vineland|Populated Place|19690|U4|||34|NJ|1|001|Atlantic|39.4809492|-74.9193375|09/08/1979|
876080|Eayrestown|Populated Place|19870|U6|||34|NJ|1|005|Burlington|39.945113|-74.7901621|09/08/1979|06/11/2014
876081|Ebenezer|Populated Place|19885|U6|||34|NJ|1|041|Warren|40.95482|-74.9296155|09/08/1979|
876085|Echo Lake|Populated Place|19930|U6|||34|NJ|1|031|Passaic|41.058708|-74.3945975|09/08/1979|
876092|Edgar|Populated Place|19960|U6|||34|NJ|1|023|Middlesex|40.5676043|-74.2757019|09/08/1979|
876096|Edgebrook|Populated Place|19980|U6|||34|NJ|1|021|Mercer|40.1928879|-74.645713|09/08/1979|
876097|Edgebrook|Populated Place|19990|U4|||34|NJ|1|023|Middlesex|40.4848272|-74.403206|09/08/1979|
876101|Edgewater|Populated Place|20020|P1|0840|340840003|34|NJ|1|003|Bergen|40.8270448|-73.975694|09/08/1979|03/17/2008
876102|Edgewater Park|Populated Place|20080|U6|0841|340841005|34|NJ|1|005|Burlington|40.0681666|-74.9007218|09/08/1979|05/12/2008
876107|Edinburg|Populated Place|20200|U6|||34|NJ|1|021|Mercer|40.2581647|-74.6159898|09/08/1979|
876108|Edison|Populated Place|20265|U6|||34|NJ|1|037|Sussex|41.063986|-74.5676593|09/08/1979|
876119|Egg Harbor City|Populated Place|20350||0850|340850001|34|NJ|1|001|Atlantic|39.5287282|-74.6479364|09/08/1979|12/06/2013
876131|Eilers Corner|Populated Place|20380|U6|||34|NJ|1|021|Mercer|40.2334435|-74.5309869|09/08/1979|
876138|Eldora|Populated Place|20470|U6|||34|NJ|1|009|Cape May|39.2153921|-74.9060046|09/08/1979|
876141|Eldridge Hill|Populated Place|20485|U6|||34|NJ|1|033|Salem|39.6645582|-75.3035218|09/08/1979|
876142|Eldridge Park|Populated Place|20500|U6|||34|NJ|1|021|Mercer|40.265386|-74.7448831|09/08/1979|
876147|Elizabeth|Populated Place|21000|P1|0860|340860039|34|NJ|1|039|Union|40.6639916|-74.2107006|09/08/1979|10/19/2016
876155|Elks Terrace|Populated Place|21090|U6|||34|NJ|1|033|Salem|39.559002|-75.4410301|09/08/1979|
876161|Ellisburg|Populated Place|21120|U5|||34|NJ|1|007|Camden|39.9137242|-75.0104472|09/08/1979|01/29/2011
876162|Ellisdale|Populated Place|21180|U6|||34|NJ|1|005|Burlington|40.1317784|-74.5840443|09/08/1979|
876163|Elm|Populated Place|21210|U6|||34|NJ|1|007|Camden|39.6792833|-74.8290519|09/08/1979|
876165|Elmer|Populated Place|21240|P1|0870|340870033|34|NJ|1|033|Salem|39.5951147|-75.1701819|09/08/1979|03/17/2008
876167|Elmora|Populated Place|21270|U4|||34|NJ|1|039|Union|40.6623249|-74.2273678|09/08/1979|
876179|Elton|Populated Place|21390|U6|||34|NJ|1|025|Monmouth|40.217056|-74.3412591|09/08/1979|
876180|Elwood|Populated Place|21420|U5|0885|340885001|34|NJ|1|001|Atlantic|39.5765059|-74.7168276|09/08/1979|12/06/2013
876181|Ely|Populated Place|21440|U6|||34|NJ|1|025|Monmouth|40.2031673|-74.3870937|09/08/1979|
876186|Emerson|Populated Place|21450|P1|0880|340880003|34|NJ|1|003|Bergen|40.976209|-74.0262505|09/08/1979|10/07/2014
876192|Emmelsville|Populated Place|21465|U6|||34|NJ|1|001|Atlantic|39.4878942|-74.7673866|09/08/1979|
876195|Englewood|Populated Place|21480|P1|0890|340890003|34|NJ|1|003|Bergen|40.8928771|-73.9726381|09/08/1979|12/24/2014
876197|Englewood Cliffs|Populated Place|21510|P1|0900|340900003|34|NJ|1|003|Bergen|40.8853773|-73.9523597|09/08/1979|03/17/2008
876199|English Creek|Populated Place|21540|U6|||34|NJ|1|001|Atlantic|39.3492824|-74.6707155|09/08/1979|
876201|English Creek Landing|Populated Place|21555|U6|||34|NJ|1|001|Atlantic|39.3348378|-74.677938|09/08/1979|
876202|Englishtown|Populated Place|21570|P1|0910|340910025|34|NJ|1|025|Monmouth|40.2973319|-74.3582041|09/08/1979|03/17/2008
876206|Erial|Populated Place|21600|U6|0918|340918007|34|NJ|1|007|Camden|39.773448|-75.006278|09/08/1979|
876207|Erlton|Populated Place|21630|U6|||34|NJ|1|007|Camden|39.9170575|-75.0179476|09/08/1979|
876208|Erma|Populated Place|21660|U5|0915|340915009|34|NJ|1|009|Cape May|38.9806683|-74.9079497|09/08/1979|12/06/2013
876209|Erma Park|Populated Place|21690|U6|||34|NJ|1|009|Cape May|39.0059461|-74.883504|09/08/1979|
876210|Ernston|Populated Place|21720|U4|||34|NJ|1|023|Middlesex|40.4562175|-74.3104249|09/08/1979|
876211|Erskine|Populated Place|21750|U4|||34|NJ|1|031|Passaic|41.0909294|-74.2582035|09/08/1979|
876213|Erskine Lakes|Populated Place|21780|U4|||34|NJ|1|031|Passaic|41.1056514|-74.2509812|09/08/1979|
876217|Essex Fells|Populated Place|21840|P1|0920|340920013|34|NJ|1|013|Essex|40.8245442|-74.2845925|09/08/1979|03/17/2008
876218|Estell Manor|Populated Place|21870|P1|0930|340930001|34|NJ|1|001|Atlantic|39.4120603|-74.7423855|09/08/1979|03/17/2008
876221|Estellville|Populated Place|21900|U4|||34|NJ|1|001|Atlantic|39.3959491|-74.7471079|09/08/1979|
876223|Etra|Populated Place|21960|U6|||34|NJ|1|021|Mercer|40.2526099|-74.5068194|09/08/1979|
876229|Everett|Populated Place|22020|U6|||34|NJ|1|025|Monmouth|40.3542761|-74.1465311|09/08/1979|
876242|Everittstown|Populated Place|22050|U6|||34|NJ|1|019|Hunterdon|40.5659355|-75.0287818|09/08/1979|06/06/2014
876243|Evesboro|Populated Place|22080|U6|||34|NJ|1|005|Burlington|39.9134466|-74.9234996|09/08/1979|12/24/2014
876244|Ewan|Populated Place|22140|U6|0933|340933015|34|NJ|1|015|Gloucester|39.6987252|-75.1860142|09/08/1979|07/21/2011
876246|Ewansville|Populated Place|22170|U6|||34|NJ|1|005|Burlington|39.9784458|-74.7351604|09/08/1979|12/24/2014
876247|Ewing|Populated Place|22180|U5|||34|NJ|1|021|Mercer|40.2698302|-74.7998848|09/08/1979|03/17/2008
876251|Ewingville|Populated Place|22290|U6|||34|NJ|1|021|Mercer|40.2770523|-74.7807175|09/08/1979|
876253|Extonville|Populated Place|22320|U6|||34|NJ|1|021|Mercer|40.1434447|-74.5987671|09/08/1979|
876256|Fair Lawn|Populated Place|22470|P1|0950|340950003|34|NJ|1|003|Bergen|40.9403762|-74.1318096|09/08/1979|03/17/2008
876258|Fairfield|Populated Place|22410|U6|||34|NJ|1|025|Monmouth|40.2053903|-74.2137551|09/08/1979|
876264|Fairmount|Populated Place|22500|U6|||34|NJ|1|019|Hunterdon|40.7270449|-74.7762751|09/08/1979|
876269|Fairton|Populated Place|22530|U5|0955|340955011|34|NJ|1|011|Cumberland|39.3817814|-75.2199099|09/08/1979|03/17/2008
876270|Fairview|Populated Place|22680|U6|||34|NJ|1|015|Gloucester|39.7834474|-75.1015626|09/08/1979|
876271|Fairview|Populated Place|22620|U6|||34|NJ|1|005|Burlington|39.8745588|-74.8121066|09/08/1979|
876272|Fairview|Populated Place|22650||||34|NJ|1|007|Camden|39.9067798|-75.1023967|09/08/1979|12/06/2013
876273|Fairview|Populated Place|22590|U6|||34|NJ|1|005|Burlington|40.0176118|-74.9498906|09/08/1979|12/24/2014
876274|Fairview|Populated Place|22750|U6|||34|NJ|1|035|Somerset|40.4334385|-74.7173828|09/08/1979|
876275|Fairview|Populated Place|22560|P1|0960|340960003|34|NJ|1|003|Bergen|40.8126006|-73.999028|09/08/1979|03/17/2008
876294|Fanwood|Populated Place|22860|P1|0980|340980039|34|NJ|1|039|Union|40.6409358|-74.383484|09/08/1979|03/17/2008
876297|Far Hills|Populated Place|22890|P1|0990|340990035|34|NJ|1|035|Somerset|40.684268|-74.6357148|09/08/1979|03/17/2008
876300|Fardale|Populated Place|22875|U6|||34|NJ|1|003|Bergen|41.0409301|-74.1765336|09/08/1979|
876301|Farmersville|Populated Place|22920|U6|||34|NJ|1|019|Hunterdon|40.7262115|-74.8068316|09/08/1979|
876302|Farmingdale|Populated Place|22940|U6|||34|NJ|1|011|Cumberland|39.376226|-75.1096258|09/08/1979|
876303|Farmingdale|Populated Place|22950|P1|1000|341000025|34|NJ|1|025|Monmouth|40.1965018|-74.1684757|09/08/1979|12/24/2014
876310|Fayson Lakes|Populated Place|23040|U4|||34|NJ|1|027|Morris|40.9759313|-74.3570955|09/08/1979|
876311|Feaster Park|Populated Place|23050|U6|||34|NJ|1|023|Middlesex|40.4845492|-74.4426519|09/08/1979|
876315|Fellowship|Populated Place|23070|U6|||34|NJ|1|005|Burlington|39.927613|-74.9665568|09/08/1979|
876319|Fenwick|Populated Place|23100|U6|||34|NJ|1|033|Salem|39.6176138|-75.3368574|09/08/1979|
876323|Fernwood|Populated Place|23120|U6|||34|NJ|1|021|Mercer|40.2589971|-74.7959957|09/08/1979|
876326|Ferrell|Populated Place|23160|U6|||34|NJ|1|015|Gloucester|39.675392|-75.1987933|09/08/1979|07/21/2011
876331|Fieldsboro|Populated Place|23250|P1|1010|341010005|34|NJ|1|005|Burlington|40.1364991|-74.7287714|09/08/1979|12/24/2014
876335|Finderne|Populated Place|23310|U5|||34|NJ|1|035|Somerset|40.5631587|-74.5776568|09/08/1979|07/21/2011
876338|Finesville|Populated Place|23340|U5|1012|341012041|34|NJ|1|041|Warren|40.6084338|-75.1710081|09/08/1979|01/29/2011
876339|Finley|Populated Place|23355|U6|||34|NJ|1|011|Cumberland|39.4773372|-75.2021302|09/08/1979|07/21/2011
876353|Fishing Creek|Populated Place|23460|U6|||34|NJ|1|009|Cape May|39.0228906|-74.9337844|09/08/1979|12/06/2013
876364|Five Points|Populated Place|23505|U6|||34|NJ|1|001|Atlantic|39.4798382|-74.8935031|09/08/1979|
876365|Five Points|Populated Place|23520|U6|||34|NJ|1|033|Salem|39.7565026|-75.4146373|09/08/1979|
876366|Five Points|Populated Place|23550|U6|||34|NJ|1|037|Sussex|41.0862075|-74.8576687|09/08/1979|
876367|Flagtown|Populated Place|23610|U6|1015|341015035|34|NJ|1|035|Somerset|40.5170481|-74.6843265|09/08/1979|06/06/2014
876369|Flanders|Populated Place|23640|U6|1017|341017027|34|NJ|1|027|Morris|40.8456549|-74.6948843|09/08/1979|
876381|Flatbrookville|Populated Place|23670|U6|1018|341018037|34|NJ|1|037|Sussex|41.1003736|-74.9635055|09/08/1979|
876384|Flemington|Populated Place|23700|P1|1020|341020019|34|NJ|1|019|Hunterdon|40.5123258|-74.8593318|09/08/1979|03/17/2008
876385|Flemington Junction|Populated Place|23730|U6|||34|NJ|1|019|Hunterdon|40.53177|-74.8396092|09/08/1979|
876388|Floral Hill|Populated Place|23745|U6|||34|NJ|1|027|Morris|40.7295454|-74.4059853|09/08/1979|
876389|Florence|Populated Place|23880|U6|||34|NJ|1|007|Camden|39.7342825|-74.9182198|09/08/1979|
876390|Florence|Populated Place|23820|U5|1040|341040005|34|NJ|1|005|Burlington|40.1195546|-74.8054406|09/08/1979|12/24/2014
876392|Florence Station|Populated Place|23790|U6|||34|NJ|1|005|Burlington|40.1084437|-74.784051|09/08/1979|
876394|Florham Park|Populated Place|23910|P1|1030|341030027|34|NJ|1|027|Morris|40.787878|-74.3882072|09/08/1979|03/17/2008
876397|Flyat|Populated Place|23925|U6|||34|NJ|1|005|Burlington|39.8228936|-74.7571045|09/08/1979|
876398|Folsom|Populated Place|23940|P1|1050|341050001|34|NJ|1|001|Atlantic|39.6020608|-74.8426653|09/08/1979|03/17/2008
876400|Fords|Populated Place|24030|U5|1051|341051023|34|NJ|1|023|Middlesex|40.5292715|-74.3159809|09/08/1979|03/17/2008
876402|Fordville|Populated Place|24035|U6|||34|NJ|1|011|Cumberland|39.4253927|-75.1699066|09/08/1979|
876405|Forest Grove|Populated Place|24060|U6|||34|NJ|1|015|Gloucester|39.5273379|-74.9862839|09/08/1979|
876413|Forked River|Populated Place|24180|U5|1049|341049029|34|NJ|1|029|Ocean|39.8398413|-74.1901399|09/08/1979|03/17/2008
876417|Fort Dix|Populated Place|24300|U5|||34|NJ|1|005|Burlington|40.0298354|-74.61849|09/08/1979|03/17/2008
876418|Fort Lee|Populated Place|24420|P1|1060|341060003|34|NJ|1|003|Bergen|40.8509333|-73.9701382|09/08/1979|03/17/2008
876421|Fort Plains|Populated Place|24540|U6|||34|NJ|1|025|Monmouth|40.1834462|-74.2543119|09/08/1979|
876423|Fortescue|Populated Place|24360|U6|1068|341068011|34|NJ|1|011|Cumberland|39.2376142|-75.1715748|09/08/1979|
876429|Fostertown|Populated Place|24615|U6|||34|NJ|1|005|Burlington|39.9428908|-74.8173852|09/08/1979|06/11/2014
876430|Foul Rift|Populated Place|24660|U6|||34|NJ|1|041|Warren|40.8023201|-75.0976749|09/08/1979|
876437|Four Corners|Populated Place|24670|U6|||34|NJ|1|037|Sussex|41.2881503|-74.7626653|09/08/1979|
876438|Four Mile|Populated Place|24685|U6|||34|NJ|1|005|Burlington|39.891505|-74.580988|09/08/1979|12/24/2014
876439|Four Mile Circle|Populated Place|24695|U6|||34|NJ|1|005|Burlington|39.8981715|-74.595433|09/08/1979|
876447|Fox Chase|Populated Place|24710|U6|||34|NJ|1|005|Burlington|39.8565042|-74.7262704|09/08/1979|
876448|Fox Hill|Populated Place|24720|U4|||34|NJ|1|027|Morris|40.8775992|-74.4440428|09/08/1979|
876452|Fox Hollow Woods|Populated Place|24750|U6|||34|NJ|1|007|Camden|39.8790026|-74.9560002|09/08/1979|
876454|Foxs Mill|Populated Place|24760|U6|||34|NJ|1|033|Salem|39.6134475|-75.2537979|09/08/1979|
876458|Frames Corner|Populated Place|24770|U6|||34|NJ|1|011|Cumberland|39.3034478|-75.1637963|09/08/1979|
876460|Francis Mills|Populated Place|24780|U6|||34|NJ|1|029|Ocean|40.1348354|-74.3973717|09/08/1979|
876463|Frankfort|Populated Place|24820|U6|1015|341015035|34|NJ|1|035|Somerset|40.5087149|-74.6832153|09/08/1979|
876465|Franklin|Populated Place|24885|U6|||34|NJ|1|027|Morris|40.8742659|-74.5115452|09/08/1979|
876466|Franklin|Populated Place|24930|P1|1070|341070037|34|NJ|1|037|Sussex|41.1220409|-74.5804378|09/08/1979|07/21/2011
876470|Franklin Grove|Populated Place|24975|U6|||34|NJ|1|041|Warren|41.031208|-74.9568389|09/08/1979|
876473|Franklin Lakes|Populated Place|24990|P1|1080|341080003|34|NJ|1|003|Bergen|41.0167639|-74.2057012|09/08/1979|12/24/2014
876475|Franklin Park|Populated Place|25010|U6|||34|NJ|1|023|Middlesex|40.4389943|-74.5351547|09/08/1979|
876497|Franklinville|Populated Place|25050|U6|1082|341082015|34|NJ|1|015|Gloucester|39.6181706|-75.0757308|09/08/1979|
876499|North Beach|Populated Place|52380|U6|2202|342202029|34|NJ|1|029|Ocean|39.6792863|-74.1512483|07/01/1981|
876501|Fredon|Populated Place|25130|U6|||34|NJ|1|037|Sussex|41.0392638|-74.8087781|09/08/1979|11/19/2014
876502|Free Acres|Populated Place|25170|U6|||34|NJ|1|039|Union|40.6606575|-74.443764|09/08/1979|
876504|Freehold|Populated Place|25200|P1|1090|341090025|34|NJ|1|025|Monmouth|40.260111|-74.2737573|09/08/1979|12/24/2014
876506|Freewood Acres|Populated Place|25290|U6|1095|341095025|34|NJ|1|025|Monmouth|40.1690022|-74.2379224|09/08/1979|
876511|Frenchtown|Populated Place|25350|P1|1100|341100019|34|NJ|1|019|Hunterdon|40.5262138|-75.06156|09/08/1979|12/24/2014
876512|Freneau|Populated Place|25380|U4|||34|NJ|1|025|Monmouth|40.4017747|-74.2376449|09/08/1979|
876516|Fresh Ponds|Populated Place|25385|U6|||34|NJ|1|023|Middlesex|40.4053843|-74.4657078|09/08/1979|
876522|Friendship|Populated Place|25410|U6|||34|NJ|1|033|Salem|39.6223367|-75.1824043|09/08/1979|
876524|Friendship|Populated Place|25395|U6|||34|NJ|1|005|Burlington|39.7509519|-74.5851539|09/08/1979|
876533|Friendship Station|Populated Place|25440|U6|||34|NJ|1|033|Salem|39.7342804|-75.4588063|09/08/1979|
876534|Fries Mill|Populated Place|25470|U6|||34|NJ|1|015|Gloucester|39.6562261|-75.0451722|09/08/1979|
876535|Friesburg|Populated Place|25455|U6|||34|NJ|1|033|Salem|39.5448365|-75.2890783|09/08/1979|
876544|Gandys Beach|Populated Place|25590|U6|||34|NJ|1|011|Cumberland|39.2720587|-75.2349118|09/08/1979|
876547|Garden City|Populated Place|25620|U6|||34|NJ|1|015|Gloucester|39.7726143|-75.0704492|09/08/1979|
876553|Gardenville|Populated Place|25725|U6|||34|NJ|1|015|Gloucester|39.8226137|-75.1207308|09/08/1979|
876554|Gardenville Center|Populated Place|25740|U6|||34|NJ|1|015|Gloucester|39.8301136|-75.1223976|09/08/1979|
876557|Garfield|Populated Place|25770|P1|1110|341110003|34|NJ|1|003|Bergen|40.8814882|-74.113198|09/08/1979|12/24/2014
876564|Garrison Corner|Populated Place|25790|U6|||34|NJ|1|011|Cumberland|39.4459466|-75.3901954|09/08/1979|
876567|Garwood|Populated Place|25800|P1|1120|341120039|34|NJ|1|039|Union|40.6517692|-74.3229264|09/08/1979|03/17/2008
876588|Georgetown|Populated Place|25920|U6|||34|NJ|1|005|Burlington|40.0795563|-74.6532133|09/08/1979|12/24/2014
876589|Georgia|Populated Place|25980|U6|||34|NJ|1|025|Monmouth|40.1873348|-74.2845906|09/08/1979|
876593|Germania|Populated Place|26010|U6|||34|NJ|1|001|Atlantic|39.5117839|-74.5993233|09/08/1979|
876595|Germania Gardens|Populated Place|26040|U6|||34|NJ|1|001|Atlantic|39.5034504|-74.609046|09/08/1979|
876600|Gibbsboro|Populated Place|26070|P1|1130|341130007|34|NJ|1|007|Camden|39.8381698|-74.9648887|09/08/1979|03/17/2008
876601|Gibbstown|Populated Place|26100|U5|1140|341140015|34|NJ|1|015|Gloucester|39.8251131|-75.2835191|09/08/1979|03/17/2008
876605|Giffordtown|Populated Place|26120|U6|||34|NJ|1|029|Ocean|39.6003961|-74.3718129|09/08/1979|
876606|Gigantic City|Populated Place|26140|U6|||34|NJ|1|001|Atlantic|39.4965052|-74.8235001|09/08/1979|
876609|Gilford Park|Populated Place|26160|U6|1142|341142029|34|NJ|1|029|Ocean|39.9487292|-74.1370833|09/08/1979|03/17/2008
876610|Gillespie|Populated Place|26190|U4|||34|NJ|1|023|Middlesex|40.4520505|-74.3559821|09/08/1979|
876612|Gillette|Populated Place|26220|U6|1143|341143027|34|NJ|1|027|Morris|40.6739906|-74.465987|09/08/1979|07/21/2011
876613|Gillilandtown|Populated Place|26235|U6|||34|NJ|1|023|Middlesex|40.3970514|-74.4195952|09/08/1979|
876615|Gladstone|Populated Place|26310|C4|1145|341145035|34|NJ|1|035|Somerset|40.7226007|-74.6654381|09/08/1979|
876618|Glassboro|Populated Place|26340|P1|1150|341150015|34|NJ|1|015|Gloucester|39.7028923|-75.1118422|09/08/1979|12/06/2013
876620|Glen Alpin|Populated Place|26385|U6|||34|NJ|1|027|Morris|40.7542671|-74.5262673|09/08/1979|
876621|Glen Gardner|Populated Place|26550|P1|1160|341160019|34|NJ|1|019|Hunterdon|40.6967671|-74.9407248|09/08/1979|12/24/2014
876626|Glen Ridge|Populated Place|26610|P1|1170|341170013|34|NJ|1|013|Essex|40.805378|-74.2037566|09/08/1979|12/24/2014
876628|Glen Rock|Populated Place|26640|P1|1180|341180003|34|NJ|1|003|Bergen|40.9628758|-74.1329208|09/08/1979|03/17/2008
876630|Glendale|Populated Place|26430|U6|||34|NJ|1|007|Camden|39.853725|-74.9823895|09/08/1979|
876632|Glendola|Populated Place|26490|U6|1153|341153025|34|NJ|1|025|Monmouth|40.1909466|-74.0768057|09/08/1979|
876634|Glendora|Populated Place|26520|U5|1155|341155007|34|NJ|1|007|Camden|39.8395581|-75.0735056|09/08/1979|03/17/2008
876637|Glenmoore|Populated Place|26565|U6|||34|NJ|1|021|Mercer|40.3681619|-74.7840513|09/08/1979|
876638|Glenside|Populated Place|26670|U6|||34|NJ|1|033|Salem|39.6665023|-75.4882531|09/08/1979|
876639|Glenwood|Populated Place|26730|U6|1185|341185037|34|NJ|1|037|Sussex|41.2512059|-74.4896028|09/08/1979|
876644|Gloucester City|Populated Place|26820|P1|1190|341190007|34|NJ|1|007|Camden|39.8917799|-75.1162863|09/08/1979|12/06/2013
876645|Gloucester Heights|Populated Place|26850|U4|||34|NJ|1|007|Camden|39.897891|-75.1043412|09/08/1979|
876662|Golf Manor|Populated Place|26940|U6|||34|NJ|1|033|Salem|39.6967803|-75.4707518|09/08/1979|
876663|Golf View|Populated Place|26970|U6|||34|NJ|1|033|Salem|39.7006692|-75.4693628|09/08/1979|
876664|Good Intent|Populated Place|26990|U6|||34|NJ|1|015|Gloucester|39.8042807|-75.0776723|09/08/1979|
876684|Gordons Corner|Populated Place|27015|U6|||34|NJ|1|025|Monmouth|40.3178873|-74.3054248|09/08/1979|
876685|Goshen|Populated Place|27030|U6|1191|341191009|34|NJ|1|009|Cape May|39.1415027|-74.8529465|09/08/1979|
876690|Gouldtown|Populated Place|27060|U6|||34|NJ|1|011|Cumberland|39.4206705|-75.1843519|09/08/1979|
876700|Grand Sprute|Populated Place|27120|U6|||34|NJ|1|015|Gloucester|39.7615024|-75.337689|09/08/1979|
876705|Grandin|Populated Place|27090|U6|||34|NJ|1|019|Hunterdon|40.6176017|-74.9337795|09/08/1979|
876715|Grasselli|Populated Place|27240|U4|||34|NJ|1|039|Union|40.6151037|-74.2087559|09/08/1979|
876719|Grassy Sound|Populated Place|27270|U6|||34|NJ|1|009|Cape May|39.0134464|-74.8160005|09/08/1979|
876722|Gravel Hill|Populated Place|27300|U6|||34|NJ|1|023|Middlesex|40.2998315|-74.419317|09/08/1979|
876727|Gravelly Run|Populated Place|27315|U6|||34|NJ|1|001|Atlantic|39.4259495|-74.7012725|09/08/1979|
876751|Great Meadows|Populated Place|27360|U5|1192|341192041|34|NJ|1|041|Warren|40.8709319|-74.9121142|09/08/1979|07/21/2011
876752|Great Notch|Populated Place|27390|U6|||34|NJ|1|031|Passaic|40.8745436|-74.2076456|09/08/1979|
876761|Greater Cross Roads|Populated Place|27345|U6|||34|NJ|1|035|Somerset|40.6689904|-74.6798828|09/08/1979|
876763|Green Bank|Populated Place|27480|U6|1202|341202005|34|NJ|1|005|Burlington|39.6128956|-74.587933|09/08/1979|12/24/2014
876776|Green Creek|Populated Place|27570|U6|1197|341197009|34|NJ|1|009|Cape May|39.0462242|-74.9012826|09/08/1979|
876778|Green Grove|Populated Place|27750|U6|||34|NJ|1|025|Monmouth|40.234279|-74.0773618|09/08/1979|
876786|Green Pond|Populated Place|27900|U6|||34|NJ|1|027|Morris|41.0173199|-74.477656|09/08/1979|
876788|Green Pond Junction|Populated Place|27930|U4|||34|NJ|1|027|Morris|41.0273196|-74.4165425|09/08/1979|
876795|Green Village|Populated Place|28020|U6|1198|341198027|34|NJ|1|027|Morris|40.7392674|-74.453487|09/08/1979|
876796|Green-Fields|Populated Place|27700|U6|||34|NJ|1|015|Gloucester|39.817058|-75.1662894|09/08/1979|
876797|Greendell|Populated Place|27630|U6|1201|341201037|34|NJ|1|037|Sussex|40.9739867|-74.8210006|09/08/1979|12/06/2013
876798|Greenfield|Populated Place|27660|U6|||34|NJ|1|009|Cape May|39.228448|-74.705717|09/08/1979|
876799|Greenfield Heights|Populated Place|27690|U6|||34|NJ|1|015|Gloucester|39.8098358|-75.168234|09/08/1979|
876800|Greenland|Populated Place|27870|U4|||34|NJ|1|007|Camden|39.8590026|-75.0296142|09/08/1979|
876801|Greenville|Populated Place|28110|U6|||34|NJ|1|033|Salem|39.5667815|-75.1921282|09/08/1979|
876802|Greenville|Populated Place|28080|U6|||34|NJ|1|029|Ocean|40.1017818|-74.1718084|09/08/1979|
876803|Greenville|Populated Place|28050|U6|||34|NJ|1|017|Hudson|40.7003802|-74.0943087|09/08/1979|
876807|Greenwich|Populated Place|28140||1193|341193011|34|NJ|1|011|Cumberland|39.3898359|-75.3385267|09/08/1979|12/06/2013
876822|Grenloch|Populated Place|28380|U6|1196|341196007|34|NJ|1|007|Camden|39.7856699|-75.0557261|09/08/1979|
876824|Grenloch Terrace|Populated Place|28410|U6|||34|NJ|1|015|Gloucester|39.7803921|-75.0626711|09/08/1979|
876827|Griggstown|Populated Place|28470|U5|||34|NJ|1|035|Somerset|40.4378831|-74.6132128|09/08/1979|01/29/2011
876839|Grovers Mill|Populated Place|28560|U6|||34|NJ|1|021|Mercer|40.3167746|-74.6093232|09/08/1979|
876840|Groveville|Populated Place|28620|U5|1195|341195021|34|NJ|1|021|Mercer|40.1698324|-74.6715472|09/08/1979|01/29/2011
876854|Guttenberg|Populated Place|28650|P1|1200|341200017|34|NJ|1|017|Hudson|40.7920454|-74.0037505|09/08/1979|07/21/2011
876855|Hackensack|Populated Place|28680|P1|1210|341210003|34|NJ|1|003|Bergen|40.8859326|-74.0434736|09/08/1979|12/06/2013
876862|Hackettstown|Populated Place|28710|P1|1220|341220041|34|NJ|1|041|Warren|40.8539879|-74.8290555|09/08/1979|12/24/2014
876863|Hacklebarney|Populated Place|28720|U6|||34|NJ|1|027|Morris|40.7670445|-74.7204401|09/08/1979|
876866|Haddon|Populated Place|28730|U6|||34|NJ|1|007|Camden|39.8976132|-75.0960074|09/08/1979|
876867|Haddon Heights|Populated Place|28800|P1|1235|341235007|34|NJ|1|007|Camden|39.8773356|-75.0646165|09/08/1979|12/06/2013
876869|Haddonfield|Populated Place|28770||1230|341230007|34|NJ|1|007|Camden|39.8915022|-75.0376707|09/08/1979|08/06/2014
876871|Hagerville|Populated Place|28910|U6|||34|NJ|1|033|Salem|39.533446|-75.4663095|09/08/1979|06/13/2014
876873|Haines Corner|Populated Place|28950|U6|||34|NJ|1|021|Mercer|40.2059431|-74.6507132|09/08/1979|
876877|Hainesburg|Populated Place|28920|U5|||34|NJ|1|041|Warren|40.9550967|-75.0612867|09/08/1979|01/29/2011
876879|Hainesport|Populated Place|28980|U6|1290|341290005|34|NJ|1|005|Burlington|39.9837234|-74.8271081|09/08/1979|12/24/2014
876880|Hainesville|Populated Place|29040|U6|1291|341291037|34|NJ|1|037|Sussex|41.2520393|-74.8029445|09/08/1979|
876883|Halberton|Populated Place|29055|U6|||34|NJ|1|011|Cumberland|39.2956704|-74.90906|09/08/1979|
876884|Haledon|Populated Place|29070|P1|1250|341250031|34|NJ|1|031|Passaic|40.935654|-74.186256|09/08/1979|03/17/2008
876887|Haleyville|Populated Place|29130|U6|||34|NJ|1|011|Cumberland|39.289559|-75.0168432|09/08/1979|
876888|Half Acre|Populated Place|29145|U6|||34|NJ|1|023|Middlesex|40.3206642|-74.4523737|09/08/1979|
876896|Halltown|Populated Place|29175|U6|||34|NJ|1|033|Salem|39.6381691|-75.4126943|09/08/1979|
876897|Halsey|Populated Place|29190|U6|||34|NJ|1|037|Sussex|41.0970412|-74.7484983|09/08/1979|
876900|Hamburg|Populated Place|29220|P1|1260|341260037|34|NJ|1|037|Sussex|41.1534294|-74.5762713|09/08/1979|03/17/2008
876902|Hamden|Populated Place|29250|U6|1261|341261019|34|NJ|1|019|Hunterdon|40.6034353|-74.9004449|09/08/1979|
876903|Hamilton|Populated Place|29355|U6|||34|NJ|1|035|Somerset|40.506215|-74.6201578|09/08/1979|
876904|Hamilton|Populated Place|29340|U6|||34|NJ|1|025|Monmouth|40.2070573|-74.0812506|09/08/1979|
876911|Hamilton Square|Populated Place|29370|U5|1293|341293021|34|NJ|1|021|Mercer|40.2273316|-74.6532133|09/08/1979|12/24/2014
876915|Hammonton|Populated Place|29430|P1|1270|341270001|34|NJ|1|001|Atlantic|39.6365056|-74.8023853|09/08/1979|12/06/2013
876919|Hampton|Populated Place|29460|P1|1280|341280019|34|NJ|1|019|Hunterdon|40.7070446|-74.9560032|09/08/1979|03/17/2008
876920|Hampton Furnace|Populated Place|29495|U6|||34|NJ|1|005|Burlington|39.769562|-74.6804349|09/08/1979|
876921|Hampton Gate|Populated Place|29500|U6|||34|NJ|1|005|Burlington|39.8042836|-74.6784907|09/08/1979|
876922|Hampton Junction|Populated Place|29510|U6|||34|NJ|1|019|Hunterdon|40.7112112|-74.9526698|09/08/1979|
876925|Hancocks Bridge|Populated Place|29520|U5|1296|341296033|34|NJ|1|033|Salem|39.5053904|-75.4618652|09/08/1979|01/29/2011
876935|Hanover Furnace|Populated Place|29595|U6|||34|NJ|1|005|Burlington|39.9815042|-74.5262647|09/08/1979|
876937|Hanover Neck|Populated Place|29610|U6|||34|NJ|1|027|Morris|40.8317664|-74.3529283|09/08/1979|
876941|Harbourton|Populated Place|29670|U6|||34|NJ|1|021|Mercer|40.3523286|-74.8521088|09/08/1979|
876942|Harding Lakes|Populated Place|29730|U6|||34|NJ|1|001|Atlantic|39.4526162|-74.7521081|09/08/1979|
876944|Hardingville|Populated Place|29760|U6|||34|NJ|1|015|Gloucester|39.6601144|-75.1740696|09/08/1979|12/06/2013
876945|Hardistonville|Populated Place|29790|U4|||34|NJ|1|037|Sussex|41.1389852|-74.5693265|09/08/1979|11/19/2014
876946|Hardwick|Populated Place|29805|U6|||34|NJ|1|041|Warren|41.054541|-74.9321157|09/08/1979|
876946|Hardwick|Populated Place|29805|U6|||34|NJ|2|037|Sussex|41.054541|-74.9321157|09/08/1979|
876947|Hardwick Center|Populated Place|29830|U6|||34|NJ|1|041|Warren|41.0084305|-74.9485054|09/08/1979|
876951|Harlingen|Populated Place|29940|U5|||34|NJ|1|035|Somerset|40.447605|-74.6623811|09/08/1979|01/29/2011
876953|Harmersville|Populated Place|29970|U6|||34|NJ|1|033|Salem|39.4990018|-75.4343639|09/08/1979|
876954|Harmony|Populated Place|30045|U6|||34|NJ|1|033|Salem|39.5167801|-75.3913061|09/08/1979|
876955|Harmony|Populated Place|30030|U6|||34|NJ|1|029|Ocean|40.1520578|-74.300702|09/08/1979|
876956|Harmony|Populated Place|30060|U5|1298|341298041|34|NJ|1|041|Warren|40.746765|-75.1373974|09/08/1979|01/29/2011
876961|Harmonyvale|Populated Place|30135|U6|||34|NJ|1|037|Sussex|41.1467629|-74.6365507|09/08/1979|
876962|Harrington Park|Populated Place|30150|P1|1300|341300003|34|NJ|1|003|Bergen|40.9837089|-73.9798601|09/08/1979|03/17/2008
876966|Harrison|Populated Place|30210|P1|1310|341310017|34|NJ|1|017|Hudson|40.7464901|-74.1562551|09/08/1979|03/17/2008
876971|Harrisonville|Populated Place|30270|U6|1311|341311015|34|NJ|1|015|Gloucester|39.6851138|-75.2660197|09/08/1979|12/24/2014
876972|Harrisville|Populated Place|30330|U6|||34|NJ|1|005|Burlington|39.6615074|-74.5218189|09/08/1979|12/06/2013
876979|Hartford|Populated Place|30360|U6|||34|NJ|1|005|Burlington|39.9762235|-74.8940549|09/08/1979|
876984|Harvey Cedars|Populated Place|30390|P1|1320|341320029|34|NJ|1|029|Ocean|39.706231|-74.1340253|09/08/1979|12/24/2014
876986|Hasbrouck Heights|Populated Place|30420|P1|||34|NJ|1|003|Bergen|40.8581553|-74.0806971|09/08/1979|03/17/2008
876987|Haskell|Populated Place|30450|U4|||34|NJ|1|031|Passaic|41.0284304|-74.2959823|09/08/1979|
876996|Haven Beach|Populated Place|30480|U6|||34|NJ|1|029|Ocean|39.5934519|-74.2156952|09/08/1979|
876997|Haven Homes|Populated Place|30510|U6|||34|NJ|1|023|Middlesex|40.5095489|-74.4062618|09/08/1979|
877004|Haworth|Populated Place|30540|P1|1340|341340003|34|NJ|1|003|Bergen|40.9609315|-73.9901383|09/08/1979|03/17/2008
877005|Hawthorne|Populated Place|30570|P1|1350|341350031|34|NJ|1|031|Passaic|40.9492649|-74.1537549|09/08/1979|03/17/2008
877020|Hazelton|Populated Place|30615|U6|||34|NJ|1|023|Middlesex|40.5884372|-74.2907026|09/08/1979|
877022|Hazen|Populated Place|30630|U6|||34|NJ|1|041|Warren|40.814265|-75.0429512|09/08/1979|
877024|Hazlet|Populated Place|30660|U6|1352|341352025|34|NJ|1|025|Monmouth|40.4156635|-74.1909769|09/08/1979|
877031|Hedding|Populated Place|30780|U6|||34|NJ|1|005|Burlington|40.1078882|-74.7437719|09/08/1979|12/24/2014
877035|Heislerville|Populated Place|30810|U6|1355|341355011|34|NJ|1|011|Cumberland|39.2231698|-74.9923978|09/08/1979|
877037|Helmetta|Populated Place|30840|P1|1360|341360023|34|NJ|1|023|Middlesex|40.3767741|-74.4245953|09/08/1979|12/06/2013
877039|Hemlock Glen|Populated Place|30875|U6|||34|NJ|1|041|Warren|40.9806524|-75.0404529|09/08/1979|
877047|Hendrickson Corners|Populated Place|30885|U6|||34|NJ|1|025|Monmouth|40.4109415|-74.136531|09/08/1979|
877050|Hensfoot|Populated Place|30900|U6|||34|NJ|1|019|Hunterdon|40.6295458|-74.9690584|09/08/1979|
877052|Herberts|Populated Place|30920|U6|||34|NJ|1|023|Middlesex|40.4359394|-74.4229287|09/08/1979|
877054|Herbertsville|Populated Place|30960|U6|||34|NJ|1|029|Ocean|40.1120594|-74.1090283|09/08/1979|
877057|Heritage Village|Populated Place|30990|U6|||34|NJ|1|005|Burlington|39.890947|-74.9048876|09/08/1979|
877058|Herman|Populated Place|31020|U6|||34|NJ|1|005|Burlington|39.6176178|-74.5943221|09/08/1979|12/06/2013
877064|Herwood|Populated Place|31050|U6|||34|NJ|1|007|Camden|39.9378907|-75.0051696|09/08/1979|
877067|Hesstown|Populated Place|31080|U6|||34|NJ|1|011|Cumberland|39.3637263|-74.9304496|09/08/1979|
877071|Hewitt|Populated Place|31110|U6|1365|341365031|34|NJ|1|031|Passaic|41.1417622|-74.310706|09/08/1979|
877074|Hi-Nella|Populated Place|32220|P1|||34|NJ|1|007|Camden|39.8356695|-75.0243357|09/08/1979|03/17/2008
877076|Hibernia|Populated Place|31170|U6|1367|341367027|34|NJ|1|027|Morris|40.9439874|-74.4926561|09/08/1979|
877085|Hickory Tree|Populated Place|31215|U6|||34|NJ|1|027|Morris|40.7464895|-74.4320974|09/08/1979|
877086|Hickstown|Populated Place|31230|U6|||34|NJ|1|007|Camden|39.7792813|-75.0121119|09/08/1979|
877090|Higginsville|Populated Place|31290|U6|||34|NJ|1|035|Somerset|40.5101037|-74.7884964|09/08/1979|
877091|High Bridge|Populated Place|31320|P1|1370|341370019|34|NJ|1|019|Hunterdon|40.6670454|-74.8957231|09/08/1979|03/17/2008
877093|High Crossing|Populated Place|31335|U6|||34|NJ|1|005|Burlington|39.7692846|-74.6440448|09/08/1979|
877099|High Point|Populated Place|31530|U4|||34|NJ|1|029|Ocean|39.7098421|-74.1323586|09/08/1979|
877106|Highland Lakes|Populated Place|31410|U5|1377|341377037|34|NJ|1|037|Sussex|41.1773178|-74.4687681|09/08/1979|03/25/2013
877107|Highland Park|Populated Place|31440|U4|||34|NJ|1|007|Camden|39.8887243|-75.1079525|09/08/1979|
877108|Highland Park|Populated Place|31470|P1|1380|341380023|34|NJ|1|023|Middlesex|40.4959379|-74.4243178|09/08/1979|03/17/2008
877110|Highs Beach|Populated Place|31590|U6|||34|NJ|1|009|Cape May|39.07928|-74.9085051|09/08/1979|
877111|Hightstown|Populated Place|31620|P1|1400|341400021|34|NJ|1|021|Mercer|40.2695538|-74.5232089|09/08/1979|03/17/2008
877119|Hillsborough|Populated Place|31880|U6|1417|341417035|34|NJ|1|035|Somerset|40.4776044|-74.6268245|09/08/1979|
877121|Hillsdale|Populated Place|31935|U6|||34|NJ|1|025|Monmouth|40.3392761|-74.2251446|09/08/1979|
877122|Hillsdale|Populated Place|31920|P1|1410|341410003|34|NJ|1|003|Bergen|41.0025975|-74.0404175|09/08/1979|03/17/2008
877123|Hillsdale Manor|Populated Place|31950|U4|||34|NJ|1|003|Bergen|41.011764|-74.0420843|09/08/1979|
877125|Hillside|Populated Place|32010|U5|1412|341412039|34|NJ|1|039|Union|40.701213|-74.2301459|09/08/1979|03/17/2008
877139|Hilltop|Populated Place|32040|U6|1414|341414007|34|NJ|1|007|Camden|39.8245583|-75.067394|09/08/1979|
877140|Hilltown|Populated Place|32100|U6|||34|NJ|1|027|Morris|40.9212098|-74.5507134|09/08/1979|
877147|Hoboken|Populated Place|32250|P1|1430|341430017|34|NJ|1|017|Hudson|40.7439906|-74.0323626|09/08/1979|04/30/2014
877150|Hockamik|Populated Place|32260|U6|||34|NJ|1|005|Burlington|40.0365029|-74.5465431|09/08/1979|
877151|Hoffman|Populated Place|32270|U6|||34|NJ|1|023|Middlesex|40.3178867|-74.4118169|09/08/1979|
877155|Hoffmans|Populated Place|32280|U6|||34|NJ|1|019|Hunterdon|40.7059338|-74.8601667|09/08/1979|
877156|Hoffmans Mill|Populated Place|32295|U6|||34|NJ|1|011|Cumberland|39.2590035|-74.9096158|09/08/1979|
877161|Ho-Ho-Kus|Populated Place|32310|P1|||34|NJ|1|003|Bergen|40.9964864|-74.101253|09/08/1979|03/17/2008
877163|Holcomb Mills|Populated Place|32355|U6|||34|NJ|1|019|Hunterdon|40.5259367|-74.8298866|09/08/1979|
877165|Holgate|Populated Place|32370|U6|||34|NJ|1|029|Ocean|39.5401179|-74.256808|09/08/1979|
877168|Holland|Populated Place|32470|U6|||34|NJ|1|025|Monmouth|40.3909419|-74.1451423|09/08/1979|
877169|Holland|Populated Place|32430|U6|||34|NJ|1|019|Hunterdon|40.5720456|-75.165452|09/08/1979|
877176|Holly Park|Populated Place|32550|U6|||34|NJ|1|029|Ocean|39.8953965|-74.1429163|09/08/1979|
877181|Holmansville|Populated Place|32580|U6|||34|NJ|1|029|Ocean|40.1009478|-74.3179246|09/08/1979|
877182|Holmdel|Populated Place|32610|U6|1445|341445025|34|NJ|1|025|Monmouth|40.3451095|-74.1840322|09/08/1979|
877187|Holmeson|Populated Place|32700|U6|||34|NJ|1|025|Monmouth|40.1656679|-74.4168167|09/08/1979|
877219|Homes Mills|Populated Place|32715|U6|||34|NJ|1|025|Monmouth|40.1345565|-74.5423763|09/08/1979|
877220|Homestead Park|Populated Place|32760|U6|||34|NJ|1|027|Morris|40.6901015|-74.4501533|09/08/1979|
877230|Hoot Owl Estates|Populated Place|32850|U6|||34|NJ|1|005|Burlington|39.8828919|-74.8471078|09/08/1979|
877234|Hopatcong|Populated Place|32910|P1|1450|341450037|34|NJ|1|037|Sussex|40.9328763|-74.6593281|09/08/1979|10/24/2014
877235|Hopatcong Heights|Populated Place|32940|U4|||34|NJ|1|037|Sussex|40.9206542|-74.6782175|09/08/1979|
877236|Hopatcong Hills|Populated Place|32970|U4|||34|NJ|1|037|Sussex|40.9439872|-74.6707174|09/08/1979|
877239|Hope|Populated Place|33030|U5|1455|341455041|34|NJ|1|041|Warren|40.9112092|-74.9673943|09/08/1979|01/29/2011
877243|Hopelawn|Populated Place|33090|U6|1457|341457023|34|NJ|1|023|Middlesex|40.5270494|-74.2929245|09/08/1979|
877244|Hopewell|Populated Place|33150|P1|1460|341460021|34|NJ|1|021|Mercer|40.3892726|-74.7618285|09/08/1979|03/17/2008
877255|Hornerstown|Populated Place|33195|U6|||34|NJ|1|025|Monmouth|40.106224|-74.514042|09/08/1979|06/06/2014
877267|Howardsville|Populated Place|33210|U6|||34|NJ|1|029|Ocean|39.8128965|-74.3648686|09/08/1979|
877282|Hughesville|Populated Place|33420|U6|||34|NJ|1|019|Hunterdon|40.6220447|-75.15573|09/08/1979|
877286|Hunters Mill|Populated Place|33435|U6|||34|NJ|1|001|Atlantic|39.3237262|-74.8604465|09/08/1979|
877286|Hunters Mill|Populated Place|33435|U6|||34|NJ|2|009|Cape May|39.3237262|-74.8604465|09/08/1979|
877288|Huntsburg|Populated Place|33480|U6|||34|NJ|1|037|Sussex|40.9973198|-74.8376681|09/08/1979|
877289|Huntsville|Populated Place|33510|U6|||34|NJ|1|037|Sussex|40.9803756|-74.7754434|09/08/1979|11/19/2014
877291|Hurdtown|Populated Place|33600|U6|||34|NJ|1|027|Morris|40.9700982|-74.5990486|09/08/1979|12/24/2014
877292|Hurffville|Populated Place|33630|U6|1467|341467015|34|NJ|1|015|Gloucester|39.7626142|-75.1082297|09/08/1979|
877295|Husted|Populated Place|33660|U6|||34|NJ|1|011|Cumberland|39.5253928|-75.1890731|09/08/1979|
877297|Hutchinson|Populated Place|33690|U5|||34|NJ|1|041|Warren|40.7737091|-75.1312865|09/08/1979|01/29/2011
877298|Hutchinson Mills|Populated Place|33720|U6|||34|NJ|1|021|Mercer|40.2456644|-74.7084929|09/08/1979|
877300|Huylers Landing|Locale|33742|U6|||34|NJ|1|003|Bergen|40.9264877|-73.9248588|09/08/1979|08/24/2007
877302|Hyson|Populated Place|33750|U6|||34|NJ|1|029|Ocean|40.1409472|-74.2665342|09/08/1979|
877303|Idell|Populated Place|33810|U6|||34|NJ|1|019|Hunterdon|40.4584374|-75.0279476|09/08/1979|
877307|Imlaystown|Populated Place|33870|U6|1469|341469025|34|NJ|1|025|Monmouth|40.1676117|-74.5151531|09/08/1979|06/06/2014
877319|Independence Corner|Populated Place|33960|U6|||34|NJ|1|037|Sussex|41.2100954|-74.551271|09/08/1979|
877333|Indian Mills|Populated Place|34080||||34|NJ|1|005|Burlington|39.7940055|-74.7443261|09/08/1979|12/06/2013
877346|Interlaken|Populated Place|34200|P1|1470|341470025|34|NJ|1|025|Monmouth|40.2334459|-74.015693|09/08/1979|03/17/2008
877349|Iona|Populated Place|34290|U6|||34|NJ|1|015|Gloucester|39.601504|-75.0671196|09/08/1979|
877358|Iron Rock|Populated Place|34380|U6|||34|NJ|1|007|Camden|39.959557|-75.0248931|09/08/1979|
877360|Ironia|Populated Place|34350|U6|1477|341477027|34|NJ|1|027|Morris|40.8228774|-74.6257152|09/08/1979|
877363|Township of Irvington|Civil|34450|T1|1480|341480013|34|NJ|1|013|Essex|40.7242652|-74.2317531|09/08/1979|05/03/2017
877368|Iselin|Populated Place|34470|U5|1485|341485023|34|NJ|1|023|Middlesex|40.5753817|-74.3223703|09/08/1979|03/17/2008
877372|Island Heights|Populated Place|34530|P1|1500|341500029|34|NJ|1|029|Ocean|39.9420626|-74.1498616|09/08/1979|03/17/2008
877378|Ivystone Farms|Populated Place|34560|U6|||34|NJ|1|007|Camden|39.7673379|-74.9051638|09/08/1979|
877379|Ivywood|Populated Place|34590|U6|||34|NJ|1|005|Burlington|39.9820568|-74.9893363|09/08/1979|
877392|Jacksonburg|Populated Place|34740|U6|||34|NJ|1|041|Warren|40.9917641|-74.9804509|09/08/1979|
877394|Jacksons Mills|Populated Place|34770|U6|||34|NJ|1|029|Ocean|40.1478911|-74.324036|09/08/1979|
877396|Jacksonville|Populated Place|34800|U6|1507|341507005|34|NJ|1|005|Burlington|40.050389|-74.7634948|09/08/1979|12/24/2014
877397|Jacksonville|Populated Place|34830|U4|||34|NJ|1|027|Morris|40.9525982|-74.3298722|09/08/1979|
877402|Jacobstown|Populated Place|34860|U6|||34|NJ|1|005|Burlington|40.0759461|-74.583211|09/08/1979|
877409|Jamesburg|Populated Place|34890|P1|1510|341510023|34|NJ|1|023|Middlesex|40.3526079|-74.4401513|09/08/1979|03/17/2008
877410|Jamesburg Park|Populated Place|34910|U6|||34|NJ|1|023|Middlesex|40.3798295|-74.4387624|09/08/1979|
877411|Janvier|Populated Place|34920||||34|NJ|1|015|Gloucester|39.6270597|-75.0173934|09/08/1979|12/06/2013
877418|Jefferson|Populated Place|34950|U6|||34|NJ|1|015|Gloucester|39.7537248|-75.2118485|09/08/1979|12/24/2014
877437|Jenkins|Populated Place|35040|U6|||34|NJ|1|005|Burlington|39.6981743|-74.5265411|09/08/1979|
877447|Jericho|Populated Place|35055|U6|||34|NJ|1|011|Cumberland|39.4701138|-75.3515822|09/08/1979|
877450|Jersey City|Populated Place|36000|P1|1520|341520017|34|NJ|1|017|Hudson|40.7281575|-74.0776417|09/08/1979|04/30/2014
877453|Jerseyville|Populated Place|36090|U6|||34|NJ|1|025|Monmouth|40.2392783|-74.2293114|09/08/1979|
877456|Jessups Mill|Populated Place|36105|U6|||34|NJ|1|033|Salem|39.6617808|-75.2304623|09/08/1979|
877462|Jobstown|Populated Place|36120|U6|1525|341525005|34|NJ|1|005|Burlington|40.0370565|-74.6929368|09/08/1979|12/24/2014
877474|Johnson Place|Populated Place|36160|U6|||34|NJ|1|005|Burlington|39.8628941|-74.6179335|09/08/1979|
877478|Johnsonburg|Populated Place|36150|U5|1533|341533041|34|NJ|1|041|Warren|40.9645422|-74.8785026|09/08/1979|12/24/2014
877487|Jones Mill|Populated Place|36220|U6|||34|NJ|1|011|Cumberland|39.321226|-74.9410059|09/08/1979|
877490|Jordantown|Populated Place|36240|U6|||34|NJ|1|007|Camden|39.9642793|-75.0373938|09/08/1979|
877499|Juliustown|Populated Place|36300|U5|1535|341535005|34|NJ|1|005|Burlington|40.0134461|-74.6687694|09/08/1979|06/11/2014
877500|Jumbo|Populated Place|36315|U6|||34|NJ|1|033|Salem|39.773169|-75.3988034|09/08/1979|
877508|Jutland|Populated Place|36330|U6|||34|NJ|1|019|Hunterdon|40.6228793|-74.964336|09/08/1979|
877510|Kalarama|Populated Place|36370|U6|||34|NJ|1|041|Warren|40.9659309|-74.9921178|09/08/1979|
877512|Kampe|Populated Place|36380|U6|||34|NJ|1|037|Sussex|41.1670401|-74.4562675|09/08/1979|
877517|Karrsville|Populated Place|36420|U6|||34|NJ|1|041|Warren|40.8092657|-74.9321144|09/08/1979|
877521|Kay Gardens|Populated Place|36450|U6|||34|NJ|1|033|Salem|39.7440026|-75.4196375|09/08/1979|
877524|Kearny|Populated Place|36510|P1|1540|341540017|34|NJ|1|017|Hudson|40.7684342|-74.1454214|09/08/1979|03/17/2008
877527|Keasbey|Populated Place|36570|U6|1545|341545023|34|NJ|1|023|Middlesex|40.5167718|-74.3051471|09/08/1979|
877536|Kendall Park|Populated Place|36660|U5|1547|341547023|34|NJ|1|023|Middlesex|40.4209391|-74.560711|09/08/1979|03/17/2008
877538|Kenilworth|Populated Place|36690|P1|1550|341550039|34|NJ|1|039|Union|40.6764911|-74.2907032|09/08/1979|03/17/2008
877540|Kennedy Mills|Populated Place|36700|U6|||34|NJ|1|041|Warren|40.6609333|-75.1132293|09/08/1979|11/19/2014
877542|Kennedys|Populated Place|36710|U6|||34|NJ|1|041|Warren|40.6481557|-75.1273963|09/08/1979|
877545|Kenvil|Populated Place|36720|U5|1555|341555027|34|NJ|1|027|Morris|40.8798213|-74.6184932|09/08/1979|01/29/2011
877546|Kernan Corner|Populated Place|36765|U6|||34|NJ|1|011|Cumberland|39.4534472|-75.3329704|09/08/1979|
877550|Keswick Grove|Populated Place|36780|U6|||34|NJ|1|029|Ocean|39.9506728|-74.3440357|09/08/1979|
877556|Keyport|Populated Place|36810|P1|1560|341560025|34|NJ|1|025|Monmouth|40.4331631|-74.1995883|09/08/1979|01/08/2015
877564|Kimbles Beach|Populated Place|36820|U6|||34|NJ|1|009|Cape May|39.1045579|-74.8937821|09/08/1979|
877566|Kimseytown|Populated Place|36830|U6|||34|NJ|1|009|Cape May|39.0012237|-74.9346178|09/08/1979|
877575|Kings Woods|Populated Place|37020|U6|||34|NJ|1|003|Bergen|40.9517651|-73.9254142|09/08/1979|
877576|Kingsland|Populated Place|36900|U6|||34|NJ|1|003|Bergen|40.8064893|-74.1109759|09/08/1979|
877579|Kingston|Populated Place|36930|U5|1565|341565035|34|NJ|1|035|Somerset|40.3753844|-74.6134903|09/08/1979|01/29/2011
877580|Kingston Estates|Populated Place|36960|U5|||34|NJ|1|007|Camden|39.9237241|-74.9879463|09/08/1979|01/29/2011
877583|Kingtown|Populated Place|37050|U6|||34|NJ|1|019|Hunterdon|40.5937132|-74.9462797|09/08/1979|
877584|Kingwood|Populated Place|37060|U6|||34|NJ|1|019|Hunterdon|40.4698261|-75.0190585|09/08/1979|
877587|Kinkora|Populated Place|37080|U6|||34|NJ|1|005|Burlington|40.1176102|-74.7551612|09/08/1979|01/08/2015
877588|Kinnelon|Populated Place|37110|P1|1570|341570027|34|NJ|1|027|Morris|41.0017644|-74.367096|09/08/1979|01/08/2015
877591|Kirbys Mill|Populated Place|37140|U6|||34|NJ|1|005|Burlington|39.9167803|-74.8043289|09/08/1979|
877592|Kirbys Mills|Populated Place|37145|U6|||34|NJ|1|025|Monmouth|40.1287233|-74.5390428|09/08/1979|
877593|Kirkwood|Populated Place|37170|U6|1571|341571007|34|NJ|1|007|Camden|39.8312252|-74.9912783|09/08/1979|
877596|Kitchell|Populated Place|37185|U6|||34|NJ|1|027|Morris|41.0070422|-74.4645998|09/08/1979|
877603|Klinesville|Populated Place|37230|U6|||34|NJ|1|019|Hunterdon|40.541492|-74.8809994|09/08/1979|
877607|Knowlton|Populated Place|37290|U6|1572|341572041|34|NJ|1|041|Warren|40.9303752|-75.027952|09/08/1979|12/06/2013
877613|Kresson|Populated Place|37350|U6|||34|NJ|1|007|Camden|39.8576142|-74.9212766|09/08/1979|12/06/2013
877622|Lafayette|Populated Place|37410|U6|1576|341576037|34|NJ|1|037|Sussex|41.0984301|-74.6884965|09/08/1979|
877624|Lafayette Mills|Populated Place|37455|U6|||34|NJ|1|025|Monmouth|40.3076097|-74.3040358|09/08/1979|
877632|Lake Como|Populated Place|37560|P1|||34|NJ|1|025|Monmouth|40.1598364|-74.0281925|09/08/1979|01/29/2011
877634|Lake Hiawatha|Populated Place|37680|U6|1578|341578027|34|NJ|1|027|Morris|40.8825991|-74.3815405|09/08/1979|
877635|Lake Junction|Populated Place|37890|U6|||34|NJ|1|027|Morris|40.9053766|-74.6007149|09/08/1979|
877638|Lake Pine|Populated Place|38160|U6|||34|NJ|1|005|Burlington|39.8659477|-74.8493299|09/08/1979|
877641|Lake View|Populated Place|38490|U4|||34|NJ|1|031|Passaic|40.8920435|-74.1465324|09/08/1979|
877642|Lakehurst|Populated Place|37770|P1|1580|341580029|34|NJ|1|029|Ocean|40.014561|-74.3112574|09/08/1979|03/17/2008
877643|Lakeland|Populated Place|37950|U6|||34|NJ|1|007|Camden|39.785392|-75.0754497|09/08/1979|
877648|Lakeside|Populated Place|38280|U6|||34|NJ|1|031|Passaic|41.1817617|-74.3359851|09/08/1979|
877649|Lakeside Park|Populated Place|38310|U6|||34|NJ|1|021|Mercer|40.1928875|-74.6871033|09/08/1979|
877652|Lakewood|Populated Place|38580|U5|1590|341590029|34|NJ|1|029|Ocean|40.0978929|-74.2176435|09/08/1979|01/08/2015
877654|Lambertville|Populated Place|38610|P1|1610|341610019|34|NJ|1|019|Hunterdon|40.3659394|-74.9429448|09/08/1979|01/08/2015
877656|Lambs Terrace|Populated Place|38640|U6|||34|NJ|1|007|Camden|39.7706701|-75.0426695|09/08/1979|
877657|Lamington|Populated Place|38670|U6|||34|NJ|1|035|Somerset|40.6609349|-74.7173839|09/08/1979|
877659|Land of Pines|Populated Place|38760|U6|||34|NJ|1|025|Monmouth|40.1581692|-74.2287554|09/08/1979|
877660|Landing|Populated Place|38700|U6|1579|341579027|34|NJ|1|027|Morris|40.9050988|-74.6651615|09/08/1979|
877664|Landisville|Populated Place|38730|U4|||34|NJ|1|001|Atlantic|39.5248381|-74.9382264|09/08/1979|
877666|Lanes Mills|Populated Place|38820|U6|||34|NJ|1|029|Ocean|40.0912265|-74.1526409|09/08/1979|
877670|Lanoka Harbor|Populated Place|38850|U6|1617|341617029|34|NJ|1|029|Ocean|39.8667856|-74.167917|09/08/1979|01/08/2015
877671|Lansdowne|Populated Place|38890|U6|||34|NJ|1|019|Hunterdon|40.6084352|-74.9062785|09/08/1979|
877673|Larisons Corners|Populated Place|38910|U6|||34|NJ|1|019|Hunterdon|40.4414937|-74.856276|09/08/1979|
877677|Laurel Harbor|Populated Place|39030|U6|||34|NJ|1|029|Ocean|39.8603968|-74.1340266|09/08/1979|
877684|Laurel Lake|Populated Place|39120|U5|||34|NJ|1|011|Cumberland|39.3395593|-75.0298992|09/08/1979|03/17/2008
877691|Laurel Springs|Populated Place|39210|P1|1620|341620007|34|NJ|1|007|Camden|39.8201141|-75.0062788|09/08/1979|01/08/2015
877692|Laureldale|Populated Place|39000|U6|||34|NJ|1|001|Atlantic|39.4992835|-74.6851607|09/08/1979|
877693|Laurelton|Populated Place|39240|U6|0415|340415029|34|NJ|1|029|Ocean|40.0687271|-74.1304176|09/08/1979|10/10/2014
877695|Laurence Harbor|Populated Place|39360|U5|1622|341622023|34|NJ|1|023|Middlesex|40.4567735|-74.2465338|09/08/1979|03/17/2008
877696|Lavallette|Populated Place|39390|P1|1630|341630029|34|NJ|1|029|Ocean|39.9703958|-74.0687475|09/08/1979|01/08/2015
877699|Lawnside|Populated Place|39420|P1|1640|341640007|34|NJ|1|007|Camden|39.8665025|-75.0282253|09/08/1979|03/17/2008
877704|Lawrence Brook Manor|Populated Place|39555|U6|||34|NJ|1|023|Middlesex|40.4723275|-74.4157064|09/08/1979|
877709|Lawrenceville|Populated Place|39570|U5|1650|341650021|34|NJ|1|021|Mercer|40.2973299|-74.7296049|09/08/1979|01/08/2015
877713|Layton|Populated Place|39600|U6|1652|341652037|34|NJ|1|037|Sussex|41.2162062|-74.8229451|09/08/1979|11/19/2014
877716|Leamings Mill|Populated Place|39615|U6|||34|NJ|1|011|Cumberland|39.4028931|-74.9793406|09/08/1979|
877717|Lebanon|Populated Place|39630|P1|1660|341660019|34|NJ|1|019|Hunterdon|40.6417683|-74.8359987|09/08/1979|01/08/2015
877719|Lebanon Lake Estates|Populated Place|39680|U6|||34|NJ|1|005|Burlington|39.9070604|-74.5645987|09/08/1979|
877722|Ledgewood|Populated Place|39750|U6|1664|341664027|34|NJ|1|027|Morris|40.8812101|-74.6559944|09/08/1979|
877726|Leeds Point|Populated Place|39810|U6|1663|341663001|34|NJ|1|001|Atlantic|39.4920619|-74.4290379|09/08/1979|09/23/2016
877728|Leektown|Populated Place|39840|U6|||34|NJ|1|005|Burlington|39.6245628|-74.4670947|09/08/1979|
877730|Leesburg|Populated Place|39870|U6|1665|341665011|34|NJ|1|011|Cumberland|39.2567812|-74.9873974|09/08/1979|10/22/2007
877732|Leesville|Populated Place|39875|U6|||34|NJ|1|029|Ocean|40.1337244|-74.3823712|09/08/1979|
877734|Legler|Populated Place|39880|U6|||34|NJ|1|029|Ocean|40.0506712|-74.3348695|09/08/1979|
877738|Lenola|Populated Place|39960|U3|||34|NJ|1|005|Burlington|39.9623348|-74.9823913|09/08/1979|
877740|Leonards|Populated Place|40000|U6|||34|NJ|1|015|Gloucester|39.8423355|-75.2060141|09/08/1979|
877741|Leonia|Populated Place|40020|P1|1680|341680003|34|NJ|1|003|Bergen|40.8614887|-73.9881942|09/08/1979|03/17/2008
877744|Lewisburg|Populated Place|40060|U6|||34|NJ|1|037|Sussex|41.1967624|-74.6121059|09/08/1979|
877745|Lewisville|Populated Place|40080|U6|||34|NJ|1|021|Mercer|40.2889968|-74.7259937|09/08/1979|
877746|Liberty Corner|Populated Place|40140|U6|1685|341685035|34|NJ|1|035|Somerset|40.6648238|-74.5773795|09/08/1979|
877752|Liberty Square|Populated Place|40155|U6|||34|NJ|1|039|Union|40.6501031|-74.1937557|09/08/1979|
877754|Libertyville|Populated Place|40170|U6|||34|NJ|1|037|Sussex|41.2398175|-74.6543294|09/08/1979|
877761|Lincoln|Populated Place|40230|U6|||34|NJ|1|015|Gloucester|39.6695584|-75.2407407|09/08/1979|
877769|Lincoln Park|Populated Place|40260|U4|||34|NJ|1|023|Middlesex|40.5201045|-74.3854277|09/08/1979|01/08/2015
877806|Linden|Populated Place|40350|P1|1700|341700039|34|NJ|1|039|Union|40.6220478|-74.2445902|09/08/1979|03/17/2008
877810|Lindenwold|Populated Place|40440|P1|1710|341710007|34|NJ|1|007|Camden|39.8242808|-74.9976673|09/08/1979|03/17/2008
