FEATURE_ID|FEATURE_NAME|FEATURE_CLASS|CENSUS_CODE|CENSUS_CLASS_CODE|GSA_CODE|OPM_CODE|STATE_NUMERIC|STATE_ALPHA|COUNTY_SEQUENCE|COUNTY_NUMERIC|COUNTY_NAME|PRIMARY_LATITUDE|PRIMARY_LONGITUDE|DATE_CREATED|DATE_EDITED
441010|Peoria|Populated Place|58842|U6|||18|IN|1|047|Franklin|39.4333862|-84.8171764|02/14/1979|11/19/2014
441010|Peoria|Populated Place|58842|U6|||39|OH|2|017|Butler|39.4333862|-84.8171764|02/14/1979|11/19/2014
443125|Scipio|Populated Place|68310|U6|||18|IN|1|047|Franklin|39.3919978|-84.8182869|02/14/1979|
443125|Scipio|Populated Place|68310|U6|||39|OH|2|017|Butler|39.3919978|-84.8182869|02/14/1979|
1037309|Adair|Populated Place|00205|U6|||39|OH|1|029|Columbiana|40.7936701|-80.9559221|07/12/1979|
1037320|Addison|Populated Place|00408|U6|0035|390035053|39|OH|1|053|Gallia|38.886191|-82.1462561|07/12/1979|
1037321|Adena|Populated Place|00464|P1|0060|390060081|39|OH|1|081|Jefferson|40.2186805|-80.8728672|07/12/1979|03/20/2008
1037321|Adena|Populated Place|00464|P1|0060|390060067|39|OH|2|067|Harrison|40.2186805|-80.8728672|07/12/1979|03/20/2008
1037377|Allentown|Populated Place|01392|U6|||39|OH|1|003|Allen|40.7547728|-84.1946727|07/12/1979|
1037396|Amberley|Populated Place|01672|P1|0140|390140061|39|OH|1|061|Hamilton|39.2047809|-84.427997|07/12/1979|03/20/2008
1037451|Antwerp|Populated Place|02204|P1|0230|390230125|39|OH|1|125|Paulding|41.1814388|-84.7405144|07/12/1979|03/20/2008
1037457|Appleton|Populated Place|02260|U6|||39|OH|1|089|Licking|40.2092299|-82.616278|07/12/1979|
1037471|Arion|Populated Place|02386|U6|||39|OH|1|145|Scioto|38.8461849|-83.1037899|07/12/1979|
1037487|Arnold|Populated Place|02512|U6|||39|OH|1|159|Union|40.1420058|-83.2507496|07/12/1979|
1037493|Arthur|Populated Place|02540|U6|||39|OH|1|125|Paulding|41.1947711|-84.3607802|07/12/1979|
1037542|Aultman|Populated Place|03058|U6|0381|390381151|39|OH|1|151|Stark|40.9283904|-81.4173353|07/12/1979|
1037613|Bangs|Populated Place|03772|U6|0455|390455083|39|OH|1|083|Knox|40.3522846|-82.5523874|07/12/1979|
1037625|Barberton|Populated Place|03828|P1|0460|390460153|39|OH|1|153|Summit|41.012833|-81.6051221|07/12/1979|03/20/2008
1037653|Barrick Corners|Populated Place|03978|U6|||39|OH|1|089|Licking|40.1908968|-82.5507187|07/12/1979|
1037672|Batavia|Populated Place|04150|P1|0490|390490025|39|OH|1|025|Clermont|39.0770072|-84.1768795|07/12/1979|03/20/2008
1037678|Batson|Populated Place|04258|U6|||39|OH|1|125|Paulding|41.0183821|-84.7449601|07/12/1979|
1037682|Battlesburg|Populated Place|04262|U6|||39|OH|1|151|Stark|40.6981157|-81.3701138|07/12/1979|
1037762|Beaver Mill|Populated Place|04775|U6|||39|OH|1|071|Highland|39.1772884|-83.4140812|07/12/1979|
1037817|Belfast|Populated Place|05040|U6|||39|OH|1|025|Clermont|39.1767282|-84.1335455|07/12/1979|
1037862|Bentleyville|Populated Place|05550|P1|0690|390690035|39|OH|1|035|Cuyahoga|41.4131094|-81.4109468|07/12/1979|03/20/2008
1037881|Berwick|Populated Place|06012|U6|||39|OH|1|147|Seneca|41.0292219|-83.2979778|07/12/1979|
1038009|Big Island|Populated Place|06334|U6|||39|OH|1|101|Marion|40.6122803|-83.2168608|07/12/1979|
1038057|Birmingham|Populated Place|06502|U6|0794|390794043|39|OH|1|043|Erie|41.3300486|-82.3607193|07/12/1979|
1038086|Blackberry Corner|Populated Place|06568|U6|||39|OH|1|123|Ottawa|41.6036595|-83.2807599|07/12/1979|
1038105|Blanchester|Populated Place|06908|P1|0810|390810027|39|OH|1|027|Clinton|39.2931174|-83.9888205|07/12/1979|03/20/2008
1038117|Blissfield|Populated Place|06936|U6|0812|390812031|39|OH|1|031|Coshocton|40.3997893|-81.9654188|07/12/1979|
1038125|Bloomingdale|Populated Place|07202|P1|0841|390841081|39|OH|1|081|Jefferson|40.3428455|-80.8181404|07/12/1979|03/20/2008
1038294|Briceton|Populated Place|08546|U6|||39|OH|1|125|Paulding|41.0844936|-84.6310662|07/12/1979|
1038304|Bridgeport|Populated Place|08574|U6|||39|OH|1|065|Hardin|40.7458873|-83.6018735|07/12/1979|
1038365|Broughton|Populated Place|09386|P1|1080|391080125|39|OH|1|125|Paulding|41.0897714|-84.5352291|07/12/1979|03/20/2008
1038383|Brownhelm Station|Populated Place|09570|U6|||39|OH|1|093|Lorain|41.4094882|-82.2940479|07/12/1979|
1038503|Buford|Populated Place|10156|U5|1138|391138071|39|OH|1|071|Highland|39.0767322|-83.8440941|07/12/1979|01/29/2011
1038552|Bursville|Populated Place|10432|U6|||39|OH|1|107|Mercer|40.6258802|-84.7274611|07/12/1979|
1038588|Byron|Populated Place|10772|U6|||39|OH|1|057|Greene|39.7861705|-83.9807661|07/12/1979|
1038598|Cadiz|Populated Place|10800|P1|1210|391210067|39|OH|1|067|Harrison|40.2728452|-80.9967628|07/12/1979|08/08/2014
1038607|Cairo|Populated Place|10898|U6|||39|OH|1|151|Stark|40.9045021|-81.3603887|07/12/1979|
1038609|Caldwell|Populated Place|10940|P1|1230|391230121|39|OH|1|121|Noble|39.7478508|-81.5165127|07/12/1979|03/20/2008
1038621|Calla|Populated Place|10982|U6|||39|OH|1|099|Mahoning|40.9725587|-80.7706345|07/12/1979|
1038668|Camp Calvary|Populated Place|11102|U6|||39|OH|1|007|Ashtabula|41.9442209|-80.6250785|07/12/1979|
1038683|Camp Creek|Populated Place|11136|U6|||39|OH|1|151|Stark|40.7345024|-81.5734567|07/12/1979|
1038735|Camp Park|Populated Place|11188|U6|||39|OH|1|099|Mahoning|41.0692248|-80.7920252|07/12/1979|
1038796|Canfield|Populated Place|11360|P1|1310|391310099|39|OH|1|099|Mahoning|41.0250584|-80.7609121|07/12/1979|03/20/2008
1038804|Canton Road|Populated Place|12018|U6|||39|OH|1|151|Stark|40.7472805|-81.5170654|07/12/1979|
1038830|Carpenter|Populated Place|12224|U6|||39|OH|1|105|Meigs|39.1628523|-82.2193146|07/12/1979|
1038883|Cecil|Populated Place|12700|P1|1410|391410125|39|OH|1|125|Paulding|41.218661|-84.602175|07/12/1979|03/20/2008
1038906|Cedar Mills|Populated Place|12742|U6|||39|OH|1|001|Adams|38.8231282|-83.3926886|07/12/1979|
1038919|Celeryville|Populated Place|12854|U5|||39|OH|1|077|Huron|41.0297777|-82.7318459|07/12/1979|01/29/2011
1038946|Centerville|Populated Place|13148|U6|||39|OH|1|015|Brown|39.0808981|-83.9524307|07/12/1979|
1038974|Chagrin Falls Park|Populated Place|13386|U6|||39|OH|1|055|Geauga|41.4139426|-81.3865008|07/12/1979|
1039005|Chase|Populated Place|13642|U6|||39|OH|1|063|Hancock|41.0731085|-83.708823|07/12/1979|
1039008|Chattanooga|Populated Place|13764|U6|||39|OH|1|107|Mercer|40.6369912|-84.7849627|07/12/1979|
1039013|Cherokee|Populated Place|13825|U6|||39|OH|1|091|Logan|40.4378295|-83.7924349|07/12/1979|
1039033|Cheshire|Populated Place|13932|P1|1538|391538053|39|OH|1|053|Gallia|38.9448013|-82.111255|07/12/1979|03/20/2008
1039063|Chickasaw|Populated Place|14156|P1|1570|391570107|39|OH|1|107|Mercer|40.4369914|-84.4932863|07/12/1979|03/20/2008
1039079|Chippewa Lake Park|Populated Place|14268|U6|||39|OH|1|103|Medina|41.0633882|-81.8956946|07/12/1979|
1039100|Chuckery|Populated Place|14310|U6|||39|OH|1|159|Union|40.1117271|-83.3904759|07/12/1979|
1039117|Churchtown|Populated Place|14338|U6|||39|OH|1|167|Washington|39.467296|-81.5479031|07/12/1979|
1039124|Circle Hill|Populated Place|15056|U6|||39|OH|1|109|Miami|40.0728285|-84.4143937|07/12/1979|
1039145|Clarktown|Populated Place|15434|U5|||39|OH|1|145|Scioto|38.8506303|-82.9112837|07/12/1979|01/29/2011
1039153|Clayton|Populated Place|15630|U6|||39|OH|1|001|Adams|38.7436838|-83.6754749|07/12/1979|
1039187|Climax|Populated Place|16098|U6|||39|OH|1|117|Morrow|40.6306146|-82.8879603|07/12/1979|
1039214|Cockrell Run|Populated Place|16455|U6|||39|OH|1|145|Scioto|38.9534056|-82.9790643|07/12/1979|
1039214|Cockrell Run|Populated Place|16455|U6|||39|OH|2|131|Pike|38.9534056|-82.9790643|07/12/1979|
1039235|Cokesbury Corners|Populated Place|16495|U6|||39|OH|1|089|Licking|40.1770079|-82.5529409|07/12/1979|
1039258|Collins|Populated Place|16784|U5|1782|391782077|39|OH|1|077|Huron|41.2586633|-82.4912827|07/12/1979|01/29/2011
1039285|Comet|Populated Place|18042|U6|||39|OH|1|153|Summit|40.9225565|-81.525674|07/12/1979|
1039290|Concord|Populated Place|18130|U6|||39|OH|1|025|Clermont|39.0220092|-84.0802113|07/12/1979|
1039318|Conover|Populated Place|18448|U6|1854|391854109|39|OH|1|109|Miami|40.1353322|-84.0463273|07/12/1979|
1039324|Converse|Populated Place|18532|U6|||39|OH|1|161|Van Wert|40.7431045|-84.4163428|07/12/1979|
1039355|Coopersville|Populated Place|18637|U6|||39|OH|1|131|Pike|38.961183|-83.0426776|07/12/1979|
1039494|Crossroads|Populated Place|19512|U6|||39|OH|1|151|Stark|40.7270026|-81.5737345|07/12/1979|
1039497|Crosstown|Populated Place|19526|U6|||39|OH|1|015|Brown|39.0917311|-84.0060433|07/12/1979|
1039521|Crystal Rock|Populated Place|19615|U5|||39|OH|1|043|Erie|41.4464406|-82.8446329|07/12/1979|01/29/2011
1039574|Danville|Populated Place|20114|P1|2070|392070083|39|OH|1|083|Knox|40.4475643|-82.2601584|07/12/1979|03/20/2008
1039654|Deersville|Populated Place|21294|P1|2120|392120067|39|OH|1|067|Harrison|40.3075666|-81.1864933|07/12/1979|03/20/2008
1039681|Deshler|Populated Place|21812|P1|2200|392200069|39|OH|1|069|Henry|41.2075509|-83.8991072|07/12/1979|03/20/2008
1039695|Dexter|Populated Place|21896|U6|||39|OH|1|105|Meigs|39.0872981|-82.2129258|07/12/1979|
1039711|Dills|Populated Place|22030|U6|||39|OH|1|141|Ross|39.2433989|-83.2168536|07/12/1979|
1039763|Dover|Populated Place|22456|P1|2240|392240157|39|OH|1|157|Tuscarawas|40.5206198|-81.4740054|07/12/1979|02/25/2011
1039869|Dundee|Populated Place|22848|U5|2277|392277157|39|OH|1|157|Tuscarawas|40.5867287|-81.6081794|07/12/1979|01/29/2011
1039880|Dunkirk|Populated Place|22946|P1|2280|392280065|39|OH|1|065|Hardin|40.7892204|-83.6432639|07/12/1979|03/20/2008
1039890|Durgan|Populated Place|23020|U6|||39|OH|1|053|Gallia|39.0081314|-82.3668209|07/12/1979|
1039914|Dyesville|Populated Place|23044|U6|||39|OH|1|105|Meigs|39.1281306|-82.2298707|07/12/1979|
1039927|Eagleville|Populated Place|23184|U6|||39|OH|1|007|Ashtabula|41.7167218|-80.8359207|07/12/1979|
1040007|East Letart|Populated Place|23665|U6|||39|OH|1|105|Meigs|38.9061923|-81.8834687|07/12/1979|
1040011|East Norwalk|Populated Place|23856|U6|||39|OH|1|077|Huron|41.2711634|-82.5698975|07/12/1979|
1040015|East Swanton|Populated Place|24075|U6|||39|OH|1|095|Lucas|41.5828297|-83.8543856|07/12/1979|
1040018|East Trumbull|Populated Place|24108|U6|||39|OH|1|007|Ashtabula|41.6614439|-80.9145353|07/12/1979|
1040038|Eastwood|Populated Place|24178|U6|||39|OH|1|015|Brown|39.0489541|-83.9846538|07/12/1979|
1040043|Eaton|Populated Place|24234|P1|2390|392390135|39|OH|1|135|Preble|39.7439405|-84.6366201|07/12/1979|03/20/2008
1040112|Elgin|Populated Place|24794|P1|2440|392440161|39|OH|1|161|Van Wert|40.7425484|-84.4757878|07/12/1979|03/20/2008
1040156|Ellsworth Station|Locale|25060|U6|||39|OH|1|099|Mahoning|41.0364471|-80.8859191|07/12/1979|
1040167|Elmira|Populated Place|25130|U6|||39|OH|1|051|Fulton|41.5792176|-84.3082825|07/12/1979|
1040175|Elton|Populated Place|25228|U6|||39|OH|1|151|Stark|40.7286689|-81.6162365|07/12/1979|
1040177|Elyria|Populated Place|25256|P1|2480|392480093|39|OH|1|093|Lorain|41.3683798|-82.1076486|07/12/1979|03/20/2008
1040186|Emerald|Populated Place|25284|U6|||39|OH|1|001|Adams|39.0011792|-83.6574217|07/12/1979|
1040213|Enterprise|Populated Place|25466|U6|||39|OH|1|073|Hocking|39.5647882|-82.4796009|07/12/1979|
1040222|Erastus|Populated Place|25550|U6|||39|OH|1|107|Mercer|40.5089353|-84.7077383|07/12/1979|
1040239|Etna|Populated Place|25676|U5|2519|392519089|39|OH|1|089|Licking|39.9572859|-82.6818345|07/12/1979|01/29/2011
1040264|Evendale|Populated Place|25802|P1|2523|392523061|39|OH|1|061|Hamilton|39.2561691|-84.417997|07/12/1979|03/20/2008
1040306|Fairfax|Populated Place|25956|U6|||39|OH|1|071|Highland|39.0478454|-83.5874194|07/12/1979|
1040312|Fairlawn|Populated Place|26166|P1|2538|392538153|39|OH|1|153|Summit|41.127833|-81.609844|07/12/1979|03/20/2008
1040322|Fairview|Populated Place|26348|P1|2550|392550059|39|OH|1|059|Guernsey|40.0570139|-81.2328872|07/12/1979|03/20/2008
1040389|Farmersville|Populated Place|26656|P1|2570|392570113|39|OH|1|113|Montgomery|39.6795|-84.4291132|07/12/1979|03/20/2008
1040400|Fayetteville|Populated Place|26796|P1|2590|392590015|39|OH|1|015|Brown|39.1867298|-83.9321521|07/12/1979|03/20/2008
1040439|Findlay|Populated Place|27048|P1|2610|392610063|39|OH|1|063|Hancock|41.0442201|-83.6499321|07/12/1979|03/20/2008
1040470|Fitch|Populated Place|27200|U6|||39|OH|1|099|Mahoning|41.090614|-80.5447933|07/12/1979|
1040478|Five Forks|Populated Place|27220|U6|||39|OH|1|029|Columbiana|40.6628389|-80.909809|07/12/1979|
1040480|Five Points|Populated Place|27303|U5|||39|OH|1|165|Warren|39.5686706|-84.1929932|07/12/1979|03/20/2008
1040481|Five Points|Populated Place|27255|U6|||39|OH|1|021|Champaign|40.1008925|-83.5438135|07/12/1979|
1040482|Five Points|Populated Place|27272|U6|||39|OH|1|099|Mahoning|40.9586707|-80.642296|07/12/1979|
1040483|Five Points|Populated Place|27307|U6|||39|OH|1|173|Wood|41.5075522|-83.5941002|07/12/1979|
1040525|Flicks Corners|Populated Place|27420|U6|||39|OH|1|133|Portage|41.0989464|-81.0017589|07/12/1979|
1040525|Flicks Corners|Populated Place|27420|U6|||39|OH|2|099|Mahoning|41.0989464|-81.0017589|07/12/1979|
1040526|Flint|Populated Place|27426|U6|||39|OH|1|049|Franklin|40.1272854|-83.0057394|07/12/1979|
1040542|Folsom|Populated Place|27585|U6|||39|OH|1|071|Highland|39.0950666|-83.5926974|07/12/1979|
1040570|Forest Park|Populated Place|27706|P1|2652|392652061|39|OH|1|061|Hamilton|39.2903353|-84.5041108|07/12/1979|03/20/2008
1040588|Fort McKinley|Populated Place|27846|U5|2675|392675113|39|OH|1|113|Montgomery|39.7975578|-84.253554|07/12/1979|03/20/2008
1040590|Fort Recovery|Populated Place|27902|P1|2680|392680107|39|OH|1|107|Mercer|40.4128241|-84.7763511|07/12/1979|03/20/2008
1040592|Fort Shawnee|Populated Place|27944|U6|||39|OH|1|003|Allen|40.6867169|-84.1377259|07/12/1979|03/21/2013
1040609|Fountain Park|Populated Place|28042|U6|||39|OH|1|021|Champaign|40.1650585|-83.5540926|07/12/1979|
1040662|Fredonia|Populated Place|28672|U6|||39|OH|1|089|Licking|40.152008|-82.519883|07/12/1979|
1040667|Freedom Station|Populated Place|28728|U6|||39|OH|1|133|Portage|41.2056119|-81.1475987|07/12/1979|
1040674|Fremont|Populated Place|28826|P1|2760|392760143|39|OH|1|143|Sandusky|41.3503303|-83.1218634|07/12/1979|03/20/2008
1040701|Fritchleys Corners|Populated Place|28906|U6|||39|OH|1|019|Carroll|40.6342284|-81.2137167|07/12/1979|
1040715|Frytown|Populated Place|29008|U6|||39|OH|1|113|Montgomery|39.7170028|-84.2738313|07/12/1979|
1040759|Gardner|Populated Place|29405|U6|||39|OH|1|033|Crawford|40.9820003|-82.7437903|07/12/1979|
1040808|Geeburg|Populated Place|29568|U6|||39|OH|1|099|Mahoning|41.0489471|-80.8384165|07/12/1979|
1040809|Gem Beach|Populated Place|29596|U6|||39|OH|1|123|Ottawa|41.5694946|-82.8224101|07/12/1979|
1040812|Geneva|Populated Place|29610|P1|2870|392870007|39|OH|1|007|Ashtabula|41.8050539|-80.9481489|07/12/1979|03/20/2008
1040815|Genung Corners|Populated Place|29746|U6|||39|OH|1|085|Lake|41.7897741|-81.0487081|07/12/1979|
1040826|Germany|Populated Place|29952|U6|||39|OH|1|131|Pike|39.0028496|-82.9054515|08/17/1992|
1040837|Germano|Populated Place|29918|U6|2909|392909067|39|OH|1|067|Harrison|40.4083989|-80.9470359|07/12/1979|02/25/2011
1040908|Glenford|Populated Place|30436|P1|2980|392980127|39|OH|1|127|Perry|39.8881223|-82.317094|07/12/1979|03/20/2008
1040911|Glenmoor|Populated Place|30520|U5|||39|OH|1|029|Columbiana|40.6661744|-80.6231279|07/12/1979|03/20/2008
1040934|Golden Corners|Populated Place|30744|U6|||39|OH|1|169|Wayne|40.9150562|-81.9818122|07/12/1979|
1040952|Goodland Acres|Populated Place|30856|U6|||39|OH|1|151|Stark|40.6745053|-81.260942|07/12/1979|
1041074|Gratiot|Populated Place|31458|P1|3110|393110089|39|OH|1|089|Licking|39.9511782|-82.215978|07/12/1979|03/20/2008
1041074|Gratiot|Populated Place|31458|P1|3110|393110119|39|OH|2|119|Muskingum|39.9511782|-82.215978|07/12/1979|03/20/2008
1041190|Grodis Corner|Populated Place|32532|U6|||39|OH|1|123|Ottawa|41.6042149|-83.2604817|07/12/1979|
1041206|Guernsey|Populated Place|32648|U6|3223|393223059|39|OH|1|059|Guernsey|40.1817377|-81.5923431|07/12/1979|
1041238|Hakes Corners|Populated Place|32830|U6|||39|OH|1|155|Trumbull|41.1967241|-80.7286898|07/12/1979|
1041273|Hamler|Populated Place|33096|P1|3270|393270069|39|OH|1|069|Henry|41.2292165|-84.0341106|07/12/1979|03/20/2008
1041292|Hanoverton|Populated Place|33306|P1|3310|393310029|39|OH|1|029|Columbiana|40.7511704|-80.937032|07/12/1979|03/20/2008
1041308|Hardin Station|Locale|33390|U6|||39|OH|1|149|Shelby|40.2719933|-84.2421674|07/12/1979|
1041362|Harrison|Populated Place|33838|P1|3350|393350061|39|OH|1|061|Hamilton|39.2619993|-84.8199516|07/12/1979|03/20/2008
1041401|Havens Corners|Populated Place|34482|U6|||39|OH|1|049|Franklin|40.0189527|-82.815453|07/12/1979|
1041402|Haviland|Populated Place|34552|P1|3410|393410125|39|OH|1|125|Paulding|41.0189378|-84.580787|07/12/1979|03/20/2008
1041450|Hebron|Populated Place|34790|P1|3430|393430089|39|OH|1|089|Licking|39.9617305|-82.4912676|07/12/1979|03/20/2008
1041455|Hector|Populated Place|34807|U6|||39|OH|1|137|Putnam|41.1003275|-84.2277235|07/12/1979|
1041457|Hedges|Populated Place|34811|U6|||39|OH|1|125|Paulding|41.0919936|-84.5149504|07/12/1979|
1041488|Henley|Populated Place|34944|U6|||39|OH|1|145|Scioto|38.8447958|-83.1560139|07/12/1979|
1041490|Hennings Mill|Populated Place|34950|U6|||39|OH|1|025|Clermont|39.0142321|-84.0304882|07/12/1979|
1041499|Hermanville|Populated Place|35010|U6|||39|OH|1|169|Wayne|40.9158891|-81.9106967|07/12/1979|
1041531|Hickoryville|Populated Place|35085|U6|||39|OH|1|165|Warren|39.4656166|-83.9954873|07/12/1979|
1041556|Highland Heights|Populated Place|35252|P1|||39|OH|1|035|Cuyahoga|41.5519954|-81.4784522|07/12/1979|03/20/2008
1041567|Highlandtown|Populated Place|35308|U6|||39|OH|1|029|Columbiana|40.6342292|-80.756745|07/12/1979|
1041588|Hillcrest|Populated Place|35434|U6|||39|OH|1|171|Williams|41.5864397|-84.5371723|07/12/1979|
1041631|Hoaglin|Populated Place|35763|U6|||39|OH|1|161|Van Wert|40.9461598|-84.4949516|07/12/1979|
1041636|Hobson|Populated Place|35770|U6|||39|OH|1|105|Meigs|38.9917452|-82.075698|07/12/1979|
1041674|Hollowtown|Populated Place|35938|U6|||39|OH|1|071|Highland|39.1117317|-83.7815922|07/12/1979|
1041862|Hulington|Populated Place|36722|U6|||39|OH|1|025|Clermont|38.9886758|-84.1588236|07/12/1979|
1041884|Hunting Valley|Populated Place|36918|P1|3640|393640035|39|OH|1|035|Cuyahoga|41.4892194|-81.401781|07/12/1979|03/20/2008
1041884|Hunting Valley|Populated Place|36918|P1|3640|393640055|39|OH|2|055|Geauga|41.4892194|-81.401781|07/12/1979|03/20/2008
1041886|Huntington Park|Populated Place|36904|U4|||39|OH|1|015|Brown|38.6711848|-83.7696438|07/12/1979|
1041891|Huntsville|Populated Place|36988|P1|3650|393650091|39|OH|1|091|Logan|40.4433848|-83.8049353|07/12/1979|03/20/2008
1041911|Idaho|Populated Place|37156|U6|3665|393665131|39|OH|1|131|Pike|39.0881246|-83.1418491|07/12/1979|
1042020|Jackson|Populated Place|38150|U6|||39|OH|1|169|Wayne|40.9603333|-81.899307|07/12/1979|
1042061|Jefferson|Populated Place|38500|P1|3770|393770007|39|OH|1|007|Ashtabula|41.7386662|-80.7698066|07/12/1979|03/20/2008
1042071|Jeffersonville|Populated Place|38920|P1|3780|393780047|39|OH|1|047|Fayette|39.6536719|-83.5638094|07/12/1979|03/20/2008
1042073|Jenera|Populated Place|38948|P1|3790|393790063|39|OH|1|063|Hancock|40.8997754|-83.7268783|07/12/1979|03/20/2008
1042147|Joppa|Populated Place|39415|U6|||39|OH|1|105|Meigs|39.1528549|-81.7984666|07/12/1979|
1042158|Jugs Corners|Populated Place|39445|U6|||39|OH|1|117|Morrow|40.6808914|-82.6454515|07/12/1979|
1042162|Jumbo|Populated Place|39455|U6|||39|OH|1|065|Hardin|40.5950518|-83.7579897|07/12/1979|
1042164|Junction|Populated Place|39480|U6|||39|OH|1|125|Paulding|41.193105|-84.4585594|07/12/1979|
1042172|Kalida|Populated Place|39536|P1|3860|393860137|39|OH|1|137|Putnam|40.9828289|-84.1993907|07/12/1979|03/20/2008
1042220|Kenilworth|Populated Place|39746|U6|||39|OH|1|155|Trumbull|41.4622778|-80.7373036|07/12/1979|
1042227|Kennvale|Populated Place|39825|U6|||39|OH|1|145|Scioto|38.6486878|-83.1365672|07/12/1979|
1042289|Kingsville On-the-Lake|Populated Place|40432|U4|||39|OH|1|007|Ashtabula|41.9233867|-80.7028606|07/12/1979|
1042330|Knox|Populated Place|40875|U6|||39|OH|1|083|Knox|40.4575613|-82.5293316|07/12/1979|
1042333|Knoxville|Populated Place|40908|U6|||39|OH|1|081|Jefferson|40.4922879|-80.6806316|07/12/1979|
1042388|Lakeline|Populated Place|41398|P1|3990|393990085|39|OH|1|085|Lake|41.6594912|-81.4542814|07/12/1979|03/20/2008
1042392|Lakeview|Populated Place|41615|U6|||39|OH|1|153|Summit|40.9981113|-81.5234504|07/12/1979|
1042403|Lamb Corners|Populated Place|41700|U6|||39|OH|1|049|Franklin|40.1070065|-83.1924136|07/12/1979|
1042403|Lamb Corners|Populated Place|41700|U6|||39|OH|2|159|Union|40.1070065|-83.1924136|07/12/1979|
1042426|Latham|Populated Place|41930|U6|4068|394068131|39|OH|1|131|Pike|39.0989575|-83.2465753|07/12/1979|
1042429|Latty|Populated Place|41986|P1|4070|394070125|39|OH|1|125|Paulding|41.0886603|-84.5852311|07/12/1979|08/06/2014
1042462|Lebanon|Populated Place|42364|P1|4120|394120165|39|OH|1|165|Warren|39.4353373|-84.2029922|07/12/1979|03/20/2008
1042484|Lehmkuhl Landing|Populated Place|42588|U6|||39|OH|1|149|Shelby|40.3881037|-84.2957816|07/12/1979|
1042571|Limestone|Populated Place|43652|U6|||39|OH|1|123|Ottawa|41.5525495|-83.2124237|07/12/1979|
1042649|Little Center|Populated Place|44095|U6|||39|OH|1|027|Clinton|39.4822835|-83.8696499|07/12/1979|
1042706|Locust Grove|Populated Place|44525|U6|||39|OH|1|089|Licking|40.0028421|-82.437654|07/12/1979|
1042707|Locust Grove|Populated Place|44534|U6|||39|OH|1|099|Mahoning|40.9439478|-80.7639675|07/12/1979|
1042716|Logan|Populated Place|44632|P1|4340|394340073|39|OH|1|073|Hocking|39.5400672|-82.4070986|07/12/1979|03/20/2008
1042801|Loveland Park|Populated Place|45122|U5|||39|OH|1|165|Warren|39.299781|-84.2632706|07/12/1979|03/20/2008
1042801|Loveland Park|Populated Place|45122|U5|||39|OH|2|061|Hamilton|39.299781|-84.2632706|07/12/1979|03/20/2008
1042817|Loys Corners|Populated Place|45250|U6|||39|OH|1|155|Trumbull|41.1847795|-80.6920216|07/12/1979|
1042834|Lumberton|Populated Place|45416|U6|||39|OH|1|027|Clinton|39.5570054|-83.8488161|07/12/1979|
1042850|Lynns Corners|Populated Place|45605|U6|||39|OH|1|099|Mahoning|41.0425584|-80.7370222|07/12/1979|
1042851|Lynx|Populated Place|45612|U6|4485|394485001|39|OH|1|001|Adams|38.7731289|-83.4129666|07/12/1979|
1042857|Lytton|Populated Place|45668|U6|||39|OH|1|051|Fulton|41.6572737|-83.9552218|07/12/1979|
1042867|Mack|Populated Place|46088|U5|||39|OH|1|061|Hamilton|39.1581137|-84.6496684|07/12/1979|01/29/2011
1042873|Macon|Populated Place|46228|U6|4566|394566015|39|OH|1|015|Brown|38.9650683|-83.728257|07/12/1979|
1042895|Magnetic Springs|Populated Place|46830|P1|4590|394590159|39|OH|1|159|Union|40.3528377|-83.2613063|07/12/1979|03/20/2008
1042904|Malinta|Populated Place|46942|P1|4620|394620069|39|OH|1|069|Henry|41.3225503|-84.0380003|07/12/1979|03/20/2008
1042909|Malta|Populated Place|46970|P1|4630|394630115|39|OH|1|115|Morgan|39.6492377|-81.8620804|07/12/1979|03/20/2008
1042929|Mantua Corners|Populated Place|47222|U6|||39|OH|1|133|Portage|41.3103327|-81.2212129|07/12/1979|
1042970|Maple Ridge|Populated Place|47362|U5|||39|OH|1|099|Mahoning|40.9231141|-81.0509278|07/12/1979|03/20/2008
1042977|Mapleton|Populated Place|47390|U6|||39|OH|1|151|Stark|40.7458927|-81.2462196|07/12/1979|
1042984|Marengo|Populated Place|47558|P1|4710|394710117|39|OH|1|117|Morrow|40.4008945|-82.8107329|07/12/1979|03/20/2008
1043032|Martinsville|Populated Place|48118|P1|4790|394790027|39|OH|1|027|Clinton|39.3239508|-83.814926|07/12/1979|03/20/2008
1043068|Maybee|Populated Place|48412|U4|||39|OH|1|139|Richland|40.7789458|-82.621285|07/12/1979|
1043106|McFarlands Corners|Populated Place|46004|U6|||39|OH|1|055|Geauga|41.4117202|-81.3381643|07/12/1979|
1043113|McKays Corners|Populated Place|46110|U6|||39|OH|1|099|Mahoning|41.0242257|-80.6342405|07/12/1979|
1043234|Mesopotamia|Populated Place|49196|U6|4937|394937155|39|OH|1|155|Trumbull|41.4583885|-80.9550919|07/12/1979|
1043375|Millers Corners|Populated Place|50390|U6|||39|OH|1|075|Holmes|40.5989499|-81.7809664|07/12/1979|
1043380|Millersport|Populated Place|50400|P1|5130|395130045|39|OH|1|045|Fairfield|39.9000639|-82.534048|07/12/1979|03/20/2008
1043425|Moffitt Heights|Populated Place|51030|U6|||39|OH|1|151|Stark|40.7783906|-81.5742898|07/12/1979|
1043428|Mohawk Village|Populated Place|51080|U6|||39|OH|1|031|Coshocton|40.3250683|-82.0795879|07/12/1979|
1043449|Monterey|Populated Place|51655|U6|||39|OH|1|107|Mercer|40.4506018|-84.7838515|07/12/1979|
1043452|Montezuma|Populated Place|51674|P1|5250|395250107|39|OH|1|107|Mercer|40.4889356|-84.5485662|07/12/1979|03/20/2008
1043457|Monticello|Populated Place|51758|U6|||39|OH|1|161|Van Wert|40.6975485|-84.4255092|07/12/1979|
1043484|Moreland Hills|Populated Place|52052|P1|5280|395280035|39|OH|1|035|Cuyahoga|41.4478312|-81.4276153|07/12/1979|03/20/2008
1043491|Morgandale|Populated Place|52178|U5|||39|OH|1|155|Trumbull|41.2656125|-80.7828595|07/12/1979|01/29/2011
1043492|Morges|Populated Place|52248|U6|||39|OH|1|019|Carroll|40.6353395|-81.2456631|07/12/1979|
1043517|Moulton|Populated Place|52458|U6|5325|395325011|39|OH|1|011|Auglaize|40.5561592|-84.2971726|07/12/1979|
1043531|Mount Air|Populated Place|52556|U6|||39|OH|1|049|Franklin|40.132563|-83.0362962|07/12/1979|
1043538|Mount Blanchard|Populated Place|52598|P1|||39|OH|1|063|Hancock|40.8983875|-83.5560395|07/12/1979|03/20/2008
1043638|Mount Victory|Populated Place|53144|P1|5420|395420065|39|OH|1|065|Hardin|40.5344995|-83.5204822|07/12/1979|03/20/2008
1043724|Mudsock|Populated Place|53228|U6|||39|OH|1|049|Franklin|40.002285|-83.1821348|07/12/1979|
1043733|Munks Corners|Populated Place|53308|U6|||39|OH|1|049|Franklin|39.9178418|-82.9168459|07/12/1979|
1043773|Napoleon|Populated Place|53550|P1|5470|395470069|39|OH|1|069|Henry|41.3922726|-84.1252243|07/12/1979|03/20/2008
1043776|Nashville|Populated Place|53634|P1|5480|395480075|39|OH|1|075|Holmes|40.5961726|-82.1120974|07/12/1979|03/20/2008
1043802|Neptune|Populated Place|53900|U6|||39|OH|1|107|Mercer|40.603103|-84.4916206|07/12/1979|
1043813|New Jerusalem|Populated Place|54820|U6|||39|OH|1|091|Logan|40.3739434|-83.6574306|07/12/1979|
1043814|New Alexandria|Populated Place|54012|P1|5560|395560081|39|OH|1|081|Jefferson|40.2906252|-80.6792445|07/12/1979|03/20/2008
1043816|New Antioch|Populated Place|54026|U6|||39|OH|1|027|Clinton|39.407284|-83.7460349|07/12/1979|
1043820|New Bavaria|Populated Place|54110|P1|5590|395590069|39|OH|1|069|Henry|41.2036599|-84.1682781|07/12/1979|03/20/2008
1043821|New Bedford|Populated Place|54124|U6|||39|OH|1|031|Coshocton|40.4447881|-81.7651307|07/12/1979|
1043826|New Buffalo|Populated Place|54208|U6|||39|OH|1|099|Mahoning|40.9881145|-80.7122988|07/12/1979|
1043828|New California|Populated Place|54320|U5|||39|OH|1|159|Union|40.1561726|-83.2365825|07/12/1979|01/29/2011
1043842|New Lyme Station|Populated Place|54936|U6|||39|OH|1|007|Ashtabula|41.5903329|-80.8456428|07/12/1979|
1043843|New Mansfield|Populated Place|55025|U6|||39|OH|1|009|Athens|39.3239608|-82.2198703|07/12/1979|
1043846|New Riegel|Populated Place|55398|P1|5790|395790147|39|OH|1|147|Seneca|41.0514438|-83.318534|07/12/1979|03/20/2008
1043866|Newmans|Populated Place|54992|U6|||39|OH|1|101|Marion|40.484226|-83.1913038|07/12/1979|
1043923|North Bristol|Populated Place|56266|U6|||39|OH|1|155|Trumbull|41.4089446|-80.8689762|07/12/1979|
1043958|North Liberty|Populated Place|56784|U6|||39|OH|1|083|Knox|40.5375611|-82.4082187|07/12/1979|
1043960|North Madison|Populated Place|56812|U5|5994|395994085|39|OH|1|085|Lake|41.801996|-81.048986|07/12/1979|03/20/2008
1043963|North Moreland|Populated Place|56850|U6|||39|OH|1|145|Scioto|38.7631318|-82.9360059|07/12/1979|
1043972|North Star|Populated Place|57064|P1|6050|396050037|39|OH|1|037|Darke|40.3247694|-84.5705106|07/12/1979|03/20/2008
1043984|Northfield|Populated Place|56448|P1|5960|395960153|39|OH|1|153|Summit|41.3450547|-81.528452|07/12/1979|03/20/2008
1044003|Norwalk|Populated Place|57302|P1|6070|396070077|39|OH|1|077|Huron|41.2425531|-82.6157331|07/12/1979|03/20/2008
1044078|Ogontz|Populated Place|57946|U6|||39|OH|1|043|Erie|41.3439379|-82.4593352|07/12/1979|
1044196|Orpheus|Populated Place|58820|U6|||39|OH|1|079|Jackson|38.9631311|-82.4582132|07/12/1979|
1044200|Osborn Corners|Populated Place|58880|U6|||39|OH|1|153|Summit|41.2017214|-81.6787369|07/12/1979|
1044204|Osgood|Populated Place|58912|P1|6240|396240037|39|OH|1|037|Darke|40.3397696|-84.4952303|07/12/1979|03/20/2008
1044206|Ostrander|Populated Place|58940|P1|6250|396250041|39|OH|1|041|Delaware|40.266172|-83.2126932|07/12/1979|03/20/2008
1044251|Owensville|Populated Place|59225|U6|||39|OH|1|145|Scioto|38.8511851|-83.0401766|07/12/1979|
1044265|Oxford|Populated Place|59234|P1|6310|396310017|39|OH|1|017|Butler|39.5069974|-84.745231|07/12/1979|03/20/2008
1044274|Painesville|Populated Place|59416|P1|6320|396320085|39|OH|1|085|Lake|41.7244885|-81.245657|07/12/1979|03/20/2008
1044294|Paradise|Populated Place|59766|U6|||39|OH|1|099|Mahoning|40.9736701|-80.7075763|07/12/1979|
1044307|Parkman|Populated Place|59934|U6|6349|396349055|39|OH|1|055|Geauga|41.3706107|-81.0650959|07/12/1979|
1044315|Patmos|Populated Place|61140|U6|||39|OH|1|099|Mahoning|40.9736696|-80.9059199|07/12/1979|
1044329|Pattytown|Populated Place|61245|U6|||39|OH|1|109|Miami|40.0219958|-84.4135602|07/12/1979|
1044331|Paulding|Populated Place|61252|P1|6410|396410125|39|OH|1|125|Paulding|41.1381051|-84.5805082|07/12/1979|03/20/2008
1044337|Payne|Populated Place|61322|P1|6420|396420125|39|OH|1|125|Paulding|41.0775492|-84.7271812|07/12/1979|03/20/2008
1044358|Peebles|Populated Place|61420|P1|6430|396430001|39|OH|1|001|Adams|38.9489593|-83.4057458|07/12/1979|03/20/2008
1044360|Pekin|Populated Place|61476|U6|||39|OH|1|165|Warren|39.5028374|-84.1993812|07/12/1979|
1044361|Pekin|Populated Place|61462|U6|||39|OH|1|081|Jefferson|40.4286782|-80.662298|07/12/1979|
1044365|Penfield|Populated Place|61518|U6|||39|OH|1|093|Lorain|41.1686649|-82.121262|07/12/1979|
1044373|Pepper Pike|Populated Place|61686|P1|6470|396470035|39|OH|1|035|Cuyahoga|41.4783865|-81.4637296|07/12/1979|03/20/2008
1044385|Perry|Populated Place|61882|P1|6480|396480085|39|OH|1|085|Lake|41.7603259|-81.1409322|07/12/1979|03/20/2008
1044387|Perry Center|Populated Place|62125|U6|||39|OH|1|173|Wood|41.2097752|-83.4782609|07/12/1979|
1044407|Petrea|Populated Place|62316|U6|||39|OH|1|079|Jackson|39.0734057|-82.6007187|07/12/1979|
1044409|Pettisville|Populated Place|62344|U5|6505|396505051|39|OH|1|051|Fulton|41.5306068|-84.2296717|07/12/1979|01/29/2011
1044423|Philothea|Populated Place|62456|U6|||39|OH|1|107|Mercer|40.4506022|-84.6535695|07/12/1979|
1044474|Pine Valley|Populated Place|62778|U6|||39|OH|1|081|Jefferson|40.2042373|-80.7673056|07/12/1979|
1044482|Pioneer|Populated Place|62834|P1|6540|396540171|39|OH|1|171|Williams|41.6800503|-84.5530057|07/12/1979|03/20/2008
1044537|Pleasant Hill|Populated Place|63520|U6|6596|396596081|39|OH|1|081|Jefferson|40.4200672|-80.658409|07/12/1979|
1044654|Plymouth|Populated Place|63800|P1|6630|396630077|39|OH|1|077|Huron|40.9956112|-82.6671207|07/12/1979|03/20/2008
1044660|Pointview|Populated Place|63950|U6|||39|OH|1|099|Mahoning|40.9445031|-80.8973082|07/12/1979|
1044731|Powell|Populated Place|64482|U6|||39|OH|1|031|Coshocton|40.3059031|-81.7017919|07/12/1979|
1044754|Pratts Fork|Populated Place|64612|U6|||39|OH|1|009|Athens|39.192298|-82.0170853|07/12/1979|
1044759|Prentiss|Populated Place|64654|U6|||39|OH|1|137|Putnam|41.1525507|-84.0182772|07/12/1979|
1044801|Purity|Populated Place|65004|U6|||39|OH|1|089|Licking|40.2003443|-82.3384855|07/12/1979|
1044829|Quincy|Populated Place|65200|P1|6800|396800091|39|OH|1|091|Logan|40.2992182|-83.9688273|07/12/1979|03/20/2008
1044863|Rathbone|Populated Place|65550|U6|||39|OH|1|041|Delaware|40.1964506|-83.14519|07/12/1979|
1044873|Rawson|Populated Place|65634|P1|6840|396840063|39|OH|1|063|Hancock|40.9589419|-83.7841029|07/12/1979|03/20/2008
1044879|Rays Corners|Populated Place|65704|U6|||39|OH|1|007|Ashtabula|41.6833885|-80.7806401|07/12/1979|
1044900|Red River|Populated Place|65914|U6|||39|OH|1|037|Darke|40.0800503|-84.4485613|07/12/1979|
1044957|Reynolds|Populated Place|66385|U6|||39|OH|1|085|Lake|41.65588|-81.3770545|07/12/1979|
1045004|Ridgeland|Populated Place|67020|U6|||39|OH|1|079|Jackson|39.0136851|-82.5223825|07/12/1979|
1045153|Rogers|Populated Place|68084|P1|7050|397050029|39|OH|1|029|Columbiana|40.7914504|-80.6261833|07/12/1979|03/20/2008
1045163|Rome|Populated Place|68245|U6|||39|OH|1|041|Delaware|40.2464511|-82.9115694|07/12/1979|
1045164|Rome|Populated Place|68210|U6|7060|397060007|39|OH|1|007|Ashtabula|41.6047773|-80.8653661|07/12/1979|
1045199|Roselms|Populated Place|68518|U6|||39|OH|1|125|Paulding|41.0194938|-84.4191159|07/12/1979|
1045237|Roxabell|Populated Place|68826|U6|||39|OH|1|141|Ross|39.3847859|-83.1876876|07/12/1979|
1045249|Rubyville|Populated Place|68924|U6|||39|OH|1|145|Scioto|38.8250751|-82.9298951|07/12/1979|
1045284|Rushmore|Populated Place|69148|U6|||39|OH|1|137|Putnam|40.8742173|-84.2532827|07/12/1979|
1045286|Rushtown|Populated Place|69190|U6|||39|OH|1|145|Scioto|38.8328522|-83.0198979|07/12/1979|
1045287|Rushville|Populated Place|69220|U6|||39|OH|1|105|Meigs|39.1239666|-81.7601319|07/12/1979|
1045404|Saint Bernard|Populated Place|69470|P1|||39|OH|1|061|Hamilton|39.1670033|-84.4985541|07/12/1979|03/20/2008
1045611|Saint Louisville|Populated Place|69652|P1|||39|OH|1|089|Licking|40.1728428|-82.4187671|07/12/1979|03/20/2008
1045870|Salem|Populated Place|69834|P1|7260|397260029|39|OH|1|029|Columbiana|40.9008923|-80.8567502|07/12/1979|03/20/2008
1045955|Sandy Hill|Populated Place|70448|U6|||39|OH|1|041|Delaware|40.2920054|-83.1471349|07/12/1979|
1045978|Savageville|Populated Place|70572|U6|||39|OH|1|079|Jackson|39.1389588|-82.7190575|07/12/1979|
1046049|Scotland|Populated Place|71045|U6|||39|OH|1|055|Geauga|41.5225515|-81.3615002|07/12/1979|
1046050|Scott|Populated Place|71080|P1|7340|397340161|39|OH|1|161|Van Wert|40.9897709|-84.5832874|07/12/1979|03/20/2008
1046050|Scott|Populated Place|71080|P1|7340|397340125|39|OH|2|125|Paulding|40.9897709|-84.5832874|07/12/1979|03/20/2008
1046074|Seamersville|Populated Place|71210|U6|||39|OH|1|161|Van Wert|40.9322715|-84.416895|07/12/1979|
1046107|Shady Bend|Populated Place|71575|U6|||39|OH|1|031|Coshocton|40.2678482|-81.6404|07/12/1979|
1046108|Shady Glen|Populated Place|71584|U6|||39|OH|1|081|Jefferson|40.4800662|-80.6397965|07/12/1979|
1046128|Shandon Station|Locale|71738|U6|||39|OH|1|061|Hamilton|39.3061667|-84.7074491|07/12/1979|
1046128|Shandon Station|Locale|71738|U6|||39|OH|2|017|Butler|39.3061667|-84.7074491|07/12/1979|
1046147|Sharpeye|Populated Place|71915|U6|||39|OH|1|037|Darke|40.106159|-84.746904|07/12/1979|
1046163|Shawtown|Populated Place|72018|U6|||39|OH|1|063|Hancock|41.1081075|-83.871884|07/12/1979|
1046206|Sherwood|Populated Place|72256|P1|7520|397520039|39|OH|1|039|Defiance|41.2872723|-84.5535617|07/12/1979|03/20/2008
1046224|Shinrock|Populated Place|72312|U6|7532|397532043|39|OH|1|043|Erie|41.3461608|-82.521283|07/12/1979|
1046229|Shively Corners|Populated Place|72322|U6|||39|OH|1|099|Mahoning|41.1170022|-80.7770247|07/12/1979|
1046248|Shreve|Populated Place|72396|P1|7540|397540169|39|OH|1|169|Wayne|40.6814481|-82.0218148|07/12/1979|03/20/2008
1046254|Shunk|Populated Place|72400|U6|||39|OH|1|069|Henry|41.3636618|-84.0388341|07/12/1979|
1046309|Six Corners|Populated Place|72598|U6|||39|OH|1|039|Defiance|41.3247727|-84.7096787|07/12/1979|
1046327|Slabtown|Populated Place|72662|U6|||39|OH|1|003|Allen|40.7889403|-84.0518904|07/12/1979|
1046348|Sligo|Populated Place|72718|U6|||39|OH|1|027|Clinton|39.441728|-83.9202071|07/12/1979|
1046374|Smith Corners|Populated Place|72746|U6|||39|OH|1|099|Mahoning|41.0692249|-80.7617458|07/12/1979|
1046402|Snodes|Populated Place|72858|U6|||39|OH|1|099|Mahoning|40.9592251|-80.9937026|07/12/1979|
1046410|Snowville|Populated Place|72862|U6|||39|OH|1|105|Meigs|39.1681311|-82.0909767|07/12/1979|
1046426|Solon|Populated Place|72928|P1|7610|397610035|39|OH|1|035|Cuyahoga|41.3897764|-81.4412259|07/12/1979|03/20/2008
1046427|Somerdale|Populated Place|72956|U6|7615|397615157|39|OH|1|157|Tuscarawas|40.566452|-81.3606676|07/12/1979|
1046457|South Condit|Populated Place|73166|U6|||39|OH|1|041|Delaware|40.2478402|-82.7893423|07/12/1979|
1046489|South Perry|Populated Place|73642|U6|||39|OH|1|073|Hocking|39.4967309|-82.6709993|07/12/1979|
1046537|Spore|Populated Place|74062|U6|||39|OH|1|033|Crawford|40.8631127|-83.0393564|07/12/1979|
1046598|Springvale|Populated Place|74202|U6|||39|OH|1|025|Clermont|39.227282|-84.1957689|07/12/1979|
1046638|Starbucktown|Populated Place|74388|U6|||39|OH|1|027|Clinton|39.4764504|-83.7865917|07/12/1979|
1046639|Stark Corners|Populated Place|74392|U6|||39|OH|1|041|Delaware|40.3106174|-82.8465672|07/12/1979|
1046659|Staunton|Populated Place|74454|U6|||39|OH|1|047|Fayette|39.4753406|-83.4832516|07/12/1979|
1046719|Stoneville|Populated Place|74828|U6|||39|OH|1|007|Ashtabula|41.5564438|-80.9625928|07/12/1979|
1046721|Stoney Hill|Populated Place|74830|U6|||39|OH|1|153|Summit|41.1358881|-81.6679032|07/12/1979|
1046769|Stringtown|Populated Place|75075|U6|||39|OH|1|113|Montgomery|39.8181118|-84.312167|07/12/1979|
1046834|Sugar Valley|Populated Place|75336|U6|||39|OH|1|135|Preble|39.6922735|-84.7130104|07/12/1979|
1046844|Sullivan|Populated Place|75350|U6|7928|397928005|39|OH|1|005|Ashland|41.0281106|-82.2221033|07/12/1979|
1046866|Sunset Beach|Populated Place|75695|U6|||39|OH|1|099|Mahoning|41.1136685|-80.9717573|07/12/1979|
1046909|Switzer|Populated Place|75941|U6|||39|OH|1|111|Monroe|39.8359076|-80.8889833|07/12/1979|
1046912|Sybene|Populated Place|75952|U6|||39|OH|1|087|Lawrence|38.4195265|-82.5037675|07/12/1979|
1046913|Sycamore|Populated Place|75966|U6|||39|OH|1|061|Hamilton|39.2833918|-84.3168831|07/12/1979|
1046992|Terre Haute|Populated Place|76442|U6|||39|OH|1|021|Champaign|40.0495028|-83.8779879|07/12/1979|
1046996|Thackery|Populated Place|76484|U6|||39|OH|1|021|Champaign|40.0556136|-83.9188225|07/12/1979|
1047029|Thompson|Populated Place|76624|U6|8046|398046055|39|OH|1|055|Geauga|41.6900529|-81.0514854|07/12/1979|
1047053|Thurston|Populated Place|76764|P1|8060|398060045|39|OH|1|045|Fairfield|39.8403419|-82.5459933|07/12/1979|03/20/2008
1047070|Tipton|Populated Place|76918|U6|||39|OH|1|125|Paulding|41.0192155|-84.6696794|07/12/1979|
1047096|Toots Corners|Populated Place|77074|U6|||39|OH|1|099|Mahoning|40.9881142|-80.7978584|07/12/1979|
1047126|Tradersville|Populated Place|77224|U6|||39|OH|1|097|Madison|39.9997826|-83.4985331|07/12/1979|
1047127|Trail|Populated Place|77238|U6|||39|OH|1|075|Holmes|40.5903392|-81.70624|07/12/1979|
1047249|Twin Valley|Populated Place|78106|U6|||39|OH|1|145|Scioto|38.7903534|-82.9523955|07/12/1979|
1047258|Tylersville|Populated Place|78125|U6|||39|OH|1|017|Butler|39.3575578|-84.4213312|07/12/1979|
1047346|Uniopolis|Populated Place|78848|U5|8260|398260011|39|OH|1|011|Auglaize|40.6022716|-84.0866125|07/12/1979|08/22/2016
1047369|Upper Lowell|Populated Place|79035|U6|||39|OH|1|167|Washington|39.5356291|-81.521791|07/12/1979|
1047391|Vadis|Populated Place|79132|U6|||39|OH|1|013|Belmont|39.924796|-80.8264784|07/12/1979|
1047425|Vandervorts Corners|Populated Place|79530|U6|||39|OH|1|027|Clinton|39.4447833|-83.9888204|07/12/1979|
1047491|Walbridge|Populated Place|80486|P1|8500|398500173|39|OH|1|173|Wood|41.5878281|-83.4932651|07/12/1979|03/20/2008
1047497|Wales Corners|Populated Place|80520|U6|||39|OH|1|143|Sandusky|41.3156088|-82.9026896|07/12/1979|
1047499|Walhonding|Populated Place|80528|U6|8512|398512031|39|OH|1|031|Coshocton|40.3595114|-82.1468151|07/12/1979|
1047532|Walnut Grove|Populated Place|80635|U6|||39|OH|1|065|Hardin|40.7181094|-83.6238187|07/12/1979|
1047550|Walton|Populated Place|80720|U6|||39|OH|1|065|Hardin|40.6392187|-83.7654901|07/12/1979|
1047551|Walton Hills|Populated Place|80738|P1|8516|398516035|39|OH|1|035|Cuyahoga|41.3656097|-81.5612322|07/12/1979|03/20/2008
1047568|Warner|Populated Place|80836|U6|8524|398524167|39|OH|1|167|Washington|39.5628513|-81.4181758|07/12/1979|
1047579|Warrensville Heights|Populated Place|80990|P1|8537|398537035|39|OH|1|035|Cuyahoga|41.4350535|-81.5362327|07/12/1979|03/20/2008
1047606|Washingtonville|Populated Place|81732|P1|8580|398580029|39|OH|1|029|Columbiana|40.900337|-80.7639673|07/12/1979|03/20/2008
1047606|Washingtonville|Populated Place|81732|P1|8580|398580099|39|OH|2|099|Mahoning|40.900337|-80.7639673|07/12/1979|03/20/2008
1047628|Wauseon|Populated Place|81928|P1|8600|398600051|39|OH|1|051|Fulton|41.5492182|-84.1416147|07/12/1979|03/20/2008
1047633|Waynesfield|Populated Place|82390|P1|8640|398640011|39|OH|1|011|Auglaize|40.6006056|-83.9752202|07/12/1979|03/20/2008
1047634|Waynesville|Populated Place|82418|P1|8650|398650165|39|OH|1|165|Warren|39.5297824|-84.086601|07/12/1979|03/20/2008
1047660|Welcome|Populated Place|82610|U6|||39|OH|1|075|Holmes|40.5461742|-82.0218151|07/12/1979|
1047670|Wellington|Populated Place|82642|P1|8660|398660093|39|OH|1|093|Lorain|41.1689421|-82.2179354|07/12/1979|03/20/2008
1047728|West Andover|Populated Place|82908|U6|||39|OH|1|007|Ashtabula|41.6067213|-80.6120202|07/12/1979|
1047768|West Jackson|Populated Place|83570|U6|||39|OH|1|159|Union|40.4842239|-83.3785327|07/12/1979|
1047785|West Newton|Populated Place|83944|U6|||39|OH|1|003|Allen|40.6539401|-83.8927174|07/12/1979|
1047798|West Salem|Populated Place|84196|P1|8870|398870169|39|OH|1|169|Wayne|40.9714448|-82.1098748|07/12/1979|03/20/2008
1047810|West Unity|Populated Place|84308|P1|8890|398890171|39|OH|1|171|Williams|41.586162|-84.4349491|07/12/1979|03/20/2008
1047854|Wherrys Crossroads|Populated Place|84635|U6|||39|OH|1|019|Carroll|40.6170062|-81.1031542|07/12/1979|
1047862|Whipple|Populated Place|84672|U6|8934|398934167|39|OH|1|167|Washington|39.5222959|-81.4145647|07/12/1979|
1047885|Whitfield|Populated Place|84966|U6|||39|OH|1|113|Montgomery|39.6733918|-84.2760528|07/12/1979|
1047893|Wick|Populated Place|85008|U6|||39|OH|1|007|Ashtabula|41.5342213|-80.6472997|07/12/1979|
1047942|Williamsport|Populated Place|85414|P1|9000|399000129|39|OH|1|129|Pickaway|39.5858953|-83.1204647|07/12/1979|03/20/2008
1047955|Willow Crest|Populated Place|85568|U6|||39|OH|1|099|Mahoning|40.9733927|-80.6506297|07/12/1979|
1047970|Wilmer|Populated Place|85778|U6|||39|OH|1|043|Erie|41.3964402|-82.6957373|07/12/1979|
1047992|Windfall|Populated Place|85932|U6|||39|OH|1|103|Medina|41.1364432|-81.7856878|07/12/1979|
1047998|Windsor Mills|Populated Place|86058|U6|||39|OH|1|007|Ashtabula|41.5350549|-80.9623149|07/12/1979|
1048003|Wingston|Populated Place|86114|U6|||39|OH|1|173|Wood|41.269774|-83.7277132|07/12/1979|
1048055|Wolfhurst|Populated Place|86282|U5|||39|OH|1|013|Belmont|40.0692388|-80.7836962|07/12/1979|01/29/2011
1048080|Woodland Park|Populated Place|86360|U6|||39|OH|1|025|Clermont|39.1972841|-84.0685444|07/12/1979|
1048082|Woodlawn|Populated Place|86366|P1|9090|399090061|39|OH|1|061|Hamilton|39.2520022|-84.4702206|07/12/1979|03/20/2008
1048114|Woodsdale|Populated Place|86422|U6|||39|OH|1|017|Butler|39.4345016|-84.4757779|07/12/1979|
1048124|Woodview Park|Populated Place|86482|U6|||39|OH|1|159|Union|40.2622818|-83.357143|07/12/1979|
1048147|Wren|Populated Place|86632|P1|9160|399160161|39|OH|1|161|Van Wert|40.8008809|-84.7752399|07/12/1979|03/20/2008
1048162|Wyandot|Populated Place|86716|U6|||39|OH|1|175|Wyandot|40.7314466|-83.1196359|07/12/1979|
1048178|Yankeetown|Populated Place|86870|U6|||39|OH|1|015|Brown|38.9395115|-84.0202096|07/12/1979|
1048195|Yoder|Populated Place|86968|U6|||39|OH|1|003|Allen|40.6872727|-84.0710573|07/12/1979|
1048216|Youngsville|Populated Place|88014|U6|||39|OH|1|001|Adams|38.9228477|-83.5674177|07/12/1979|
1048230|Zeno|Populated Place|88112|U6|||39|OH|1|119|Muskingum|39.7984054|-81.7334636|07/12/1979|
1048310|Brownsville|Populated Place|09596|U5|1083|391083089|39|OH|1|089|Licking|39.9470114|-82.2565353|07/12/1979|01/29/2011
1048329|Grange Hall|Populated Place|31346|U6|||39|OH|1|129|Pickaway|39.6333952|-83.1851895|07/12/1979|
1048375|Sheffield|Populated Place|72060|P1|7480|397480093|39|OH|1|093|Lorain|41.4211548|-82.096259|07/12/1979|03/20/2008
1048393|Beavercreek|Populated Place|04720|P1|||39|OH|1|057|Greene|39.7092262|-84.0632685|08/17/1992|03/20/2008
1048395|Lindale|Populated Place|43834|U6|||39|OH|1|025|Clermont|38.9900642|-84.2099356|08/17/1992|
1048396|Lucas|Populated Place|45276|P1|4440|394440139|39|OH|1|139|Richland|40.7050579|-82.4182204|08/17/1992|03/20/2008
1048397|Perintown|Populated Place|61700|U6|||39|OH|1|025|Clermont|39.1372833|-84.2357695|08/17/1992|
1048399|Jasper|Populated Place|38402|U6|3763|393763131|39|OH|1|131|Pike|39.05007|-83.0565679|08/17/1992|
1048400|Blue Rock|Populated Place|07384|U6|0858|390858119|39|OH|1|119|Muskingum|39.8000697|-81.8915241|08/17/1992|
1048401|North Perry|Populated Place|56910|P1|6010|396010085|39|OH|1|085|Lake|41.7783808|-81.1498216|08/17/1992|03/20/2008
1048402|Sagamore Hills|Populated Place|69414|U6|||39|OH|1|153|Summit|41.3117215|-81.5681756|08/17/1992|
1048446|Saybrook-on-the-lake|Populated Place|70655|U6|||39|OH|1|007|Ashtabula|41.8728306|-80.8867578|07/12/1979|
1048447|Abanaka|Populated Place|00100|U6|||39|OH|1|161|Van Wert|40.7600476|-84.6982935|07/12/1979|
1048448|Afton|Populated Place|00520|U6|||39|OH|1|025|Clermont|39.0614528|-84.1002116|07/12/1979|
1048449|Ai|Populated Place|00541|U6|||39|OH|1|051|Fulton|41.6281072|-83.9352213|07/12/1979|
1048450|Alcony|Populated Place|01084|U6|||39|OH|1|109|Miami|40.0114465|-84.0579933|07/12/1979|
1048451|Alice|Populated Place|01230|U6|||39|OH|1|053|Gallia|39.0211866|-82.3726544|07/12/1979|
1048453|Alliance Junction|Populated Place|01425|U6|||39|OH|1|099|Mahoning|40.9208918|-81.0423162|07/12/1979|
1048454|Alma|Populated Place|01434|U6|||39|OH|1|141|Ross|39.1881225|-82.9787891|07/12/1979|
1048455|Alpine Terrace|Populated Place|01462|U6|||39|OH|1|025|Clermont|39.0906171|-84.2918818|07/12/1979|
1048456|Alton|Populated Place|01532|U6|0117|390117049|39|OH|1|049|Franklin|39.9503404|-83.1746344|07/12/1979|
1048457|Am-Beth Acres|Populated Place|01705|U6|||39|OH|1|025|Clermont|39.0856173|-84.2807705|07/12/1979|
1048458|Amanda|Populated Place|01630|P1|0130|390130045|39|OH|1|045|Fairfield|39.649508|-82.7443367|07/12/1979|03/20/2008
1048459|Amity|Populated Place|01830|U6|||39|OH|1|061|Hamilton|39.2056144|-84.4041074|07/12/1979|
1048460|Amity|Populated Place|01868|U6|||39|OH|1|113|Montgomery|39.7892223|-84.3668905|07/12/1979|
1048461|Amsterdam|Populated Place|01938|P1|0180|390180081|39|OH|1|081|Jefferson|40.4736758|-80.9228671|07/12/1979|03/20/2008
1048462|Anthony|Populated Place|02125|U6|||39|OH|1|009|Athens|39.2361864|-81.9823621|07/12/1979|
1048463|Antioch|Populated Place|02134|U6|||39|OH|1|097|Madison|39.766172|-83.2715819|07/12/1979|
1048464|Antonis|Populated Place|02170|U6|||39|OH|1|141|Ross|39.1839562|-82.9273984|07/12/1979|
1048465|Antrim|Populated Place|02176|U6|||39|OH|1|059|Guernsey|40.1203474|-81.3584466|07/12/1979|
1048466|Arlington|Populated Place|02420|U6|||39|OH|1|153|Summit|41.0803338|-81.4934482|07/12/1979|
1048467|Arnheim|Populated Place|02498|U6|||39|OH|1|015|Brown|38.9334017|-83.8274263|07/12/1979|
1048468|Ashtabula|Populated Place|02638|P1|0330|390330007|39|OH|1|007|Ashtabula|41.8650534|-80.7898089|07/12/1979|03/20/2008
1048469|Assumption|Populated Place|02708|U6|||39|OH|1|051|Fulton|41.6719958|-83.9116094|07/12/1979|
1048470|Attica|Populated Place|02820|P1|0370|390370147|39|OH|1|147|Seneca|41.0647777|-82.887686|07/12/1979|03/20/2008
1048472|Austin Village|Populated Place|03220|U6|||39|OH|1|155|Trumbull|41.2425567|-80.859252|07/12/1979|
1048473|Autumn Acres|Populated Place|03226|U6|||39|OH|1|061|Hamilton|39.2239462|-84.6052236|07/12/1979|
1048474|Avon Lake|Populated Place|03464|P1|0410|390410093|39|OH|1|093|Lorain|41.5053178|-82.0282001|07/12/1979|03/20/2008
1048475|Avondale|Populated Place|03422|U6|||39|OH|1|119|Muskingum|39.8706234|-82.0595841|07/12/1979|
1048476|Avondale|Populated Place|03436|U6|||39|OH|1|151|Stark|40.8264469|-81.4142815|07/12/1979|
1048477|Bainbridge|Populated Place|03604|P1|0420|390420141|39|OH|1|141|Ross|39.2275658|-83.2704663|07/12/1979|03/20/2008
1048478|Bairdstown|Populated Place|03646|P1|0430|390430173|39|OH|1|173|Wood|41.1728305|-83.6079869|07/12/1979|03/20/2008
1048479|Baker|Populated Place|03660|U6|||39|OH|1|037|Darke|40.0558818|-84.7013466|07/12/1979|
1048480|Bakersville|Populated Place|03702|U6|0433|390433031|39|OH|1|031|Coshocton|40.3556238|-81.6456789|07/12/1979|
1048484|Banker Heights|Populated Place|03780|U6|||39|OH|1|151|Stark|40.7611697|-81.4192829|07/12/1979|
1048485|Bantam|Populated Place|03814|U6|||39|OH|1|025|Clermont|38.9986757|-84.1413234|07/12/1979|
1048487|Bartramville|Populated Place|04080|U6|||39|OH|1|087|Lawrence|38.492583|-82.3845966|07/12/1979|
1048488|Bascom|Populated Place|04094|U5|0482|390482147|39|OH|1|147|Seneca|41.1328321|-83.2852003|07/12/1979|01/29/2011
1048489|Bay View|Populated Place|04410|U6|||39|OH|1|143|Sandusky|41.4325519|-82.96047|07/12/1979|
1048490|Bay View|Populated Place|04402|P1|0511|390511043|39|OH|1|043|Erie|41.4686626|-82.8268547|07/12/1979|03/20/2008
1048491|Bayard|Populated Place|04318|U6|||39|OH|1|029|Columbiana|40.7506146|-81.0648179|07/12/1979|
1048492|Bayshore|Populated Place|04374|U6|||39|OH|1|143|Sandusky|41.4194964|-82.9343579|07/12/1979|
1048493|Beachwood|Populated Place|04500|P1|0530|390530035|39|OH|1|035|Cuyahoga|41.4644979|-81.5087322|07/12/1979|03/20/2008
1048494|Beacon Hill|Populated Place|04528|U6|||39|OH|1|055|Geauga|41.3756096|-81.3387195|07/12/1979|
1048495|Beals|Populated Place|04556|U6|||39|OH|1|045|Fairfield|39.8878415|-82.749338|07/12/1979|
1048496|Beamsville|Populated Place|04570|U6|||39|OH|1|037|Darke|40.1872703|-84.5855104|07/12/1979|
1048497|Bears Mill|Populated Place|04604|U6|||39|OH|1|037|Darke|40.1108824|-84.5407862|07/12/1979|
1048498|Beartown|Populated Place|04612|U6|||39|OH|1|157|Tuscarawas|40.574785|-81.5140078|07/12/1979|
1048499|Beartown|Populated Place|04608|U6|||39|OH|1|055|Geauga|41.3583874|-81.2901054|07/12/1979|
1048502|Beaver Park|Populated Place|04780|U4|||39|OH|1|093|Lorain|41.4375415|-82.2471005|07/12/1979|
1048503|Beaver Dam Station|Populated Place|04770|U6|||39|OH|1|003|Allen|40.8328297|-83.9763324|07/12/1979|
1048505|Bedford Heights|Populated Place|04920|P1|0572|390572035|39|OH|1|035|Cuyahoga|41.4169982|-81.5273428|07/12/1979|03/20/2008
1048506|Beebetown|Populated Place|04930|U6|||39|OH|1|103|Medina|41.2747753|-81.8781913|07/12/1979|
1048507|Beechwood|Populated Place|05004|U6|||39|OH|1|135|Preble|39.5983885|-84.5105033|07/12/1979|
1048508|Beechwood|Populated Place|05010|U6|||39|OH|1|151|Stark|40.8914474|-81.1339882|07/12/1979|
1048510|Belden|Populated Place|05018|U6|||39|OH|1|093|Lorain|41.2381094|-82.0231981|07/12/1979|
1048511|Belfort|Populated Place|05060|U6|||39|OH|1|151|Stark|40.8122811|-81.2453851|07/12/1979|
1048512|Belknap|Populated Place|05065|U6|||39|OH|1|067|Harrison|40.2306248|-80.8798119|07/12/1979|
1048512|Belknap|Populated Place|05065|U6|||39|OH|2|081|Jefferson|40.2306248|-80.8798119|07/12/1979|
1048513|Bellepoint|Populated Place|05144|U6|||39|OH|1|041|Delaware|40.2458947|-83.1515794|07/12/1979|
1048514|Belleve|Populated Place|05165|U6|||39|OH|1|067|Harrison|40.2422911|-80.8950906|07/12/1979|
1048515|Belleview Heights|Populated Place|05214|U4|||39|OH|1|141|Ross|39.3186753|-83.004347|07/12/1979|
1048516|Belmont Park|Populated Place|05365|U6|||39|OH|1|155|Trumbull|41.1808906|-80.6700764|07/12/1979|
1048517|Belmont Ridge|Populated Place|05382|U6|||39|OH|1|013|Belmont|40.1659016|-81.1798276|07/12/1979|
1048518|Belvedere|Populated Place|05466|U6|||39|OH|1|081|Jefferson|40.3578457|-80.7650817|07/12/1979|
1048519|Berlin|Populated Place|05816|U5|0737|390737075|39|OH|1|075|Holmes|40.5611734|-81.7943005|07/12/1979|01/29/2011
1048520|Beulah Beach|Populated Place|06208|U5|||39|OH|1|043|Erie|41.3919915|-82.4421113|07/12/1979|01/29/2011
1048521|Beverly|Populated Place|06222|P1|0780|390780167|39|OH|1|167|Washington|39.5478509|-81.6395732|07/12/1979|03/20/2008
1048522|Bexley|Populated Place|06278|P1|0790|390790049|39|OH|1|049|Franklin|39.9689532|-82.9376804|07/12/1979|03/20/2008
1048524|Billingstown|Populated Place|06455|U6|||39|OH|1|171|Williams|41.6931055|-84.7955127|07/12/1979|
1048527|Blairmont|Populated Place|06782|U6|||39|OH|1|067|Harrison|40.2389579|-80.8898125|07/12/1979|
1048528|Blue Valley Acres|Populated Place|07420|U6|||39|OH|1|045|Fairfield|39.639787|-82.5582159|07/12/1979|
1048529|Bluebird Beach|Populated Place|07342|U4|||39|OH|1|043|Erie|41.418656|-82.3787743|07/12/1979|
1048530|Boden|Populated Place|07524|U6|||39|OH|1|059|Guernsey|40.115072|-81.7023479|07/12/1979|
1048531|Bond Hill|Populated Place|07636|U4|||39|OH|1|061|Hamilton|39.1747812|-84.4671644|07/12/1979|
1048532|Boneta|Populated Place|07643|U6|||39|OH|1|103|Medina|41.0994987|-81.775132|07/12/1979|
1048533|Booth|Populated Place|07720|U4|||39|OH|1|095|Lucas|41.6381043|-83.4118749|07/12/1979|
1048535|Boulevard|Populated Place|07880|U6|||39|OH|1|095|Lucas|41.6881041|-83.5074335|07/12/1979|
1048536|Bowerston|Populated Place|07916|P1|0900|390900067|39|OH|1|067|Harrison|40.4253431|-81.1878817|07/12/1979|03/20/2008
1048537|Bowersville|Populated Place|07930|P1|0910|390910057|39|OH|1|057|Greene|39.5806168|-83.7249234|07/12/1979|03/20/2008
1048538|Bowling Green|Populated Place|07972|P1|0920|390920173|39|OH|1|173|Wood|41.3747744|-83.6513229|07/12/1979|03/20/2008
1048540|Bradley|Populated Place|08098|U6|||39|OH|1|081|Jefferson|40.2470143|-80.7756391|07/12/1979|
1048541|Bradner|Populated Place|08112|P1|0940|390940173|39|OH|1|173|Wood|41.3242192|-83.4385387|07/12/1979|03/20/2008
1048542|Brandywine|Populated Place|08322|U6|||39|OH|1|033|Crawford|40.8656127|-82.9390751|07/12/1979|
1048543|Bratenahl|Populated Place|08336|P1|0960|390960035|39|OH|1|035|Cuyahoga|41.5425502|-81.626238|07/12/1979|03/20/2008
1048544|Bremen|Populated Place|08392|P1|0980|390980045|39|OH|1|045|Fairfield|39.7017328|-82.4268216|07/12/1979|03/20/2008
1048545|Brentwood|Populated Place|08406|U6|||39|OH|1|061|Hamilton|39.2283911|-84.5296663|07/12/1979|03/20/2008
1048546|Brentwood Lake|Populated Place|08448|U6|||39|OH|1|093|Lorain|41.3161608|-82.0776466|07/12/1979|
1048547|Brewer Heights|Populated Place|08490|U4|||39|OH|1|141|Ross|39.3425639|-83.0201812|07/12/1979|
1048548|Brice|Populated Place|08532|P1|0998|390998049|39|OH|1|049|Franklin|39.9181195|-82.8321199|07/12/1979|03/20/2008
1048549|Bridgetown|Populated Place|08602|U5|1004|391004061|39|OH|1|061|Hamilton|39.1531139|-84.6371681|07/12/1979|01/29/2011
1048550|Brigglesville|Populated Place|08670|U6|||39|OH|1|127|Perry|39.7567351|-82.0879203|07/12/1979|
1048551|Bristol Village|Populated Place|08952|U4|||39|OH|1|131|Pike|39.1314572|-82.9673991|07/12/1979|
1048552|Britney Acres|Populated Place|08985|U6|||39|OH|1|061|Hamilton|39.0611728|-84.3346606|07/12/1979|
1048553|Brokaw|Populated Place|09120|U6|||39|OH|1|115|Morgan|39.5281285|-81.7270766|07/12/1979|
1048554|Brook Park|Populated Place|09288|P1|1050|391050035|39|OH|1|035|Cuyahoga|41.3983838|-81.8045788|07/12/1979|03/20/2008
1048555|Brooklyn Heights|Populated Place|09274|P1|||39|OH|1|035|Cuyahoga|41.4253299|-81.6881848|07/12/1979|03/20/2008
1048556|Brookside|Populated Place|09316|P1|1060|391060013|39|OH|1|013|Belmont|40.0706279|-80.7609172|07/12/1979|03/20/2008
1048557|Brookside Park|Populated Place|09350|U6|||39|OH|1|155|Trumbull|41.26589|-80.836751|07/12/1979|
1048558|Brookwood|Populated Place|09372|U4|||39|OH|1|061|Hamilton|39.2014476|-84.4410528|07/12/1979|
1048560|Brownsville|Populated Place|09624|U6|||39|OH|1|141|Ross|39.2606207|-83.0504591|07/12/1979|
1048561|Bryan|Populated Place|09792|P1|1090|391090171|39|OH|1|171|Williams|41.4747732|-84.5524508|07/12/1979|03/20/2008
1048562|Buckeye Lake|Populated Place|09890|P1|1110|391110089|39|OH|1|089|Licking|39.9336753|-82.4723781|07/12/1979|03/20/2008
1048563|Buckeyeville|Populated Place|09918|U6|||39|OH|1|059|Guernsey|39.9514611|-81.6131801|07/12/1979|
1048564|Bucks Mill|Populated Place|10025|U6|||39|OH|1|105|Meigs|39.1417435|-81.9465272|07/12/1979|
1048565|Bunker Hill|Populated Place|10212|U6|||39|OH|1|075|Holmes|40.5728396|-81.782911|07/12/1979|
1048566|Bunker Hill|Populated Place|10226|U6|||39|OH|1|099|Mahoning|40.9592252|-80.9356437|07/12/1979|
1048568|Burlington|Populated Place|10352|U5|1164|391164087|39|OH|1|087|Lawrence|38.4073044|-82.5357127|07/12/1979|03/20/2008
1048569|Burlington|Populated Place|10338|U6|1164|391164051|39|OH|1|051|Fulton|41.5722732|-84.3080048|07/12/1979|
1048570|Burton|Populated Place|10436|P1|1170|391170055|39|OH|1|055|Geauga|41.4706089|-81.1450995|07/12/1979|03/20/2008
1048571|Burton Lake|Populated Place|10492|U6|||39|OH|1|055|Geauga|41.4286645|-81.1867675|07/12/1979|
1048572|Busy Corners|Populated Place|10555|U6|||39|OH|1|143|Sandusky|41.4247737|-83.2999249|07/12/1979|
1048573|Byhalia|Populated Place|10730|U6|||39|OH|1|159|Union|40.4536677|-83.4554799|07/12/1979|
1048576|Camp Oyo|Populated Place|11182|U6|||39|OH|1|145|Scioto|38.7259089|-83.1524016|07/12/1979|
1048577|Camp Washington|Populated Place|11215|U6|||39|OH|1|061|Hamilton|39.1361703|-84.536888|07/12/1979|
1048579|Canal Winchester|Populated Place|11332|P1|1300|391300045|39|OH|1|045|Fairfield|39.8428415|-82.8046182|07/12/1979|03/20/2008
1048579|Canal Winchester|Populated Place|11332|P1|1300|391300049|39|OH|2|049|Franklin|39.8428415|-82.8046182|07/12/1979|03/20/2008
1048580|Canton|Populated Place|12000|P1|1320|391320151|39|OH|1|151|Stark|40.7989473|-81.378447|07/12/1979|02/25/2011
1048581|Canyon Park|Populated Place|12022|U6|||39|OH|1|099|Mahoning|41.0786687|-80.9953697|07/12/1979|
1048582|Carlton|Populated Place|12192|U6|||39|OH|1|053|Gallia|38.9636899|-82.0984767|07/12/1979|
1048582|Carlton|Populated Place|12192|U6|||39|OH|2|105|Meigs|38.9636899|-82.0984767|07/12/1979|
1048583|Caroline|Populated Place|12210|U6|||39|OH|1|147|Seneca|41.0522778|-82.8935193|07/12/1979|
1048584|Carrothers|Populated Place|12294|U6|1361|391361147|39|OH|1|147|Seneca|40.9981117|-82.9221308|07/12/1979|
1048587|Cavett|Populated Place|12658|U6|||39|OH|1|161|Van Wert|40.9464375|-84.5813435|07/12/1979|
1048588|Cedar Park|Populated Place|12750|U6|||39|OH|1|155|Trumbull|41.1628353|-80.6431307|07/12/1979|
1048589|Celina|Populated Place|12868|P1|1430|391430107|39|OH|1|107|Mercer|40.5489358|-84.5702338|07/12/1979|03/20/2008
1048590|Centennial|Populated Place|12890|U6|||39|OH|1|095|Lucas|41.7169951|-83.7438274|07/12/1979|
1048591|Center|Populated Place|13000|U6|||39|OH|1|147|Seneca|41.1422768|-83.1576965|07/12/1979|
1048592|Central Avenue Park|Populated Place|13225|U6|||39|OH|1|095|Lucas|41.6789393|-83.6821592|07/12/1979|
1048593|Ceylon|Populated Place|13330|U6|||39|OH|1|043|Erie|41.3717152|-82.493781|07/12/1979|
1048594|Charles Mill|Populated Place|13575|U6|||39|OH|1|005|Ashland|40.7342243|-82.3632186|07/12/1979|
1048595|Chasetown|Populated Place|13652|U6|||39|OH|1|015|Brown|39.1606192|-83.9318743|07/12/1979|
1048596|Cherry Valley|Populated Place|13895|U6|||39|OH|1|067|Harrison|40.3020124|-80.8798112|07/12/1979|
1048597|Chesswood Acres|Populated Place|13960|U6|||39|OH|1|061|Hamilton|39.2236685|-84.5938344|07/12/1979|
1048598|Chester|Populated Place|14002|U6|1539|391539105|39|OH|1|105|Meigs|39.0875777|-81.9226372|07/12/1979|
1048599|Chickwan|Populated Place|14165|U6|||39|OH|1|067|Harrison|40.2325691|-80.8825899|07/12/1979|
1048600|Chili|Populated Place|14170|U6|||39|OH|1|031|Coshocton|40.3739569|-81.7540176|07/12/1979|
1048601|Chrisman|Populated Place|14290|U6|||39|OH|1|097|Madison|39.8331162|-83.3726954|07/12/1979|
1048602|City View Heights|Populated Place|15084|U6|||39|OH|1|017|Butler|39.4228342|-84.5513355|07/12/1979|
1048603|Clay Center|Populated Place|15588|P1|1660|391660123|39|OH|1|123|Ottawa|41.5633832|-83.3618725|07/12/1979|03/20/2008
1048605|Cleveland Heights|Populated Place|16014|P1|||39|OH|1|035|Cuyahoga|41.5200518|-81.556235|07/12/1979|03/20/2008
1048606|Clifford|Populated Place|16042|U6|||39|OH|1|145|Scioto|38.9267393|-83.0196209|07/12/1979|
1048607|Clifton|Populated Place|16056|P1|1710|391710023|39|OH|1|023|Clark|39.7970043|-83.8254829|07/12/1979|03/20/2008
1048607|Clifton|Populated Place|16056|P1|1710|391710057|39|OH|2|057|Greene|39.7970043|-83.8254829|07/12/1979|03/20/2008
1048608|Clough Heights|Populated Place|16257|U6|||39|OH|1|025|Clermont|39.0861726|-84.3002154|07/12/1979|
1048610|Colby|Populated Place|16504|U6|||39|OH|1|143|Sandusky|41.2633872|-82.9463019|07/12/1979|
1048611|Colerain Heights|Populated Place|16644|U6|||39|OH|1|061|Hamilton|39.2406127|-84.5980013|07/12/1979|
1048612|Colfax|Populated Place|16679|U6|||39|OH|1|045|Fairfield|39.7403423|-82.5021023|07/12/1979|
1048613|College Hill|Populated Place|16714|U6|||39|OH|1|059|Guernsey|40.0409054|-81.6476246|07/12/1979|
1048615|Collinsville|Populated Place|16798|U6|1785|391785017|39|OH|1|017|Butler|39.5153327|-84.6093938|07/12/1979|
1048616|Columbia|Populated Place|16952|U6|1787|391787157|39|OH|1|157|Tuscarawas|40.5750628|-81.507063|07/12/1979|
1048617|Columbia|Populated Place|16966|U6|1787|391787171|39|OH|1|171|Williams|41.6331057|-84.7885682|07/12/1979|
1048619|Comet|Populated Place|18035|U6|||39|OH|1|079|Jackson|39.1159053|-82.5509941|07/12/1979|
1048620|Compton Park|Populated Place|18084|U6|||39|OH|1|061|Hamilton|39.231169|-84.5071658|07/12/1979|
1048621|Compton Woods|Populated Place|18098|U4|||39|OH|1|061|Hamilton|39.2322801|-84.4982768|07/12/1979|
1048622|Conant|Populated Place|18112|U6|||39|OH|1|003|Allen|40.7189387|-84.2805077|07/12/1979|
1048623|Concord|Populated Place|18135|U6|||39|OH|1|037|Darke|40.0861603|-84.5785651|07/12/1979|
1048624|Concord|Populated Place|18210|U6|||39|OH|1|089|Licking|40.1431189|-82.637945|07/12/1979|
1048625|Conesville|Populated Place|18266|P1|1830|391830031|39|OH|1|031|Coshocton|40.1839598|-81.8909653|07/12/1979|03/20/2008
1048626|Conway Addition|Populated Place|18555|U6|||39|OH|1|127|Perry|39.7514573|-82.088198|07/12/1979|
1048628|Coolville|Populated Place|18588|P1|1880|391880009|39|OH|1|009|Athens|39.2217427|-81.7973557|07/12/1979|03/20/2008
1048630|Cooper|Populated Place|18616|U6|||39|OH|1|147|Seneca|41.1689436|-82.9768573|07/12/1979|
1048631|Cork|Populated Place|18714|U6|||39|OH|1|007|Ashtabula|41.7306106|-80.9514819|07/12/1979|
1048632|Corryville|Populated Place|18784|U4|||39|OH|1|061|Hamilton|39.1264483|-84.5249433|07/12/1979|
1048633|Cotillion Village|Populated Place|18907|U6|||39|OH|1|061|Hamilton|39.1070035|-84.6402234|07/12/1979|
1048634|Cottage Grove|Populated Place|18910|U6|||39|OH|1|153|Summit|40.988667|-81.512061|07/12/1979|
1048635|Cottage Hill|Populated Place|18915|U6|||39|OH|1|119|Muskingum|40.016178|-82.1881986|07/12/1979|
1048636|Country Club Acres|Populated Place|18945|U6|||39|OH|1|061|Hamilton|39.1811705|-84.3793843|07/12/1979|
1048637|Cowlesville|Populated Place|19064|U6|||39|OH|1|109|Miami|39.9814442|-84.1866091|07/12/1979|
1048638|Craig Beach|Populated Place|19106|P1|1940|391940099|39|OH|1|099|Mahoning|41.1170017|-80.9834247|07/12/1979|03/20/2008
1048639|Craver|Populated Place|19210|U6|||39|OH|1|025|Clermont|39.1428394|-84.1791019|07/12/1979|
1048640|Cream City|Populated Place|19260|U4|||39|OH|1|081|Jefferson|40.5645085|-80.717855|07/12/1979|
1048641|Crescentville|Populated Place|19316|U4|||39|OH|1|061|Hamilton|39.3006134|-84.4471648|07/12/1979|
1048641|Crescentville|Populated Place|19316|U4|||39|OH|2|017|Butler|39.3006134|-84.4471648|07/12/1979|
1048642|Cresceus Farms|Populated Place|19325|U6|||39|OH|1|173|Wood|41.5847722|-83.4402082|07/12/1979|
1048643|Crown Point|Populated Place|19568|U4|||39|OH|1|113|Montgomery|39.7508918|-84.2671649|07/12/1979|
1048644|Culler Mill|Populated Place|19685|U6|||39|OH|1|139|Richland|40.6972804|-82.3898861|07/12/1979|
1048645|Curtice|Populated Place|19736|U5|2015|392015095|39|OH|1|095|Lucas|41.618382|-83.3677069|07/12/1979|01/29/2011
1048645|Curtice|Populated Place|19736|U5|2015|392015123|39|OH|2|123|Ottawa|41.618382|-83.3677069|07/12/1979|01/29/2011
1048646|Cuyahoga Falls|Populated Place|19778|P1|||39|OH|1|153|Summit|41.1339449|-81.4845585|07/12/1979|03/20/2008
1048647|Cyclorama Heights|Populated Place|19816|U6|||39|OH|1|061|Hamilton|39.1406144|-84.5805002|07/12/1979|
1048648|Dague|Populated Place|19885|U6|||39|OH|1|125|Paulding|41.0628269|-84.5802311|07/12/1979|
1048649|Dalrymple Corners|Populated Place|19965|U6|||39|OH|1|083|Knox|40.4022838|-82.6098906|07/12/1979|
1048650|Darbydale|Populated Place|20198|U5|2078|392078049|39|OH|1|049|Franklin|39.8536731|-83.1829679|07/12/1979|01/29/2011
1048651|Davisville|Populated Place|20324|U6|||39|OH|1|079|Jackson|39.0978496|-82.612108|07/12/1979|
1048652|Deandale|Populated Place|21028|U4|||39|OH|1|081|Jefferson|40.3092362|-80.6164633|07/12/1979|
1048653|Decrow Corners|Populated Place|21135|U6|||39|OH|1|089|Licking|40.1936744|-82.5990547|07/12/1979|
1048655|Deer Park|Populated Place|21266|P1|2110|392110061|39|OH|1|061|Hamilton|39.2053367|-84.3946627|07/12/1979|03/20/2008
1048657|Delhi Hills|Populated Place|21518|U5|2152|392152061|39|OH|1|061|Hamilton|39.0928372|-84.6127227|07/12/1979|01/29/2011
1048658|Devil Town|Populated Place|21840|U6|||39|OH|1|169|Wayne|40.8453344|-81.9734785|07/12/1979|
1048661|Dillionvale|Populated Place|21985|U6|||39|OH|1|061|Hamilton|39.2211697|-84.400774|07/12/1979|
1048662|Dixon|Populated Place|22120|U6|||39|OH|1|161|Van Wert|40.9506039|-84.8044066|07/12/1979|
1048662|Dixon|Populated Place|22120|U6|||18|IN|2|003|Allen|40.9506039|-84.8044066|07/12/1979|
1048663|Dodgeville|Populated Place|22190|U6|||39|OH|1|007|Ashtabula|41.5856108|-80.7967516|07/12/1979|
1048664|Dodson|Populated Place|22218|U6|||39|OH|1|113|Montgomery|39.8506088|-84.443282|07/12/1979|
1048665|Dornbusch|Populated Place|22316|U6|||39|OH|1|061|Hamilton|39.2472792|-84.6018903|07/12/1979|
1048666|Drake|Populated Place|22575|U6|||39|OH|1|119|Muskingum|40.0209011|-81.9923575|07/12/1979|
1048667|Dresden|Populated Place|22610|P1|2260|392260119|39|OH|1|119|Muskingum|40.1214579|-82.0106918|07/12/1979|03/20/2008
1048668|Dublin|Populated Place|22700|U6|||39|OH|1|099|Mahoning|41.0031141|-80.7856355|07/12/1979|
1048670|Dupont|Populated Place|22974|P1|2290|392290137|39|OH|1|137|Putnam|41.0564388|-84.3043915|07/12/1979|03/20/2008
1048671|Durant|Populated Place|22988|U6|||39|OH|1|115|Morgan|39.7503473|-81.910692|07/12/1979|
1048672|Durbin|Populated Place|23002|U6|||39|OH|1|023|Clark|39.9117263|-83.891042|07/12/1979|
1048673|Dutch Corners|Populated Place|23023|U6|||39|OH|1|019|Carroll|40.5111748|-81.0375953|07/12/1979|
1048674|Eagle Point Colony|Populated Place|23156|U4|||39|OH|1|173|Wood|41.6094949|-83.5732673|07/12/1979|
1048675|Earls Island|Populated Place|23212|U6|||39|OH|1|149|Shelby|40.3700479|-84.3577273|07/12/1979|
1048676|East Bass Lake|Populated Place|23275|U6|||39|OH|1|055|Geauga|41.591717|-81.1773226|07/12/1979|
1048677|East Alliance|Populated Place|23254|U6|2300|392300099|39|OH|1|099|Mahoning|40.9133918|-81.0784293|07/12/1979|
1048678|East Cambridge|Populated Place|23310|U4|||39|OH|1|059|Guernsey|40.0150719|-81.5626222|07/12/1979|
1048679|East End|Populated Place|23492|U4|||39|OH|1|029|Columbiana|40.6372869|-80.5345131|07/12/1979|
1048680|East Goshen|Populated Place|23590|U6|||39|OH|1|099|Mahoning|40.9450585|-80.9703679|07/12/1979|
1048681|East Liberty|Populated Place|23688|U6|||39|OH|1|041|Delaware|40.3267284|-82.8173995|07/12/1979|
1048682|East Mansfield|Populated Place|23772|U6|||39|OH|1|139|Richland|40.7581123|-82.4893348|07/12/1979|
1048683|East Side|Populated Place|24038|U4|||39|OH|1|099|Mahoning|41.1006137|-80.6367412|07/12/1979|
1048684|Easton|Populated Place|23880|U6|||39|OH|1|059|Guernsey|40.0359043|-81.4292838|07/12/1979|
1048686|Eaton Estates|Populated Place|24262|U5|2391|392391093|39|OH|1|093|Lorain|41.3089395|-82.0056971|07/12/1979|03/20/2008
1048687|Echo Lake Glen|Populated Place|24295|U6|||39|OH|1|103|Medina|41.2275543|-81.7181836|07/12/1979|
1048688|Eckmansville|Populated Place|24318|U6|||39|OH|1|001|Adams|38.8659039|-83.6426974|07/12/1979|
1048689|Edgefield|Populated Place|24444|U4|||39|OH|1|151|Stark|40.838947|-81.38678|07/12/1979|
1048690|Edgemont|Populated Place|24458|U6|2398|392398061|39|OH|1|061|Hamilton|39.2006142|-84.4646645|07/12/1979|
1048691|Edgerton|Populated Place|24486|P1|2400|392400171|39|OH|1|171|Williams|41.4486619|-84.7480123|07/12/1979|03/20/2008
1048692|Edgewater Beach|Populated Place|24514|U6|||39|OH|1|089|Licking|39.9253429|-82.4107088|07/12/1979|
1048693|Edgewater Park|Populated Place|24528|U6|||39|OH|1|049|Franklin|39.9081195|-82.8826777|07/12/1979|
1048695|Edon|Populated Place|24640|P1|2420|392420171|39|OH|1|171|Williams|41.5564394|-84.7688456|07/12/1979|03/20/2008
1048696|Eileen Gardens|Populated Place|24690|U6|||39|OH|1|061|Hamilton|39.1003371|-84.6177228|07/12/1979|
1048697|Ekerts Corners|Populated Place|24695|U6|||39|OH|1|155|Trumbull|41.2053352|-80.740357|07/12/1979|
1048698|Elberta Beach|Populated Place|24710|U4|||39|OH|1|093|Lorain|41.428377|-82.3401611|07/12/1979|
1048699|Eldean|Populated Place|24724|U6|||39|OH|1|109|Miami|40.0778305|-84.2224441|07/12/1979|
1048700|Elenor|Populated Place|24775|U6|||39|OH|1|025|Clermont|39.1770052|-84.19688|07/12/1979|
1048701|Elizabethtown|Populated Place|24845|U6|||39|OH|1|059|Guernsey|40.0359041|-81.4065053|07/12/1979|
1048702|Elliston|Populated Place|25018|U6|2456|392456123|39|OH|1|123|Ottawa|41.5475496|-83.2802035|07/12/1979|
1048703|Elmore|Populated Place|25144|P1|2460|392460123|39|OH|1|123|Ottawa|41.4761621|-83.2957584|07/12/1979|03/20/2008
1048704|Elmview|Populated Place|25150|U6|||39|OH|1|003|Allen|40.686439|-84.1510596|07/12/1979|
1048705|Elmville|Populated Place|25158|U6|||39|OH|1|071|Highland|39.0650681|-83.4518594|07/12/1979|
1048707|English Woods|Populated Place|25410|U4|||39|OH|1|061|Hamilton|39.1397812|-84.5568884|07/12/1979|
1048708|Enon|Populated Place|25452|P1|2510|392510023|39|OH|1|023|Clark|39.8781151|-83.9368765|07/12/1979|03/20/2008
1048709|Epworth|Populated Place|25494|U6|||39|OH|1|139|Richland|40.8492228|-82.46489|07/12/1979|
1048710|Erlin|Populated Place|25620|U6|||39|OH|1|143|Sandusky|41.3658859|-83.0124157|07/12/1979|
1048711|Eureka|Populated Place|25746|U6|||39|OH|1|099|Mahoning|40.914782|-80.6795194|07/12/1979|
1048712|Evanston|Populated Place|25774|U4|||39|OH|1|061|Hamilton|39.1445039|-84.4693865|07/12/1979|
1048713|Evanston|Populated Place|25780|U6|||39|OH|1|109|Miami|39.9447779|-84.1996647|07/12/1979|
1048714|Evansville|Populated Place|25788|U6|||39|OH|1|155|Trumbull|41.1558909|-80.7628576|07/12/1979|
1048716|Ewington|Populated Place|25886|U6|2526|392526053|39|OH|1|053|Gallia|39.0095203|-82.3529315|07/12/1979|
1048717|Fairdale|Populated Place|25928|U6|||39|OH|1|059|Guernsey|40.0147943|-81.6206795|07/12/1979|
1048718|Fairfax|Populated Place|25942|P1|2533|392533061|39|OH|1|061|Hamilton|39.1453377|-84.3932734|07/12/1979|03/20/2008
1048719|Fairfield|Populated Place|26054|U6|2535|392535081|39|OH|1|081|Jefferson|40.4400659|-80.814528|07/12/1979|
1048720|Fairfield|Populated Place|25970|P1|2535|392535017|39|OH|1|017|Butler|39.34589|-84.5605016|07/12/1979|03/20/2008
1048720|Fairfield|Populated Place|25970|P1|2535|392535061|39|OH|2|061|Hamilton|39.34589|-84.5605016|07/12/1979|03/20/2008
1048721|Fairfield Beach|Populated Place|26110|U5|||39|OH|1|045|Fairfield|39.9158975|-82.4751561|07/12/1979|03/20/2008
1048722|Fairhope|Populated Place|26138|U6|||39|OH|1|151|Stark|40.8289475|-81.2987206|07/12/1979|
1048724|Fairmount|Populated Place|26208|U4|||39|OH|1|061|Hamilton|39.127837|-84.553555|07/12/1979|
1048725|Fairview|Populated Place|26390|U4|||39|OH|1|113|Montgomery|39.7864472|-84.2210527|07/12/1979|
1048726|Fairview|Populated Place|26362|U6|||39|OH|1|059|Guernsey|39.9020167|-81.5542898|07/12/1979|
1048728|Farrington|Populated Place|26726|U6|||39|OH|1|109|Miami|40.1056075|-84.2313334|07/12/1979|
1048729|Fashion Heights|Populated Place|26735|U6|||39|OH|1|061|Hamilton|39.113948|-84.616334|07/12/1979|
1048730|Faxon Hills|Populated Place|26754|U4|||39|OH|1|061|Hamilton|39.1325598|-84.437719|07/12/1979|
1048731|Fernell Heights|Populated Place|26936|U6|||39|OH|1|025|Clermont|39.1117278|-84.2888263|07/12/1979|
1048732|Ferry|Populated Place|26964|U6|||39|OH|1|057|Greene|39.5803377|-84.1043797|07/12/1979|
1048733|Filburns Island|Populated Place|27020|U6|||39|OH|1|149|Shelby|40.3694923|-84.3441158|07/12/1979|
1048734|Finneytown|Populated Place|27104|U5|2615|392615061|39|OH|1|061|Hamilton|39.2003361|-84.5204993|07/12/1979|03/20/2008
1048735|Firemans Park|Populated Place|27150|U6|||39|OH|1|127|Perry|39.927009|-82.4432101|07/12/1979|
1048736|Fireside|Populated Place|27160|U6|||39|OH|1|147|Seneca|41.2264431|-82.9118558|07/12/1979|
1048737|Firestone Park|Populated Place|27170|U4|||39|OH|1|153|Summit|41.0350558|-81.5162276|07/12/1979|
1048738|Fitch|Populated Place|27198|U6|||39|OH|1|095|Lucas|41.6964381|-83.5907686|07/12/1979|
1048739|Five Forks|Populated Place|27223|U6|||39|OH|1|059|Guernsey|40.0081277|-81.6012346|07/12/1979|
1048740|Flat Iron|Populated Place|27328|U6|||39|OH|1|165|Warren|39.5322815|-84.2488275|07/12/1979|
1048741|Fletcher|Populated Place|27412|P1|2620|392620109|39|OH|1|109|Miami|40.1447753|-84.1124407|07/12/1979|03/20/2008
1048742|Flora|Populated Place|27445|U6|||39|OH|1|105|Meigs|39.1647986|-81.9781949|07/12/1979|
1048743|Footville|Populated Place|27594|U6|||39|OH|1|007|Ashtabula|41.6617217|-80.9781495|07/12/1979|
1048744|Forest|Populated Place|27636|P1|2650|392650065|39|OH|1|065|Hardin|40.8017214|-83.5104821|07/12/1979|03/20/2008
1048745|Forest Hill|Populated Place|27664|U4|||39|OH|1|153|Summit|41.0964449|-81.4923369|07/12/1979|
1048746|Forest Hills Estates|Populated Place|27702|U6|||39|OH|1|061|Hamilton|39.0861725|-84.3218826|07/12/1979|
1048747|Forestville|Populated Place|27776|U5|||39|OH|1|061|Hamilton|39.0750614|-84.3449387|07/12/1979|03/20/2008
1048749|Fort Jefferson|Populated Place|27804|U6|2657|392657037|39|OH|1|037|Darke|40.026438|-84.6552339|07/12/1979|
1048750|Fort Jennings|Populated Place|27818|P1|2660|392660137|39|OH|1|137|Putnam|40.9064392|-84.296616|07/12/1979|03/20/2008
1048751|Fosterville|Populated Place|28000|U4|||39|OH|1|099|Mahoning|41.0770027|-80.6756313|07/12/1979|
1048753|Fourmans Corners|Populated Place|28063|U6|||39|OH|1|037|Darke|40.0200504|-84.5177296|07/12/1979|
1048754|Fourmile House Corner|Populated Place|28067|U6|||39|OH|1|143|Sandusky|41.3728299|-83.1765876|07/12/1979|
1048755|Fox|Populated Place|28140|U6|||39|OH|1|129|Pickaway|39.6433957|-83.0124054|07/12/1979|
1048757|Fox Acres|Populated Place|28145|U6|||39|OH|1|061|Hamilton|39.1956136|-84.5699448|07/12/1979|
1048758|Franklin|Populated Place|28476|P1|2710|392710165|39|OH|1|165|Warren|39.5589474|-84.3041074|07/12/1979|03/20/2008
1048759|Freemans Gardens|Populated Place|28784|U4|||39|OH|1|095|Lucas|41.6414391|-83.6077129|07/12/1979|
1048760|Freeport|Populated Place|28798|P1|2750|392750067|39|OH|1|067|Harrison|40.2106234|-81.2662197|07/12/1979|03/20/2008
1048761|Frenchtown|Populated Place|28854|U6|||39|OH|1|037|Darke|40.2464366|-84.5238419|07/12/1979|
1048762|Friendship|Populated Place|28896|U5|2765|392765145|39|OH|1|145|Scioto|38.6978541|-83.0937883|07/12/1979|01/29/2011
1048763|Frys Corners|Populated Place|29000|U6|||39|OH|1|037|Darke|40.0481047|-84.6305111|07/12/1979|
1048764|Gabels Corner|Populated Place|29090|U6|||39|OH|1|143|Sandusky|41.3272748|-83.1968656|07/12/1979|
1048765|Galaxy Acres|Populated Place|29134|U6|||39|OH|1|061|Hamilton|39.2408905|-84.5810565|07/12/1979|
1048767|Gallup|Populated Place|29240|U6|||39|OH|1|069|Henry|41.1883835|-84.0291106|07/12/1979|
1048768|Gambrinus|Populated Place|29260|U6|||39|OH|1|151|Stark|40.7720029|-81.4187272|07/12/1979|
1048769|Gano|Populated Place|29302|U6|2832|392832017|39|OH|1|017|Butler|39.3022802|-84.4082748|07/12/1979|
1048770|Garden|Populated Place|29316|U6|||39|OH|1|009|Athens|39.2078535|-81.9762507|07/12/1979|
1048771|Garfield|Populated Place|29410|U6|||39|OH|1|079|Jackson|39.1236823|-82.6198861|07/12/1979|
1048772|Garland|Populated Place|29435|U6|||39|OH|1|109|Miami|39.9347755|-84.3693918|07/12/1979|
1048774|Genoa|Populated Place|29722|P1|2890|392890123|39|OH|1|123|Ottawa|41.5181064|-83.359094|07/12/1979|03/20/2008
1048775|Geography Hall|Populated Place|29748|U6|||39|OH|1|099|Mahoning|41.1195024|-80.5706277|07/12/1979|
1048776|Georges Run|Populated Place|29750|U6|2895|392895081|39|OH|1|081|Jefferson|40.3006252|-80.6253527|07/12/1979|
1048777|Georgetown|Populated Place|29788|U6|||39|OH|1|059|Guernsey|40.0034054|-81.5901232|07/12/1979|
1048778|Gettysburg|Populated Place|29974|P1|2920|392920037|39|OH|1|037|Darke|40.1114383|-84.4952293|07/12/1979|03/20/2008
1048779|Ghent|Populated Place|30016|U3|2925|392925153|39|OH|1|153|Summit|41.1583883|-81.6367899|07/12/1979|
1048781|Gieringer|Populated Place|30090|U6|||39|OH|1|061|Hamilton|39.1978347|-84.7371706|07/12/1979|
1048782|Gilboa|Populated Place|30114|P1|2940|392940137|39|OH|1|137|Putnam|41.018108|-83.9218856|07/12/1979|03/20/2008
1048783|Gillivan|Populated Place|30142|U6|||39|OH|1|097|Madison|39.9886726|-83.3368619|07/12/1979|
1048784|Gilmore|Populated Place|30156|U6|||39|OH|1|157|Tuscarawas|40.2909018|-81.4403921|07/12/1979|
1048785|Girard|Populated Place|30198|P1|2950|392950155|39|OH|1|155|Trumbull|41.1539465|-80.7014662|07/12/1979|03/20/2008
1048786|Girton|Populated Place|30212|U6|||39|OH|1|143|Sandusky|41.2836639|-83.3596475|07/12/1979|
1048787|Gladstone|Populated Place|30268|U6|||39|OH|1|057|Greene|39.7436712|-83.6849228|07/12/1979|
1048788|Glen Ridge Acres|Populated Place|30555|U6|||39|OH|1|025|Clermont|39.1028392|-84.2674369|07/12/1979|
1048789|Glen Robbins|Populated Place|30562|U6|2995|392995081|39|OH|1|081|Jefferson|40.1611824|-80.7431378|07/12/1979|
1048790|Glen Summitt|Populated Place|30604|U6|||39|OH|1|053|Gallia|38.9470217|-82.3240412|07/12/1979|
1048791|Golda|Populated Place|30730|U6|||39|OH|1|013|Belmont|40.1275688|-81.1764946|07/12/1979|
1048793|Golf Manor|Populated Place|30786|P1|3040|393040061|39|OH|1|061|Hamilton|39.1872811|-84.4463307|07/12/1979|03/20/2008
1048794|Golfway Acres|Populated Place|30800|U6|||39|OH|1|061|Hamilton|39.2075579|-84.5660559|07/12/1979|
1048795|Gomer|Populated Place|30814|U6|||39|OH|1|003|Allen|40.8450509|-84.1871708|07/12/1979|
1048796|Goodyear Heights|Populated Place|30898|U4|||39|OH|1|153|Summit|41.0781117|-81.4676137|07/12/1979|
1048797|Goshen|Populated Place|30996|U6|3055|393055025|39|OH|1|025|Clermont|39.2333935|-84.1613239|07/12/1979|
1048798|Gould|Populated Place|31094|U4|||39|OH|1|095|Lucas|41.6033841|-83.6113237|07/12/1979|
1048799|Grandview Heights|Populated Place|31304|P1|||39|OH|1|049|Franklin|39.9797863|-83.0407403|07/12/1979|03/20/2008
1048800|Grandview Heights|Populated Place|31290|U6|||39|OH|1|021|Champaign|40.1856096|-83.9702146|07/12/1979|
1048801|Graytown|Populated Place|31556|U6|3132|393132123|39|OH|1|123|Ottawa|41.5428274|-83.2610362|07/12/1979|
1048802|Greenfield Village|Populated Place|32116|U6|||39|OH|1|061|Hamilton|39.2036693|-84.524666|07/12/1979|
1048803|Greentown|Populated Place|32290|U6|||39|OH|1|081|Jefferson|40.2514589|-80.7684164|07/12/1979|
1048804|Greenwood|Populated Place|32410|U6|||39|OH|1|059|Guernsey|39.9247941|-81.4617864|07/12/1979|
1048805|Grimms Bridge|Populated Place|32528|U6|||39|OH|1|029|Columbiana|40.6761752|-80.5411799|07/12/1979|
1048806|Grove City|Populated Place|32592|P1|3200|393200049|39|OH|1|049|Franklin|39.8814519|-83.0929645|07/12/1979|02/25/2011
1048807|Grove City Country Club|Populated Place|32600|U6|||39|OH|1|049|Franklin|39.8506186|-83.071297|07/12/1979|
1048808|Guerne|Populated Place|32634|U6|||39|OH|1|169|Wayne|40.7633898|-81.8959739|07/12/1979|
1048810|Gypsum|Populated Place|32788|U6|3229|393229123|39|OH|1|123|Ottawa|41.4933845|-82.8757453|07/12/1979|
1048811|Hagan Addition|Populated Place|32810|U6|||39|OH|1|067|Harrison|40.2147915|-80.8845345|07/12/1979|
1048812|Hamilton Meadows|Populated Place|33082|U6|||39|OH|1|049|Franklin|39.8528415|-82.9782376|07/12/1979|
1048813|Hamlet|Populated Place|33110|U6|||39|OH|1|025|Clermont|39.0189526|-84.1996577|07/12/1979|
1048814|Hanford|Populated Place|33180|U4|||39|OH|1|049|Franklin|39.9514531|-82.9479586|07/12/1979|
1048815|Hanville Corners|Populated Place|33320|U6|||39|OH|1|077|Huron|41.119221|-82.612398|07/12/1979|
1048816|Harbor View|Populated Place|33376|P1|3320|393320095|39|OH|1|095|Lucas|41.6933811|-83.4443765|07/12/1979|03/20/2008
1048818|Harewood Acres|Populated Place|33465|U6|||39|OH|1|061|Hamilton|39.1956147|-84.385218|07/12/1979|
1048819|Harper|Populated Place|33614|U6|||39|OH|1|091|Logan|40.4289419|-83.7082656|07/12/1979|
1048820|Harrisonville|Populated Place|34076|U6|||39|OH|1|105|Meigs|39.1264647|-82.1337561|07/12/1979|
1048821|Harrisville|Populated Place|34090|P1|3360|393360067|39|OH|1|067|Harrison|40.1814586|-80.8875904|07/12/1979|03/20/2008
1048822|Hartshorn|Populated Place|34314|U6|||39|OH|1|111|Monroe|39.7067394|-81.2190007|07/12/1979|
1048823|Haskins|Populated Place|34412|P1|3400|393400173|39|OH|1|173|Wood|41.4647747|-83.7060473|07/12/1979|03/20/2008
1048824|Haven Park|Populated Place|34472|U6|||39|OH|1|095|Lucas|41.6408844|-83.7116041|07/12/1979|
1048825|Haven View|Populated Place|34510|U6|||39|OH|1|109|Miami|40.0075577|-84.0579932|07/12/1979|
1048826|Havensport|Populated Place|34496|U6|||39|OH|1|045|Fairfield|39.8100639|-82.6729446|07/12/1979|
1048830|Hegemanns Landing|Populated Place|34818|U6|||39|OH|1|149|Shelby|40.3733812|-84.3485604|07/12/1979|
1048831|Heidelberg Beach|Populated Place|34832|U6|||39|OH|1|043|Erie|41.3878252|-82.4543342|07/12/1979|
1048832|Hepburn|Populated Place|35000|U6|||39|OH|1|065|Hardin|40.6214444|-83.4696471|07/12/1979|
1048833|Hickory Grove|Populated Place|35080|U6|||39|OH|1|123|Ottawa|41.4886623|-82.9190801|07/12/1979|
1048834|Hide-A-Way Hills|Populated Place|35126|U5|||39|OH|1|073|Hocking|39.6547877|-82.4771011|07/12/1979|07/12/2010
1048834|Hide-A-Way Hills|Populated Place|35126|U5|||39|OH|2|045|Fairfield|39.6547877|-82.4771011|07/12/1979|07/12/2010
1048835|High Hill|Populated Place|35182|U6|||39|OH|1|119|Muskingum|39.8320163|-81.7654087|07/12/1979|
1048838|Highland Park|Populated Place|35258|U6|||39|OH|1|061|Hamilton|39.0906151|-84.6185561|07/12/1979|
1048839|Hill Craft Acres|Populated Place|35400|U6|||39|OH|1|025|Clermont|39.0806173|-84.2849372|07/12/1979|
1048840|Hill Top Acres|Populated Place|35616|U4|||39|OH|1|061|Hamilton|39.2242248|-84.4960544|07/12/1979|
1048841|Hillcrest|Populated Place|35406|U6|||39|OH|1|029|Columbiana|40.6283969|-80.6572963|07/12/1979|
1048842|Hillcrest|Populated Place|35430|U6|||39|OH|1|169|Wayne|40.795612|-81.9056967|07/12/1979|
1048843|Hillcrest|Populated Place|35415|U6|||39|OH|1|151|Stark|40.8983918|-81.1245431|07/12/1979|
1048845|Hilltop|Populated Place|35610|U6|||39|OH|1|111|Monroe|39.6967399|-81.1534425|07/12/1979|
1048846|Holiday Acres|Populated Place|35860|U6|||39|OH|1|061|Hamilton|39.2031146|-84.3829957|07/12/1979|
1048847|Holloway|Populated Place|35924|P1|3570|393570013|39|OH|1|013|Belmont|40.1622907|-81.1326032|07/12/1979|03/20/2008
1048848|Holt|Populated Place|36000|U6|||39|OH|1|081|Jefferson|40.5122871|-80.7517458|07/12/1979|
1048849|Honeytown|Populated Place|36190|U6|||39|OH|1|169|Wayne|40.7970006|-81.879584|07/12/1979|
1048850|Hooks Corner|Populated Place|36224|U6|||39|OH|1|113|Montgomery|39.8211693|-84.1449392|07/12/1979|
1048851|Hooven|Populated Place|36232|U5|3596|393596061|39|OH|1|061|Hamilton|39.1781127|-84.7591155|07/12/1979|01/29/2011
1048852|Hopewell|Populated Place|36302|U6|||39|OH|1|081|Jefferson|40.2225706|-80.7098022|07/12/1979|
1048853|Horner Hill|Populated Place|36432|U6|||39|OH|1|105|Meigs|39.1047987|-82.0993103|07/12/1979|
1048855|Hubbard|Populated Place|36582|P1|3620|393620155|39|OH|1|155|Trumbull|41.1564463|-80.569239|07/12/1979|03/20/2008
1048856|Huber Heights|Populated Place|36610|P1|3622|393622113|39|OH|1|113|Montgomery|39.843947|-84.1246608|07/12/1979|03/20/2008
1048856|Huber Heights|Populated Place|36610|P1|3622|393622109|39|OH|2|109|Miami|39.843947|-84.1246608|07/12/1979|03/20/2008
1048857|Hudson|Populated Place|36651|P1|3630|393630153|39|OH|1|153|Summit|41.240056|-81.440667|07/12/1979|03/20/2008
1048858|Hume|Populated Place|36778|U6|||39|OH|1|003|Allen|40.6631053|-84.200783|07/12/1979|
1048859|Idlewood|Populated Place|37175|U6|||39|OH|1|061|Hamilton|39.1486705|-84.4741089|07/12/1979|
1048860|Immergrun|Populated Place|37226|U4|||39|OH|1|095|Lucas|41.6892144|-83.4221537|07/12/1979|
1048862|Indian Camp|Populated Place|37282|U6|||39|OH|1|059|Guernsey|40.0945162|-81.6456794|07/12/1979|
1048863|Ingomar|Populated Place|37352|U6|||39|OH|1|135|Preble|39.7119981|-84.4999491|07/12/1979|
1048864|Ironville|Populated Place|37478|U4|||39|OH|1|095|Lucas|41.6758817|-83.4754882|07/12/1979|
1048865|Island View|Populated Place|37548|U6|||39|OH|1|091|Logan|40.516161|-83.8860497|07/12/1979|
1048866|Jackson Heights|Populated Place|38234|U6|||39|OH|1|079|Jackson|39.0314618|-82.6279423|07/12/1979|
1048867|Jacksonville|Populated Place|38318|U6|||39|OH|1|023|Clark|39.9586708|-83.8646528|07/12/1979|
1048871|Jefferson|Populated Place|38584|U6|||39|OH|1|045|Fairfield|39.8139526|-82.760727|07/12/1979|
1048872|Jefferson Estates|Populated Place|38878|U6|||39|OH|1|129|Pickaway|39.5667289|-82.9524024|07/12/1979|
1048873|Jewell|Populated Place|39158|U6|3829|393829039|39|OH|1|039|Defiance|41.3258822|-84.2855025|07/12/1979|
1048875|Johnstown|Populated Place|39340|P1|3840|393840089|39|OH|1|089|Licking|40.1536742|-82.6851699|07/12/1979|03/20/2008
1048876|Jones City|Populated Place|39400|U6|||39|OH|1|137|Putnam|40.8814399|-84.1816146|07/12/1979|
1048879|Jordanville|Populated Place|39420|U6|||39|OH|1|029|Columbiana|40.7697823|-80.7561886|07/12/1979|
1048880|Jug Run|Populated Place|39438|U6|||39|OH|1|081|Jefferson|40.212015|-80.7475822|07/12/1979|
1048881|Jump|Populated Place|39466|U6|||39|OH|1|065|Hardin|40.6158849|-83.79438|07/12/1979|
1048882|Kansas|Populated Place|39578|U5|3864|393864147|39|OH|1|147|Seneca|41.2450533|-83.2846453|07/12/1979|01/29/2011
1048884|Kenricksville|Populated Place|39835|U6|||39|OH|1|165|Warren|39.5511708|-84.1654922|07/12/1979|
1048885|Kenwood Hills|Populated Place|39960|U6|||39|OH|1|061|Hamilton|39.1672818|-84.3821622|07/12/1979|
1048886|Kenwood Knolls|Populated Place|39965|U6|||39|OH|1|061|Hamilton|39.2167255|-84.3752178|07/12/1979|
1048887|Kettering|Populated Place|40040|P1|3895|393895113|39|OH|1|113|Montgomery|39.6895036|-84.1688274|07/12/1979|03/20/2008
1048887|Kettering|Populated Place|40040|P1|3895|393895057|39|OH|2|057|Greene|39.6895036|-84.1688274|07/12/1979|03/20/2008
1048888|Kinsman|Populated Place|40474|U6|||39|OH|1|013|Belmont|40.1336813|-80.904536|07/12/1979|
1048889|Klines Corner|Populated Place|40745|U6|||39|OH|1|155|Trumbull|41.1833906|-80.6645206|07/12/1979|
1048890|Kolmont|Populated Place|40922|U6|||39|OH|1|081|Jefferson|40.3122915|-80.66091|07/12/1979|
1048891|Krumroy|Populated Place|40964|U6|3962|393962153|39|OH|1|153|Summit|41.0150561|-81.4731698|07/12/1979|
1048892|La Croft|Populated Place|41090|U5|||39|OH|1|029|Columbiana|40.6458972|-80.5978492|07/12/1979|03/20/2008
1048893|Lake View|Populated Place|41600|U6|||39|OH|1|083|Knox|40.4989497|-82.5259985|07/12/1979|
1048894|Lake Cable|Populated Place|41356|U6|||39|OH|1|151|Stark|40.8600575|-81.4484491|07/12/1979|
1048895|Lake Lucerne|Populated Place|41426|U6|||39|OH|1|055|Geauga|41.4050536|-81.3381643|07/12/1979|
1048896|Lake Milton|Populated Place|41440|U6|3998|393998099|39|OH|1|099|Mahoning|41.0995019|-80.9703684|07/12/1979|
1048897|Lake View Heights|Populated Place|41618|U6|||39|OH|1|131|Pike|39.1072908|-83.0304566|07/12/1979|
1048898|Lakeland|Populated Place|41380|U6|||39|OH|1|121|Noble|39.8872939|-81.3740057|07/12/1979|
1048899|Lakeland Beach|Populated Place|41384|U6|||39|OH|1|075|Holmes|40.6642264|-82.1054302|07/12/1979|
1048900|Lakemont Landing|Populated Place|41445|U6|||39|OH|1|095|Lucas|41.6731024|-83.2804834|07/12/1979|
1048901|Lakemore|Populated Place|41454|P1|4000|394000153|39|OH|1|153|Summit|41.0208896|-81.4359458|07/12/1979|03/20/2008
1048902|Lakeview|Populated Place|41612|U6|||39|OH|1|121|Noble|39.9220162|-81.4331742|07/12/1979|
1048903|Lancaster|Populated Place|41720|P1|4050|394050045|39|OH|1|045|Fairfield|39.7136754|-82.5993294|07/12/1979|03/20/2008
1048904|Landin Park|Populated Place|41756|U6|||39|OH|1|109|Miami|40.1356065|-84.2705013|07/12/1979|
1048905|Landis|Populated Place|41758|U6|||39|OH|1|037|Darke|40.0542168|-84.5030071|07/12/1979|
1048906|Lane|Populated Place|41760|U6|||39|OH|1|085|Lake|41.7508796|-81.1812109|07/12/1979|
1048907|Lashley|Populated Place|41910|U6|||39|OH|1|121|Noble|39.9186827|-81.4003953|07/12/1979|
1048908|Laura|Populated Place|42028|P1|4080|394080109|39|OH|1|109|Miami|39.9947741|-84.4080045|07/12/1979|03/20/2008
1048909|Lawshe|Populated Place|42224|U6|||39|OH|1|001|Adams|38.9406258|-83.4696368|07/12/1979|
1048910|Lawyerdale Estates|Populated Place|42238|U6|||39|OH|1|061|Hamilton|39.1047831|-84.3516056|07/12/1979|
1048911|Layland|Populated Place|42266|U6|||39|OH|1|031|Coshocton|40.4361773|-81.9668092|07/12/1979|
1048912|Lexington|Populated Place|43008|U6|||39|OH|1|151|Stark|40.9620026|-81.1045416|07/12/1979|
1048913|Licking View|Populated Place|43484|U6|||39|OH|1|119|Muskingum|39.9539563|-82.033193|07/12/1979|
1048915|Lightsville|Populated Place|43526|U6|||39|OH|1|037|Darke|40.2853248|-84.7127375|07/12/1979|
1048916|Lima|Populated Place|43554|P1|4220|394220003|39|OH|1|003|Allen|40.742551|-84.1052256|07/12/1979|03/20/2008
1048917|Limestone City|Populated Place|43666|U6|||39|OH|1|023|Clark|39.9120041|-83.8765971|07/12/1979|
1048918|Lincoln Heights|Populated Place|43755|U6|||39|OH|1|105|Meigs|39.026467|-82.0487526|07/12/1979|
1048919|Lincoln Heights|Populated Place|43722|P1|4250|394250061|39|OH|1|061|Hamilton|39.2389469|-84.4554979|07/12/1979|03/20/2008
1048920|Lincoln Heights|Populated Place|43764|U6|||39|OH|1|139|Richland|40.7714455|-82.4843347|07/12/1979|
1048921|Lincolnville|Populated Place|43806|U6|||39|OH|1|071|Highland|39.0986789|-83.401858|07/12/1979|
1048922|Lisbon|Populated Place|44016|U6|||39|OH|1|023|Clark|39.8608934|-83.6352011|07/12/1979|
1048924|Little Chicago|Populated Place|44100|U6|||39|OH|1|129|Pickaway|39.7222852|-82.9526807|07/12/1979|
1048925|Little Richmond|Populated Place|44142|U6|||39|OH|1|113|Montgomery|39.7742209|-84.4443926|07/12/1979|
1048926|Little Walnut|Populated Place|44170|U6|||39|OH|1|129|Pickaway|39.6842294|-82.9710148|07/12/1979|
1048927|Little Washington|Populated Place|44184|U6|||39|OH|1|139|Richland|40.6958911|-82.4726667|07/12/1979|
1048928|Lockville Station|Populated Place|44422|U6|||39|OH|1|045|Fairfield|39.8336749|-82.7440597|07/12/1979|
1048930|Locust Lake|Populated Place|44548|U6|||39|OH|1|025|Clermont|39.0264521|-84.2332694|07/12/1979|
1048931|Long Beach|Populated Place|44758|U6|||39|OH|1|123|Ottawa|41.6142156|-83.112143|07/12/1979|
1048932|Long Run|Populated Place|44786|U6|||39|OH|1|081|Jefferson|40.1950702|-80.8156417|07/12/1979|
1048934|Loomis|Populated Place|44850|U6|||39|OH|1|013|Belmont|40.0286819|-81.008431|07/12/1979|
1048935|Lottridge|Populated Place|44996|U6|||39|OH|1|009|Athens|39.2272978|-81.8973592|07/12/1979|
1048936|Lowellville|Populated Place|45178|P1|4420|394420099|39|OH|1|099|Mahoning|41.0353371|-80.5364593|07/12/1979|03/20/2008
1048938|Lucasburg|Populated Place|45290|U6|||39|OH|1|059|Guernsey|39.9545165|-81.5692897|07/12/1979|
1048939|Luckey|Populated Place|45332|P1|4450|394450173|39|OH|1|173|Wood|41.4506077|-83.48743|07/12/1979|03/20/2008
1048940|Lynnview|Populated Place|45608|U6|||39|OH|1|061|Hamilton|39.2361686|-84.5568892|07/12/1979|
1048941|Macedon|Populated Place|45962|U6|||39|OH|1|107|Mercer|40.4794907|-84.7524619|07/12/1979|
1048942|Madden Corners|Populated Place|46275|U6|||39|OH|1|155|Trumbull|41.2106129|-80.740357|07/12/1979|
1048943|Madison Hill|Populated Place|46680|U6|||39|OH|1|169|Wayne|40.784501|-81.9331984|07/12/1979|
1048944|Madison Lake|Populated Place|46685|U6|||39|OH|1|097|Madison|39.870894|-83.3796402|07/12/1979|
1048945|Maple Heights|Populated Place|47306|P1|4685|394685035|39|OH|1|035|Cuyahoga|41.4153313|-81.565956|07/12/1979|03/20/2008
1048946|Marcy|Populated Place|47544|U6|||39|OH|1|129|Pickaway|39.7517302|-82.8285078|07/12/1979|
1048946|Marcy|Populated Place|47544|U6|||39|OH|2|045|Fairfield|39.7517302|-82.8285078|07/12/1979|
1048947|Marlain Acres|Populated Place|47894|U6|||39|OH|1|061|Hamilton|39.2325579|-84.5041103|07/12/1979|
1048948|Martin|Populated Place|48076|U6|4765|394765123|39|OH|1|123|Ottawa|41.5575498|-83.336594|07/12/1979|
1048949|Marysville|Populated Place|48155|U6|||39|OH|1|059|Guernsey|39.9472944|-81.6034576|07/12/1979|
1048952|Masury|Populated Place|48272|U5|4830|394830155|39|OH|1|155|Trumbull|41.2111676|-80.5378495|07/12/1979|03/20/2008
1048953|Matville|Populated Place|48300|U6|||39|OH|1|129|Pickaway|39.7639512|-83.1001869|07/12/1979|
1048955|Maysville|Populated Place|48562|U6|||39|OH|1|119|Muskingum|39.8961788|-82.0340273|07/12/1979|
1048956|McCance|Populated Place|45710|U6|||39|OH|1|169|Wayne|40.697836|-81.8840288|07/12/1979|
1048957|McDonald|Populated Place|45934|P1|4540|394540155|39|OH|1|155|Trumbull|41.1636687|-80.7242449|07/12/1979|03/20/2008
1048958|McGuffey Heights|Populated Place|46060|U4|||39|OH|1|099|Mahoning|41.1267246|-80.5872951|07/12/1979|
1048959|McIntyre|Populated Place|46074|U6|||39|OH|1|081|Jefferson|40.3067354|-80.7811943|07/12/1979|
1048960|McKinley Heights|Populated Place|46144|U5|||39|OH|1|155|Trumbull|41.1836685|-80.7173004|07/12/1979|01/29/2011
1048961|McMorran|Populated Place|46214|U6|||39|OH|1|091|Logan|40.3894961|-83.8482695|07/12/1979|
1048962|McDermott|Populated Place|45906|U5|4535|394535145|39|OH|1|145|Scioto|38.8347964|-83.0648995|07/12/1979|01/29/2011
1048963|McGaw|Populated Place|46010|U6|||39|OH|1|145|Scioto|38.6378542|-83.2246256|07/12/1979|
1048964|McKendree|Populated Place|46125|U6|||39|OH|1|097|Madison|39.7858943|-83.2718596|07/12/1979|
1048965|Meadowbrook|Populated Place|48608|U6|||39|OH|1|119|Muskingum|39.997845|-82.0351369|07/12/1979|
1048966|Meigs|Populated Place|48895|U6|||39|OH|1|105|Meigs|39.1659099|-81.8973589|07/12/1979|
1048967|Melmore|Populated Place|48972|U5|4895|394895147|39|OH|1|147|Seneca|41.0239447|-83.1093604|07/12/1979|01/29/2011
1048968|Metamora|Populated Place|49238|P1|4940|394940051|39|OH|1|051|Fulton|41.7117178|-83.9096648|07/12/1979|03/20/2008
1048969|Metzger|Populated Place|49252|U6|||39|OH|1|141|Ross|39.3936745|-82.9557347|07/12/1979|
1048970|Mexico|Populated Place|49266|U6|||39|OH|1|175|Wyandot|40.9864448|-83.193252|07/12/1979|
1048971|Meyers Lake|Populated Place|49294|P1|4950|394950151|39|OH|1|151|Stark|40.8125581|-81.4165041|07/12/1979|03/20/2008
1048972|Miami Villa|Populated Place|49490|U6|||39|OH|1|113|Montgomery|39.8472798|-84.1699404|07/12/1979|
1048973|Middleburg|Populated Place|49612|U6|||39|OH|1|081|Jefferson|40.4547875|-80.8803649|07/12/1979|
1048974|Middleburg Heights|Populated Place|49644|P1|4970|394970035|39|OH|1|035|Cuyahoga|41.3614401|-81.812912|07/12/1979|03/20/2008
1048975|Midvale|Populated Place|49966|P1|5030|395030157|39|OH|1|157|Tuscarawas|40.4378434|-81.3731675|07/12/1979|03/20/2008
1048976|Millerstown|Populated Place|50414|U6|||39|OH|1|021|Champaign|40.1569997|-83.9213241|07/12/1979|
1048977|Millersville|Populated Place|50428|U6|||39|OH|1|143|Sandusky|41.311997|-83.2813124|07/12/1979|
1048978|Millport|Populated Place|50498|U6|||39|OH|1|129|Pickaway|39.7156185|-82.9729594|07/12/1979|
1048979|Millville|Populated Place|50554|U6|||39|OH|1|099|Mahoning|40.9058924|-80.8064697|07/12/1979|
1048980|Minersville|Populated Place|50806|U6|5176|395176105|39|OH|1|105|Meigs|39.0225785|-81.9934726|07/12/1979|
1048981|Moline|Populated Place|51114|U6|5222|395222173|39|OH|1|173|Wood|41.5586621|-83.5113208|07/12/1979|
1048982|Mononcue|Populated Place|51254|U6|||39|OH|1|175|Wyandot|40.8272786|-83.2685307|07/12/1979|
1048983|Montville|Populated Place|51828|U6|5272|395272055|39|OH|1|055|Geauga|41.6072757|-81.0503742|07/12/1979|
1048984|Moraine|Populated Place|52010|P1|5275|395275113|39|OH|1|113|Montgomery|39.7061702|-84.2193849|07/12/1979|03/20/2008
1048985|Morgan Place|Populated Place|52192|U6|||39|OH|1|113|Montgomery|39.863667|-84.2852223|07/12/1979|
1048986|Moultrie|Populated Place|52486|U6|||39|OH|1|029|Columbiana|40.7964478|-81.0709293|07/12/1979|
1048987|Mount Lookout|Populated Place|52878|U4|||39|OH|1|061|Hamilton|39.1289488|-84.4302188|07/12/1979|
1048988|Mount Carmel|Populated Place|52640|U6|||39|OH|1|143|Sandusky|41.2711649|-82.9368571|07/12/1979|
1048989|Mount Carmel Heights|Populated Place|52654|U6|||39|OH|1|025|Clermont|39.1183942|-84.3010488|07/12/1979|
1048990|Mount Forest Trails|Populated Place|52724|U6|||39|OH|1|025|Clermont|39.099228|-84.299382|07/12/1979|
1048992|Mount Perry|Populated Place|52934|U6|5385|395385127|39|OH|1|127|Perry|39.8786789|-82.219868|07/12/1979|
1048993|Mount Pleasant|Populated Place|52976|P1|||39|OH|1|081|Jefferson|40.1753485|-80.7978631|07/12/1979|03/20/2008
1048994|Mount Repose|Populated Place|53032|U5|||39|OH|1|025|Clermont|39.2006156|-84.2243805|07/12/1979|03/20/2008
1048995|Mount Saint John|Populated Place|53035|U6|||39|OH|1|057|Greene|39.7186704|-84.0996587|07/12/1979|
1048996|Mount Summit|Populated Place|53075|U6|||39|OH|1|061|Hamilton|39.0886724|-84.3299384|07/12/1979|
1048997|Mountview|Populated Place|53150|U6|||39|OH|1|061|Hamilton|39.1153366|-84.6627239|07/12/1979|
1048998|Mulberry Grove|Populated Place|53275|U6|||39|OH|1|109|Miami|40.102551|-84.3296694|07/12/1979|
1049000|Nasby|Populated Place|53588|U6|||39|OH|1|095|Lucas|41.6303282|-83.611324|07/12/1979|
1049001|Nashport|Populated Place|53606|U6|5483|395483119|39|OH|1|119|Muskingum|40.0706231|-82.1756986|07/12/1979|
1049002|Nashville|Populated Place|53648|U6|||39|OH|1|109|Miami|39.9653317|-84.2796677|07/12/1979|
1049003|Neapolis|Populated Place|53718|U5|5495|395495095|39|OH|1|095|Lucas|41.4928302|-83.8732751|07/12/1979|01/29/2011
1049003|Neapolis|Populated Place|53718|U5|5495|395495075|39|OH|2|075|Holmes|41.4928302|-83.8732751|07/12/1979|01/29/2011
1049005|New Baltimore|Populated Place|54096|U6|||39|OH|1|151|Stark|40.9845023|-81.2495486|07/12/1979|
1049006|New Germany|Populated Place|54586|U6|||39|OH|1|057|Greene|39.7747813|-84.0799363|07/12/1979|
1049007|New Hampshire|Populated Place|54628|U5|5664|395664011|39|OH|1|011|Auglaize|40.5561607|-83.952719|07/12/1979|01/29/2011
1049008|New Harmony|Populated Place|54642|U6|||39|OH|1|015|Brown|39.0136767|-84.0121545|07/12/1979|
1049009|New Harrison|Populated Place|54670|U6|||39|OH|1|037|Darke|40.1122715|-84.5174522|07/12/1979|
1049010|New Rome|Populated Place|55426|U6|5800|395800049|39|OH|1|049|Franklin|39.9517297|-83.1421331|07/12/1979|03/20/2008
1049011|New Salem|Populated Place|55468|U6|||39|OH|1|045|Fairfield|39.8478423|-82.4723785|07/12/1979|
1049011|New Salem|Populated Place|55468|U6|||39|OH|2|127|Perry|39.8478423|-82.4723785|07/12/1979|
1049012|Newell|Populated Place|54488|U6|||39|OH|1|081|Jefferson|40.2603469|-80.8361981|07/12/1979|
1049013|Newville|Populated Place|55762|U6|||39|OH|1|139|Richland|40.6303373|-82.3854412|07/12/1979|
