FEATURE_ID|FEATURE_NAME|FEATURE_CLASS|CENSUS_CODE|CENSUS_CLASS_CODE|GSA_CODE|OPM_CODE|STATE_NUMERIC|STATE_ALPHA|COUNTY_SEQUENCE|COUNTY_NUMERIC|COUNTY_NAME|PRIMARY_LATITUDE|PRIMARY_LONGITUDE|DATE_CREATED|DATE_EDITED
1253581|Aberdeen|Populated Place|00100|P1|0010|460010013|46|SD|1|013|Brown|45.4646985|-98.4864829|02/13/1980|01/23/2018
1253585|Academy|Populated Place|00180|U6|0013|460013023|46|SD|1|023|Charles Mix|43.4563876|-99.0798134|02/13/1980|
1253593|Agar|Populated Place|00460|P1|0020|460020119|46|SD|1|119|Sully|44.8383153|-100.0745668|02/13/1980|02/28/2018
1253600|Albee|Populated Place|00620|P1|0040|460040051|46|SD|1|051|Grant|45.0521869|-96.5533899|02/13/1980|02/06/2018
1253607|Alcester|Populated Place|00700|P1|0050|460050127|46|SD|1|127|Union|43.0213783|-96.6308708|02/13/1980|02/28/2018
1253612|Alexandria|Populated Place|00820|P1|0060|460060061|46|SD|1|061|Hanson|43.653592|-97.7828482|02/13/1980|03/20/2008
1253631|Alpena|Populated Place|01020|P1|0070|460070073|46|SD|1|073|Jerauld|44.1813767|-98.365646|02/13/1980|03/20/2008
1253633|Altamont|Populated Place|01140|P1|0080|460080039|46|SD|1|039|Deuel|44.8396869|-96.6895039|02/13/1980|02/06/2018
1253644|Amherst|Populated Place|01420|U6|0085|460085091|46|SD|1|091|Marshall|45.7380069|-97.9212165|02/13/1980|
1253659|Antelope|Populated Place|01740|U5|||46|SD|1|121|Todd|43.3030592|-100.6293047|02/13/1980|03/20/2008
1253681|Arlington Beach|Populated Place|02220|U6|||46|SD|1|011|Brookings|44.5338553|-97.0978447|02/13/1980|
1253684|Armour|Populated Place|02260|P1|0120|460120043|46|SD|1|043|Douglas|43.3186012|-98.3467455|02/13/1980|02/06/2018
1253695|Artas|Populated Place|02340|P1|||46|SD|1|021|Campbell|45.8880399|-99.8065067|02/13/1980|01/29/2018
1253718|Astoria|Populated Place|02580|P1|0150|460150039|46|SD|1|039|Deuel|44.5582971|-96.547273|02/13/1980|02/06/2018
1253728|Aurora|Populated Place|02780|P1|0160|460160011|46|SD|1|011|Brookings|44.2841348|-96.685606|02/13/1980|03/20/2008
1253729|Aurora Center|Populated Place|02860|U5|||46|SD|1|003|Aurora|43.5269365|-98.5898055|02/13/1980|03/20/2008
1253731|Avon|Populated Place|02900|P1|0170|460170009|46|SD|1|009|Bon Homme|43.0049954|-98.0597954|02/13/1980|01/23/2018
1253738|Badger|Populated Place|03060|P1|0180|460180077|46|SD|1|077|Kingsbury|44.4852447|-97.2047916|02/13/1980|03/20/2008
1253760|Bancroft|Populated Place|03420|P1|0200|460200077|46|SD|1|077|Kingsbury|44.488028|-97.7500834|02/13/1980|03/20/2008
1253773|Barnard|Populated Place|03660|U6|0202|460202013|46|SD|1|013|Brown|45.7324748|-98.4964855|02/13/1980|
1253782|Batesland|Populated Place|03860|P1|0205|460205102|46|SD|1|102|Oglala Lakota|43.1294379|-102.102097|02/13/1980|03/20/2008
1253783|Bath|Populated Place|03900|U5|0207|460207013|46|SD|1|013|Brown|45.4683025|-98.3237067|02/13/1980|01/29/2011
1253809|Bear Creek|Populated Place|04020|U6|||46|SD|1|041|Dewey|45.0622031|-101.4459883|02/13/1980|
1253842|Belvidere|Populated Place|04620|P1|0220|460220071|46|SD|1|071|Jackson|43.8319373|-101.271531|02/13/1980|03/20/2008
1253927|Big Stone City|Populated Place|05540|P1|0240|460240051|46|SD|1|051|Grant|45.2916316|-96.4628344|02/13/1980|02/06/2018
1253933|Billsburg|Populated Place|05600|U6|||46|SD|1|055|Haakon|44.4005405|-101.6801452|02/13/1980|
1253935|Bison|Populated Place|05620|P1|0250|460250105|46|SD|1|105|Perkins|45.5202647|-102.4612708|02/13/1980|03/20/2008
1253941|Bixby|Populated Place|05670|U6|||46|SD|1|105|Perkins|45.1483192|-102.5618276|02/13/1980|
1253984|Blunt|Populated Place|06180|P1|0260|460260065|46|SD|1|065|Hughes|44.5122043|-99.9920665|02/13/1980|03/20/2008
1254006|Bonesteel|Populated Place|06220|P1|0270|460270053|46|SD|1|053|Gregory|43.0763861|-98.9445349|02/13/1980|03/20/2008
1254008|Bonilla|Populated Place|06340|U6|||46|SD|1|005|Beadle|44.5827589|-98.4992613|02/13/1980|
1254024|Bowdle|Populated Place|06540|P1|0280|460280045|46|SD|1|045|Edmunds|45.4530375|-99.6540068|02/13/1980|02/06/2018
1254028|Box Elder|Populated Place|06620|P1|0285|460285103|46|SD|1|103|Pennington|44.1124877|-103.0682323|02/13/1980|02/28/2018
1254035|Bradley|Populated Place|06660|P1|0290|460290025|46|SD|1|025|Clark|45.0905157|-97.6436969|02/13/1980|01/29/2018
1254042|Brandon|Populated Place|06840|P1|0295|460295099|46|SD|1|099|Minnehaha|43.5946963|-96.5719896|02/13/1980|02/16/2018
1254056|Brentford|Populated Place|07060|P1|0310|460310115|46|SD|1|115|Spink|45.1602486|-98.3228702|02/13/1980|02/28/2018
1254058|Bridger|Populated Place|07140|U6|||46|SD|1|137|Ziebach|44.5458193|-101.911264|02/13/1980|
1254060|Bridgewater|Populated Place|07180|P1|0320|460320087|46|SD|1|087|McCook|43.5516489|-97.507566|02/13/1980|02/15/2018
1254065|Bristol|Populated Place|07300|P1|0330|460330037|46|SD|1|037|Day|45.3446765|-97.7484272|02/13/1980|02/01/2018
1254066|Britton|Populated Place|07380|P1|0340|460340091|46|SD|1|091|Marshall|45.7916192|-97.7509366|02/13/1980|03/20/2008
1254068|Broadland|Populated Place|07420|P1|0350|460350005|46|SD|1|005|Beadle|44.4924824|-98.3492596|02/13/1980|01/16/2018
1254074|Brookings|Populated Place|07580|P1|0360|460360011|46|SD|1|011|Brookings|44.3113573|-96.7983877|02/13/1980|03/20/2008
1254084|Bruce|Populated Place|07740|P1|0370|460370011|46|SD|1|011|Brookings|44.4380228|-96.8900589|02/13/1980|03/20/2008
1254101|Bryant|Populated Place|08060|P1|0380|460380057|46|SD|1|057|Hamlin|44.5905226|-97.4673006|02/13/1980|02/06/2018
1254110|Buffalo|Populated Place|08140|P1|0390|460390063|46|SD|1|063|Harding|45.5841637|-103.5460251|02/13/1980|02/15/2018
1254122|Buffalo Gap|Populated Place|08340|P1|0400|460400033|46|SD|1|033|Custer|43.4916502|-103.312975|02/13/1980|02/01/2018
1254153|Bullhead|Populated Place|08460|U5|0405|460405031|46|SD|1|031|Corson|45.7655532|-101.0806929|02/13/1980|03/20/2008
1254159|Bunker (historical)|Populated Place|08470|U6|||46|SD|1|117|Stanley|44.2385957|-101.1018073|02/13/1980|
1254165|Burke|Populated Place|08700|P1|0410|460410053|46|SD|1|053|Gregory|43.1824998|-99.2920453|02/13/1980|02/06/2018
1254173|Bushnell|Populated Place|08820|P1|0420|460420011|46|SD|1|011|Brookings|44.3285783|-96.6425497|02/13/1980|03/20/2008
1254176|Butler|Populated Place|08860|P1|0430|460430037|46|SD|1|037|Day|45.2588447|-97.7123132|02/13/1980|02/01/2018
1254208|Camp Crook|Populated Place|09260|P1|0440|460440063|46|SD|1|063|Harding|45.5502732|-103.9746555|02/13/1980|02/15/2018
1254224|Canistota|Populated Place|09300|P1|0450|460450087|46|SD|1|087|McCook|43.5977584|-97.2906172|02/13/1980|02/15/2018
1254226|Canning|Populated Place|09380|U6|||46|SD|1|065|Hughes|44.3963716|-100.0320677|02/13/1980|
1254228|Canton|Populated Place|09500|P1|0470|460470083|46|SD|1|083|Lincoln|43.3008146|-96.5928198|02/13/1980|02/15/2018
1254232|Capa|Populated Place|09620|U6|0472|460472075|46|SD|1|075|Jones|44.1088749|-100.9781948|02/13/1980|
1254248|Carpenter|Populated Place|10020|U6|0475|460475025|46|SD|1|025|Clark|44.6374734|-97.9167552|02/13/1980|
1254257|Carter|Populated Place|10140|U6|0480|460480123|46|SD|1|123|Tripp|43.3872233|-100.202629|02/13/1980|
1254274|Cavour|Populated Place|10620|P1|0510|460510005|46|SD|1|005|Beadle|44.36998|-98.0378656|02/13/1980|01/16/2018
1254278|Cedar Butte|Populated Place|10740|U6|||46|SD|1|095|Mellette|43.5769432|-101.0184777|02/13/1980|
1254289|Cedar Grove Colony|Populated Place|10835|U6|||46|SD|1|015|Brule|43.5302733|-98.8078637|02/13/1980|
1254319|Chance|Populated Place|11335|U6|||46|SD|1|105|Perkins|45.4099833|-102.2812741|02/13/1980|
1254320|Chancellor|Populated Place|11380|P1|0550|460550125|46|SD|1|125|Turner|43.3722033|-96.986997|02/13/1980|03/20/2008
1254339|Chelsea|Populated Place|11500|P1|0560|460560049|46|SD|1|049|Faulk|45.1685864|-98.7395464|02/13/1980|02/06/2018
1254340|Cherry Creek|Populated Place|11540|U6|0562|460562137|46|SD|1|137|Ziebach|44.60554|-101.49987|02/13/1980|
1254346|Chester|Populated Place|11660|U5|0563|460563079|46|SD|1|079|Lake|43.8949736|-96.926445|02/13/1980|01/29/2011
1254369|Claire City|Populated Place|12020|P1|0570|460570109|46|SD|1|109|Roberts|45.8571812|-97.1036974|02/13/1980|03/20/2008
1254373|Claremont|Populated Place|12100|P1|0580|460580013|46|SD|1|013|Brown|45.6718976|-98.0156602|02/13/1980|01/23/2018
1254375|Clark Colony|Populated Place|12340|U6|||46|SD|1|115|Spink|44.7894155|-97.9803683|02/13/1980|
1254389|Clayton|Populated Place|12420|U6|||46|SD|1|067|Hutchinson|43.4435952|-97.657844|02/13/1980|
1254396|Clear Lake|Populated Place|12540|P1|0600|460600039|46|SD|1|039|Deuel|44.7457977|-96.6825584|02/13/1980|02/06/2018
1254410|Cloverleaf Colony|Populated Place|13010|U6|||46|SD|1|097|Miner|44.1824716|-97.5370166|02/13/1980|
1254417|Coal Springs|Populated Place|13090|U6|||46|SD|1|105|Perkins|45.4416481|-102.1076557|02/13/1980|
1254433|Colman|Populated Place|13220|P1|0610|460610101|46|SD|1|101|Moody|43.9824719|-96.8144974|02/13/1980|03/20/2008
1254435|Colome|Populated Place|13300|P1|0620|460620123|46|SD|1|123|Tripp|43.2605567|-99.7151134|02/13/1980|02/28/2018
1254438|Colton|Populated Place|13380|P1|0630|460630099|46|SD|1|099|Minnehaha|43.7860862|-96.9275557|02/13/1980|02/16/2018
1254445|Conde|Populated Place|13700|P1|0650|460650115|46|SD|1|115|Spink|45.1571854|-98.0975923|02/13/1980|03/20/2008
1254469|Corsica|Populated Place|13980|P1|0670|460670043|46|SD|1|043|Douglas|43.4252676|-98.4073023|02/13/1980|03/20/2008
1254471|Corson|Populated Place|14020|U6|0675|460675099|46|SD|1|099|Minnehaha|43.6163628|-96.5717118|02/13/1980|
1254533|Crandall|Populated Place|14380|U6|||46|SD|1|037|Day|45.1552372|-97.9556475|02/13/1980|
1254541|Cresbard|Populated Place|14580|P1|0690|460690049|46|SD|1|049|Faulk|45.1699736|-98.9484416|02/13/1980|02/06/2018
1254544|Crocker|Populated Place|14660|U5|0693|460693025|46|SD|1|025|Clark|45.1052371|-97.7848105|02/13/1980|01/29/2011
1254595|Dallas|Populated Place|15300|P1|0710|460710053|46|SD|1|053|Gregory|43.2361121|-99.517053|02/13/1980|02/06/2018
1254601|Dante|Populated Place|15420|P1|0720|460720023|46|SD|1|023|Charles Mix|43.0386053|-98.1842432|02/13/1980|01/29/2018
1254605|Date|Populated Place|15530|U6|||46|SD|1|105|Perkins|45.3672095|-102.6796054|02/13/1980|
1254609|Davis|Populated Place|15540|P1|0730|460730125|46|SD|1|125|Turner|43.2574838|-96.9956061|02/13/1980|02/28/2018
1254665|Delmont|Populated Place|16060|P1|0760|460760043|46|SD|1|043|Douglas|43.2674898|-98.1622978|02/13/1980|02/06/2018
1254669|Dempster|Populated Place|16100|U6|0765|460765057|46|SD|1|057|Hamlin|44.6319099|-96.9517306|02/13/1980|
1254684|Dezera|Populated Place|16510|U6|||46|SD|1|023|Charles Mix|43.1652708|-98.5017476|02/13/1980|
1254690|Dimock|Populated Place|16620|P1|0775|460775067|46|SD|1|067|Hutchinson|43.4741517|-97.9856277|02/13/1980|03/20/2008
1254704|Dixon|Populated Place|16685|U6|||46|SD|1|053|Gregory|43.3833338|-99.473161|02/13/1980|
1254722|Doland|Populated Place|16820|P1|0780|460780115|46|SD|1|115|Spink|44.8958034|-98.1006465|02/13/1980|02/28/2018
1254727|Dolton|Populated Place|16860|P1|0790|460790125|46|SD|1|125|Turner|43.4908161|-97.3856189|02/13/1980|03/20/2008
1254741|Draper|Populated Place|17020|P1|0800|460800075|46|SD|1|075|Jones|43.9260994|-100.5404127|02/13/1980|02/15/2018
1254861|East Sioux Falls|Populated Place|17940|U6|||46|SD|1|099|Minnehaha|43.5269192|-96.6086572|02/13/1980|
1254878|Eden|Populated Place|18180|P1|0840|460840091|46|SD|1|091|Marshall|45.6166221|-97.4198154|02/13/1980|03/20/2008
1254887|Egan|Populated Place|18460|P1|0860|460860101|46|SD|1|101|Moody|43.9991383|-96.6489366|02/13/1980|03/20/2008
1254895|Elbon|Populated Place|18570|U6|||46|SD|1|055|Haakon|44.2808183|-101.6884779|02/13/1980|
1254905|Elk Point|Populated Place|18620|P1|0870|460870127|46|SD|1|127|Union|42.6833303|-96.6836475|02/13/1980|02/28/2018
1254907|Elkton|Populated Place|18700|P1|0880|460880011|46|SD|1|011|Brookings|44.236079|-96.4811547|02/13/1980|03/20/2008
1254933|Emery|Populated Place|19420|P1|0890|460890061|46|SD|1|061|Hanson|43.6016478|-97.6225672|02/13/1980|03/20/2008
1254952|Enning|Populated Place|19660|U6|0895|460895093|46|SD|1|093|Meade|44.5755441|-102.5632234|02/13/1980|
1254958|Erwin|Populated Place|19860|P1|0900|460900077|46|SD|1|077|Kingsbury|44.4874678|-97.4450758|02/13/1980|03/20/2008
1254960|Estelline|Populated Place|19980|P1|0920|460920057|46|SD|1|057|Hamlin|44.5746881|-96.9022836|02/13/1980|02/06/2018
1254961|Ethan|Populated Place|20060|P1|0930|460930035|46|SD|1|035|Davison|43.5477621|-97.9881287|02/13/1980|03/20/2008
1254979|Fairfax|Populated Place|20380|P1|0960|460960053|46|SD|1|053|Gregory|43.027497|-98.8884228|02/13/1980|02/06/2018
1254984|Fairview|Populated Place|20780|P1|0970|460970083|46|SD|1|083|Lincoln|43.2216499|-96.4900368|02/13/1980|03/20/2008
1255004|Faith|Populated Place|20980|P1|0980|460980093|46|SD|1|093|Meade|45.0230391|-102.0359924|02/13/1980|02/15/2018
1255013|Farmer|Populated Place|21060|P1|0990|460990061|46|SD|1|061|Hanson|43.7238686|-97.6884035|02/13/1980|02/15/2018
1255021|Faulkton|Populated Place|21260|P1|1000|461000049|46|SD|1|049|Faulk|45.0349743|-99.1239979|02/13/1980|02/06/2018
1255027|Fedora|Populated Place|21340|U5|1005|461005097|46|SD|1|097|Miner|44.0088656|-97.7909105|02/13/1980|01/29/2011
1255039|Ferney|Populated Place|21380|U5|1006|461006013|46|SD|1|013|Brown|45.3305156|-98.0978733|02/13/1980|01/29/2011
1255047|Firesteel|Populated Place|21460|U6|||46|SD|1|041|Dewey|45.4247065|-101.2851477|02/13/1980|02/06/2018
1255073|Flandreau|Populated Place|21540|P1|1010|461010101|46|SD|1|101|Moody|44.0494154|-96.595324|02/13/1980|02/28/2018
1255090|Florence|Populated Place|21820|P1|1020|461020029|46|SD|1|029|Codington|45.0546849|-97.3298021|02/13/1980|02/01/2018
1255107|Forestburg|Populated Place|22100|U5|1022|461022111|46|SD|1|111|Sanborn|44.022206|-98.1081397|02/13/1980|01/29/2011
1255113|Fort Pierre|Populated Place|22260|P1|1030|461030117|46|SD|1|117|Stanley|44.3535933|-100.3737447|02/13/1980|02/28/2018
1255114|Fort Randall|Populated Place|22300|U6|||46|SD|1|053|Gregory|43.0244399|-98.6242505|02/13/1980|
1255117|Fort Thompson|Populated Place|22340|U5|1035|461035017|46|SD|1|017|Buffalo|44.068601|-99.4378846|02/13/1980|03/20/2008
1255142|Frankfort|Populated Place|22580|P1|1040|461040115|46|SD|1|115|Spink|44.8766409|-98.3053704|02/13/1980|03/20/2008
1255150|Frederick|Populated Place|22860|P1|1050|461050013|46|SD|1|013|Brown|45.8324741|-98.5062094|02/13/1980|03/20/2008
1255155|Freeman|Populated Place|23020|P1|1060|461060067|46|SD|1|067|Hutchinson|43.3524871|-97.4372863|02/13/1980|02/15/2018
1255175|Fruitdale|Populated Place|23140|P1|1070|461070019|46|SD|1|019|Butte|44.6683178|-103.6971416|02/13/1980|03/20/2008
1255181|Fulton|Populated Place|23220|P1|1080|461080061|46|SD|1|061|Hanson|43.7247032|-97.823684|02/13/1980|03/20/2008
1255196|Garden City|Populated Place|23460|P1|1090|461090025|46|SD|1|025|Clark|44.9582962|-97.581472|02/13/1980|03/20/2008
1255211|Garretson|Populated Place|23820|P1|1100|461100099|46|SD|1|099|Minnehaha|43.7174725|-96.5028209|02/13/1980|03/20/2008
1255217|Gayville|Populated Place|23900|P1|1120|461120135|46|SD|1|135|Yankton|42.8880517|-97.1722732|02/13/1980|02/28/2018
1255220|Geddes|Populated Place|23980|P1|1130|461130023|46|SD|1|023|Charles Mix|43.253604|-98.6953601|02/13/1980|03/20/2008
1255235|Gettysburg|Populated Place|24260|P1|1140|461140107|46|SD|1|107|Potter|45.0116474|-99.9556728|02/13/1980|02/28/2018
1255253|Glad Valley|Populated Place|24380|U6|1143|461143137|46|SD|1|137|Ziebach|45.3991461|-101.7776401|02/13/1980|
1255259|Glencross|Populated Place|24460|U6|1145|461145041|46|SD|1|041|Dewey|45.4483237|-100.9212546|02/13/1980|02/06/2018
1255260|Glendale Colony|Populated Place|24540|U6|||46|SD|1|115|Spink|44.79942|-98.2875931|02/13/1980|
1255262|Glenham|Populated Place|24620|P1|1150|461150129|46|SD|1|129|Walworth|45.5327704|-100.2715173|02/13/1980|02/28/2018
1255285|Goodwill|Populated Place|24775|U5|||46|SD|1|109|Roberts|45.5669043|-97.0700817|02/13/1980|01/29/2011
1255353|Green Grass|Populated Place|25900|U5|||46|SD|1|041|Dewey|45.1710912|-101.2459852|02/13/1980|03/20/2008
1255367|Greenwood Colony|Populated Place|26150|U6|||46|SD|1|043|Douglas|43.2133241|-98.1511865|02/13/1980|
1255368|Gregory|Populated Place|26180|P1|1170|461170053|46|SD|1|053|Gregory|43.2322227|-99.4303833|02/13/1980|02/06/2018
1255370|Grenville|Populated Place|26220|P1|1180|461180037|46|SD|1|037|Day|45.4669018|-97.3937004|02/13/1980|03/20/2008
1255373|Grindstone|Populated Place|26310|U6|||46|SD|1|055|Haakon|44.1391538|-101.9673731|02/13/1980|
1255377|Groton|Populated Place|26340|P1|1190|461190013|46|SD|1|013|Brown|45.4474588|-98.0987093|02/13/1980|01/23/2018
1255403|Hamill|Populated Place|26660|U5|1195|461195123|46|SD|1|123|Tripp|43.5947196|-99.6815007|02/13/1980|03/20/2008
1255409|Hammer|Populated Place|26820|U6|||46|SD|1|109|Roberts|45.8552367|-97.0211945|02/13/1980|
1255447|Harrison|Populated Place|27300|U5|1205|461205043|46|SD|1|043|Douglas|43.4297135|-98.5273039|02/13/1980|03/20/2008
1255449|Harrold|Populated Place|27420|P1|1210|461210065|46|SD|1|065|Hughes|44.5244277|-99.7392837|02/13/1980|02/15/2018
1255451|Hartford Beach|Populated Place|27620|U6|||46|SD|1|109|Roberts|45.4055188|-96.6811767|02/13/1980|
1255454|Hartley|Populated Place|27710|U6|||46|SD|1|055|Haakon|44.4010963|-101.8104252|02/13/1980|
1255484|Hayes|Populated Place|27780|U6|1225|461225117|46|SD|1|117|Stanley|44.3702598|-101.0215322|02/13/1980|
1255489|Hayti|Populated Place|27820|P1|1230|461230057|46|SD|1|057|Hamlin|44.6571873|-97.2050728|02/13/1980|02/06/2018
1255492|Hazel|Populated Place|27940|P1|1240|461240057|46|SD|1|057|Hamlin|44.7596872|-97.379524|02/13/1980|03/20/2008
1255502|Hecla|Populated Place|27980|P1|1250|461250013|46|SD|1|013|Brown|45.8830217|-98.1520474|02/13/1980|01/23/2018
1255512|Henry|Populated Place|28140|P1|1260|461260029|46|SD|1|029|Codington|44.8771863|-97.4664703|02/13/1980|02/01/2018
1255523|Herreid|Populated Place|28340|P1|1280|461280021|46|SD|1|021|Campbell|45.8347136|-100.0692843|02/13/1980|01/29/2018
1255524|Herrick|Populated Place|28420|P1|1290|461290053|46|SD|1|053|Gregory|43.1149991|-99.1878754|02/13/1980|03/20/2008
1255529|Hiawatha Beach|Populated Place|28500|U6|||46|SD|1|109|Roberts|45.4699623|-96.7445133|02/13/1980|
1255553|Highmore|Populated Place|28980|P1|1310|461310069|46|SD|1|069|Hyde|44.5213731|-99.4415007|02/13/1980|02/15/2018
1255562|Hilland|Populated Place|29090|U6|||46|SD|1|055|Haakon|44.282763|-101.8565367|02/13/1980|
1255576|Hillside Colony|Populated Place|29300|U6|||46|SD|1|115|Spink|44.7388625|-98.0459248|02/13/1980|
1255616|Holmquist|Populated Place|29740|U6|||46|SD|1|037|Day|45.3393999|-97.6531475|02/13/1980|
1255678|Hosmer|Populated Place|30140|P1|1350|461350045|46|SD|1|045|Edmunds|45.5788675|-99.4748399|02/13/1980|02/06/2018
1255680|Houghton|Populated Place|30260|U6|1365|461365013|46|SD|1|013|Brown|45.7630199|-98.2103798|02/13/1980|
1255689|Hoven|Populated Place|30300|P1|1370|461370107|46|SD|1|107|Potter|45.2435942|-99.7770614|02/13/1980|03/20/2008
1255697|Hub City|Populated Place|30620|U6|||46|SD|1|027|Clay|42.9536045|-96.9044893|02/13/1980|
1255707|Huffton|Populated Place|30780|U6|||46|SD|1|013|Brown|45.6163465|-98.0931575|02/13/1980|
1255710|Humboldt|Populated Place|30900|P1|1400|461400099|46|SD|1|099|Minnehaha|43.6452557|-97.0739467|02/13/1980|02/16/2018
1255718|Hurley|Populated Place|30980|P1|1410|461410125|46|SD|1|125|Turner|43.2830402|-97.0892202|02/13/1980|02/28/2018
1255722|Huron|Populated Place|31060|P1|1420|461420005|46|SD|1|005|Beadle|44.3633173|-98.2142572|02/13/1980|01/16/2018
1255724|Huron Colony|Populated Place|31140|U6|||46|SD|1|005|Beadle|44.5644242|-98.2067586|02/13/1980|
1255766|Iona|Populated Place|31700|U6|1435|461435085|46|SD|1|085|Lyman|43.543055|-99.4248243|02/13/1980|
1255770|Ipswich|Populated Place|31860|P1|1440|461440045|46|SD|1|045|Edmunds|45.4444193|-99.0292784|02/13/1980|03/20/2008
1255781|Iroquois|Populated Place|32020|P1|1460|461460077|46|SD|1|077|Kingsbury|44.3669201|-97.8509171|02/13/1980|01/16/2018
1255781|Iroquois|Populated Place|32020|P1|1460|461460005|46|SD|2|005|Beadle|44.3669201|-97.8509171|02/13/1980|01/16/2018
1255785|Isabel|Populated Place|32140|P1|1470|461470041|46|SD|1|041|Dewey|45.3941475|-101.429593|02/13/1980|02/06/2018
1255810|James|Populated Place|32340|U6|||46|SD|1|013|Brown|45.4660753|-98.2125969|02/13/1980|
1255814|Java|Populated Place|32460|P1|1480|461480129|46|SD|1|129|Walworth|45.5033204|-99.8865083|02/13/1980|02/28/2018
1255817|Jefferson|Populated Place|32700|P1|1490|461490127|46|SD|1|127|Union|42.6024951|-96.5591992|02/13/1980|02/28/2018
1255872|Johnsonville|Populated Place|32825|U6|||46|SD|1|039|Deuel|44.5444101|-96.7856128|02/13/1980|
1255885|Jordan Junction|Populated Place|32990|U6|||46|SD|1|123|Tripp|43.3849998|-100.0292902|02/13/1980|
1255912|Kaylor|Populated Place|33380|U5|1502|461502067|46|SD|1|067|Hutchinson|43.1880473|-97.8386801|02/13/1980|03/20/2008
1255920|Kenel|Populated Place|33540|U6|1505|461505031|46|SD|1|031|Corson|45.8583301|-100.4598519|02/13/1980|
1255933|Kidder|Populated Place|33900|U5|||46|SD|1|091|Marshall|45.8830142|-97.713435|02/13/1980|01/29/2011
1255976|Kranzburg|Populated Place|34340|P1|1523|461523029|46|SD|1|029|Codington|44.8924649|-96.9189561|02/13/1980|03/20/2008
1255989|La Plant|Populated Place|35940|U5|1595|461595041|46|SD|1|041|Dewey|45.1447058|-100.65153|02/13/1980|03/20/2008
1255992|LaBolt|Populated Place|34580|C4|1530|461530051|46|SD|1|051|Grant|45.0507982|-96.6767275|02/13/1980|02/06/2018
1256006|Lake Andes|Populated Place|35100|P1|1540|461540023|46|SD|1|023|Charles Mix|43.1563822|-98.5414703|02/13/1980|01/29/2018
1256013|Lake City|Populated Place|35220|P1|1550|461550091|46|SD|1|091|Marshall|45.7252321|-97.4145399|02/13/1980|03/20/2008
1256026|Lake Norden|Populated Place|35460|P1|1560|461560057|46|SD|1|057|Hamlin|44.5805215|-97.2092381|02/13/1980|02/06/2018
1256052|Lane|Populated Place|35780|P1|1580|461580073|46|SD|1|073|Jerauld|44.0697111|-98.4250897|02/13/1980|02/15/2018
1256056|Langford|Populated Place|35820|P1|1590|461590091|46|SD|1|091|Marshall|45.6024517|-97.830379|02/13/1980|03/20/2008
1256086|Lemmon|Populated Place|36340|P1|1620|461620105|46|SD|1|105|Perkins|45.940834|-102.1593201|02/13/1980|02/28/2018
1256091|Lennox|Populated Place|36380|P1|1630|461630083|46|SD|1|083|Lincoln|43.3541476|-96.8919951|02/13/1980|02/15/2018
1256095|Leola|Populated Place|36460|P1|1640|461640089|46|SD|1|089|McPherson|45.7227538|-98.9409401|02/13/1980|02/15/2018
1256099|Lesterville|Populated Place|36540|P1|1650|461650135|46|SD|1|135|Yankton|43.0394406|-97.5956206|02/13/1980|02/28/2018
1256101|Letcher|Populated Place|36620|P1|1660|461660111|46|SD|1|111|Sanborn|43.8972067|-98.1386936|02/13/1980|03/20/2008
1256115|Lily|Populated Place|37140|P1|1670|461670037|46|SD|1|037|Day|45.1813467|-97.683422|02/13/1980|03/20/2008
1256139|Linden Beach|Populated Place|37740|U6|||46|SD|1|109|Roberts|45.4046856|-96.6486755|02/13/1980|
1256161|Little Eagle|Populated Place|37900|U5|1675|461675031|46|SD|1|031|Corson|45.67583|-100.8043037|02/13/1980|03/20/2008
1256189|Lodgepole|Populated Place|38060|U6|1677|461677105|46|SD|1|105|Perkins|45.8047219|-102.6607138|02/13/1980|
1256232|Long Lake|Populated Place|38860|P1|1680|461680089|46|SD|1|089|McPherson|45.8566411|-99.205113|02/13/1980|02/15/2018
1256236|Long Lake Colony|Populated Place|38900|U6|||46|SD|1|089|McPherson|45.6066433|-98.8195483|02/13/1980|
1256243|Loomis|Populated Place|39020|U5|1682|461682035|46|SD|1|035|Davison|43.7938731|-98.1045245|02/13/1980|03/20/2008
1256261|Lower Brule|Populated Place|39180|U5|1687|461687085|46|SD|1|085|Lyman|44.0788776|-99.5814993|02/13/1980|03/20/2008
1256263|Lowry|Populated Place|39260|P1|1690|461690129|46|SD|1|129|Walworth|45.3160993|-99.9826202|02/13/1980|03/20/2008
1256266|Loyalton|Populated Place|39300|U6|1700|461700045|46|SD|1|045|Edmunds|45.2863641|-99.27956|02/13/1980|
1256268|Lucas|Populated Place|39340|U6|1703|461703053|46|SD|1|053|Gregory|43.2897215|-99.2164862|02/13/1980|
1256269|Ludlow|Populated Place|39420|U6|1704|461704063|46|SD|1|063|Harding|45.8344451|-103.3765724|02/13/1980|
1256287|Lyons|Populated Place|39740|U6|1705|461705099|46|SD|1|099|Minnehaha|43.7230309|-96.8678318|02/13/1980|
1256295|Madison|Populated Place|40220|P1|1730|461730079|46|SD|1|079|Lake|44.0060847|-97.1139496|02/13/1980|02/15/2018
1256300|Madsen Beach|Populated Place|40300|U6|||46|SD|1|109|Roberts|45.4602402|-96.7397907|02/13/1980|
1256314|Manderson|Populated Place|40540|U3|1738|461738102|46|SD|1|102|Oglala Lakota|43.2352646|-102.4707216|02/13/1980|
1256319|Mansfield|Populated Place|40580|U5|1739|461739115|46|SD|1|115|Spink|45.243032|-98.5628734|02/13/1980|01/29/2011
1256319|Mansfield|Populated Place|40580|U5|1739|461739013|46|SD|2|013|Brown|45.243032|-98.5628734|02/13/1980|01/29/2011
1256322|Marcus|Populated Place|40700|U6|1741|461741093|46|SD|1|093|Meade|44.6580453|-102.2732188|02/13/1980|
1256328|Marksville|Populated Place|40960|U6|||46|SD|1|041|Dewey|45.0694285|-100.3773562|02/13/1980|
1256336|Martin|Populated Place|41100|P1|1750|461750007|46|SD|1|007|Bennett|43.1724984|-101.7326485|02/13/1980|01/23/2018
1256340|Marty|Populated Place|41180|U5|1755|461755023|46|SD|1|023|Charles Mix|42.9924954|-98.425081|02/13/1980|03/20/2008
1256341|Marvin|Populated Place|41220|P1|1760|461760051|46|SD|1|051|Grant|45.2613519|-96.9125723|02/13/1980|02/06/2018
1256356|Maurine|Populated Place|41380|U6|||46|SD|1|093|Meade|45.0230433|-102.5934972|02/13/1980|
1256359|Maxwell Colony|Populated Place|41420|U6|||46|SD|1|067|Hutchinson|43.1822145|-97.6345109|02/13/1980|
1256381|McIntosh|Populated Place|39940|P1|1710|461710031|46|SD|1|031|Corson|45.92139|-101.3495764|02/13/1980|03/20/2008
1256396|McLaughlin|Populated Place|40020|P1|1720|461720031|46|SD|1|031|Corson|45.8144431|-100.8104113|02/13/1980|02/01/2018
1256408|Meadow|Populated Place|41620|U6|1765|461765105|46|SD|1|105|Perkins|45.5291517|-102.2162732|02/13/1980|
1256414|Meckling|Populated Place|41700|U6|1770|461770027|46|SD|1|027|Clay|42.8424963|-97.0694924|02/13/1980|02/01/2018
1256431|Mellette|Populated Place|41860|P1|1780|461780115|46|SD|1|115|Spink|45.1544202|-98.4975935|02/13/1980|02/28/2018
1256434|Menno|Populated Place|41980|P1|1790|461790067|46|SD|1|067|Hutchinson|43.2397131|-97.5778442|02/13/1980|02/15/2018
1256450|Midland|Populated Place|42140|P1|1800|461800055|46|SD|1|055|Haakon|44.0716539|-101.1554178|02/13/1980|02/06/2018
1256459|Milbank|Populated Place|42260|P1|1810|461810051|46|SD|1|051|Grant|45.2191313|-96.6356167|02/13/1980|02/06/2018
1256463|Milesville|Populated Place|42300|U6|1815|461815055|46|SD|1|055|Haakon|44.4580404|-101.6793123|02/13/1980|02/06/2018
1256469|Millboro|Populated Place|42380|U6|1816|461816123|46|SD|1|123|Tripp|43.0730603|-99.9690076|02/13/1980|02/28/2018
1256470|Miller|Populated Place|42460|P1|1820|461820059|46|SD|1|059|Hand|44.5183148|-98.988434|02/13/1980|02/15/2018
1256473|Miller Dale Colony|Populated Place|42580|U6|||46|SD|1|059|Hand|44.3999846|-99.1128798|02/13/1980|
1256480|Milltown|Populated Place|42620|U5|||46|SD|1|067|Hutchinson|43.4235958|-97.8017345|02/13/1980|03/20/2008
1256483|Mina|Populated Place|42700|U6|1825|461825045|46|SD|1|045|Edmunds|45.4333098|-98.7587135|02/13/1980|05/11/2011
1256492|Miranda|Populated Place|42860|U6|||46|SD|1|049|Faulk|44.9719185|-98.9642716|02/13/1980|02/06/2018
1256494|Mission|Populated Place|42940|P1|1830|461830121|46|SD|1|121|Todd|43.3058368|-100.6581944|02/13/1980|02/28/2018
1256497|Mission Hill|Populated Place|42980|P1|1840|461840135|46|SD|1|135|Yankton|42.9233297|-97.2789433|02/13/1980|02/28/2018
1256500|Mitchell|Populated Place|43100|P1|1850|461850035|46|SD|1|035|Davison|43.7094283|-98.0297992|02/13/1980|02/01/2018
1256529|Montrose|Populated Place|43500|P1|1880|461880087|46|SD|1|087|McCook|43.6985894|-97.1836712|02/13/1980|03/20/2008
1256539|Morningside|Populated Place|43780|U5|||46|SD|1|005|Beadle|44.3658167|-98.1884235|02/13/1980|01/29/2011
1256548|Morristown|Populated Place|43860|P1|1890|461890031|46|SD|1|031|Corson|45.938615|-101.7231897|02/13/1980|02/01/2018
1256558|Mound City|Populated Place|44020|P1|1900|461900021|46|SD|1|021|Campbell|45.7252697|-100.0684524|02/13/1980|03/20/2008
1256568|Mount Vernon|Populated Place|44100|P1|1910|461910035|46|SD|1|035|Davison|43.7105415|-98.2603594|02/13/1980|02/01/2018
1256574|Mud Butte|Populated Place|44180|U6|1915|461915093|46|SD|1|093|Meade|45.0047115|-102.8776692|02/13/1980|
1256622|Murdo|Populated Place|44260|P1|1920|461920075|46|SD|1|075|Jones|43.8883224|-100.7129143|02/13/1980|02/15/2018
1256639|Naples|Populated Place|44620|P1|1930|461930025|46|SD|1|025|Clark|44.7716324|-97.5117492|02/13/1980|01/29/2018
1256677|New Elm Springs Colony|Populated Place|44900|U6|||46|SD|1|067|Hutchinson|43.4888718|-97.8289571|02/13/1980|
1256678|New Holland|Populated Place|44940|U5|1965|461965043|46|SD|1|043|Douglas|43.4272145|-98.6092492|02/13/1980|03/20/2008
1256685|New Underwood|Populated Place|45060|P1|1970|461970103|46|SD|1|103|Pennington|44.0933202|-102.8362824|02/13/1980|03/20/2008
1256690|Newell|Populated Place|44860|P1|1960|461960019|46|SD|1|019|Butte|44.7147082|-103.4207436|02/13/1980|01/29/2018
1256710|Nisland|Populated Place|45180|P1|1990|461990019|46|SD|1|019|Butte|44.6730407|-103.5535258|02/13/1980|03/20/2008
1256716|Nora|Populated Place|45220|U6|||46|SD|1|127|Union|42.9391593|-96.7069841|02/13/1980|
1256720|Norbeck|Populated Place|45260|U6|||46|SD|1|049|Faulk|45.1841413|-99.2126135|02/13/1980|
1256725|Norris|Populated Place|45420|U5|1998|461998095|46|SD|1|095|Mellette|43.473334|-101.196257|02/13/1980|01/29/2011
1256776|North Shore|Populated Place|45690|U6|||46|SD|1|029|Codington|44.9485752|-97.2067428|02/13/1980|
1256778|North Sioux City|Populated Place|45700|P1|||46|SD|1|127|Union|42.5272168|-96.4830864|02/13/1980|02/28/2018
1256794|Northville|Populated Place|45740|P1|2000|462000115|46|SD|1|115|Spink|45.1555313|-98.5792629|02/13/1980|02/28/2018
1256805|Nowlin|Populated Place|46020|U6|||46|SD|1|055|Haakon|44.0497101|-101.302641|02/13/1980|
1256807|Nunda|Populated Place|46060|P1|2010|462010079|46|SD|1|079|Lake|44.1621934|-97.0189491|02/13/1980|02/15/2018
1256844|Okaton|Populated Place|46620|U5|2035|462035075|46|SD|1|075|Jones|43.8861013|-100.8918053|02/13/1980|03/20/2008
1256849|Okreek|Populated Place|46660|U5|2038|462038121|46|SD|1|121|Todd|43.3622244|-100.3862438|02/13/1980|01/29/2011
1256876|Oldham|Populated Place|46780|P1|2040|462040077|46|SD|1|077|Kingsbury|44.2274712|-97.3078459|02/13/1980|02/15/2018
1256880|Olivet|Populated Place|46900|P1|2050|462050067|46|SD|1|067|Hutchinson|43.240824|-97.6753449|02/13/1980|02/15/2018
1256891|Olsonville|Populated Place|46940|U6|||46|SD|1|121|Todd|43.1277838|-100.6090255|02/13/1980|
1256895|Onaka|Populated Place|46980|P1|2060|462060049|46|SD|1|049|Faulk|45.1927553|-99.4662266|02/13/1980|02/06/2018
1256897|Onida|Populated Place|47180|P1|2070|462070119|46|SD|1|119|Sully|44.7080379|-100.059845|02/13/1980|02/28/2018
1256899|Opal|Populated Place|47260|U6|2074|462074093|46|SD|1|093|Meade|44.8916545|-102.4504418|02/13/1980|
1256902|Orient|Populated Place|47460|P1|2080|462080049|46|SD|1|049|Faulk|44.9002537|-99.0892738|02/13/1980|02/06/2018
1256907|Ortley|Populated Place|47660|P1|2090|462090109|46|SD|1|109|Roberts|45.332183|-97.1956377|02/13/1980|02/28/2018
1256909|Orton|Populated Place|47710|U6|||46|SD|1|117|Stanley|44.7102601|-100.8420921|02/13/1980|
1256915|Ottumwa|Populated Place|47900|U6|2092|462092055|46|SD|1|055|Haakon|44.2335966|-101.3470868|02/13/1980|
1256956|Parkston|Populated Place|48460|P1|2110|462110067|46|SD|1|067|Hutchinson|43.3988755|-97.9836831|02/13/1980|02/15/2018
1256960|Parmelee|Populated Place|48500|U5|2114|462114121|46|SD|1|121|Todd|43.3230585|-101.0265364|02/13/1980|03/20/2008
1256965|Patricia|Populated Place|48620|U6|||46|SD|1|007|Bennett|43.2872192|-101.5120945|02/13/1980|
1256985|Pearl Creek Colony|Populated Place|48820|U6|||46|SD|1|005|Beadle|44.3285887|-97.9136957|02/13/1980|
1256998|Peever|Populated Place|48940|P1|2120|462120109|46|SD|1|109|Roberts|45.5430163|-96.9547996|02/13/1980|02/28/2018
1257008|Peninsula Park|Populated Place|49060|U6|||46|SD|1|079|Lake|43.9458067|-97.0092253|02/13/1980|
1257014|Perkins|Populated Place|49180|U6|||46|SD|1|009|Bon Homme|42.8655543|-98.0103489|02/13/1980|
1257034|Philip|Populated Place|49300|P1|2130|462130055|46|SD|1|055|Haakon|44.0394329|-101.6651441|02/13/1980|02/06/2018
1257040|Pickstown|Populated Place|49460|P1|2140|462140023|46|SD|1|023|Charles Mix|43.0672168|-98.5320265|02/13/1980|03/20/2008
1257046|Pierpont|Populated Place|49540|P1|2150|462150037|46|SD|1|037|Day|45.4955082|-97.8312098|02/13/1980|02/01/2018
1257075|Plainview|Populated Place|49900|U6|||46|SD|1|093|Meade|44.6022106|-102.1615496|02/13/1980|
1257078|Plainview Colony|Populated Place|49980|U6|||46|SD|1|045|Edmunds|45.5816421|-99.0064991|02/13/1980|05/03/2012
1257087|Plankinton|Populated Place|50020|P1|2170|462170003|46|SD|1|003|Aurora|43.715546|-98.4850855|02/13/1980|01/16/2018
1257169|Polo|Populated Place|51300|U6|||46|SD|1|059|Hand|44.7794227|-99.1095514|02/13/1980|
1257179|Porcupine|Populated Place|51340|U5|2193|462193102|46|SD|1|102|Oglala Lakota|43.2397108|-102.3309945|02/13/1980|03/20/2008
1257197|Prairie City|Populated Place|51660|U5|2197|462197105|46|SD|1|105|Perkins|45.5297132|-102.8043291|02/13/1980|01/29/2011
1257221|Prairie Village|Populated Place|51710|U6|||46|SD|1|079|Lake|44.0060853|-97.1675615|02/13/1980|
1257226|Presho|Populated Place|51820|P1|2200|462200085|46|SD|1|085|Lyman|43.9097116|-100.0587343|02/13/1980|02/15/2018
1257232|Promise|Populated Place|52000|U6|||46|SD|1|041|Dewey|45.3327653|-100.6037521|02/13/1980|
1257243|Pukwana|Populated Place|52220|P1|2220|462220015|46|SD|1|015|Brule|43.7780522|-99.1814852|02/13/1980|01/29/2018
1257249|Putney|Populated Place|52420|U6|||46|SD|1|013|Brown|45.5602398|-98.1753771|02/13/1980|
1257277|Randolph|Populated Place|52940|U6|||46|SD|1|013|Brown|45.2427437|-98.2098151|02/13/1980|
1257292|Ravinia|Populated Place|53220|P1|2260|462260023|46|SD|1|023|Charles Mix|43.1366598|-98.4267468|02/13/1980|01/29/2018
1257293|Raymond|Populated Place|53260|P1|2270|462270025|46|SD|1|025|Clark|44.9124666|-97.938978|02/13/1980|01/29/2018
1257307|Red Elm|Populated Place|53340|U6|||46|SD|1|137|Ziebach|45.0552594|-101.7840456|02/13/1980|
1257320|Red Scaffold|Populated Place|53780|U6|2282|462282137|46|SD|1|137|Ziebach|44.766931|-101.8437676|02/13/1980|
1257331|Redowl|Populated Place|53700|U6|2283|462283093|46|SD|1|093|Meade|44.6977665|-102.5532226|02/13/1980|
1257350|Reliance|Populated Place|54020|P1|2300|462300085|46|SD|1|085|Lyman|43.878881|-99.6031645|02/13/1980|02/15/2018
1257356|Renner|Populated Place|54140|U6|2305|462305099|46|SD|1|099|Minnehaha|43.6455302|-96.7283838|02/13/1980|02/16/2018
1257361|Reva|Populated Place|54180|U6|2306|462306063|46|SD|1|063|Harding|45.5452723|-103.0843376|02/13/1980|
1257365|Revillo|Populated Place|54220|P1|2310|462310051|46|SD|1|051|Grant|45.0166314|-96.5711679|02/13/1980|02/06/2018
1257376|Richland|Populated Place|54750|U5|||46|SD|1|127|Union|42.7594406|-96.6528136|02/13/1980|01/29/2011
1257385|Richmond|Populated Place|54790|U6|||46|SD|1|013|Brown|45.5227547|-98.6189868|02/13/1980|
1257408|Riverside Colony|Populated Place|55220|U6|||46|SD|1|005|Beadle|44.4863691|-98.1392573|02/13/1980|
1257439|Rockham|Populated Place|55540|P1|2320|462320049|46|SD|1|049|Faulk|44.9038644|-98.824824|02/13/1980|02/06/2018
1257441|Rockport Colony|Populated Place|55620|U6|||46|SD|1|061|Hanson|43.5819266|-97.838959|02/13/1980|
1257461|Roscoe|Populated Place|55820|P1|2330|462330045|46|SD|1|045|Edmunds|45.4485879|-99.3387279|02/13/1980|02/06/2018
1257470|Rosebud|Populated Place|55940|U5|2335|462335121|46|SD|1|121|Todd|43.2327824|-100.8534779|02/13/1980|03/20/2008
1257489|Rosholt|Populated Place|56340|P1|2340|462340109|46|SD|1|109|Roberts|45.8666263|-96.731463|02/13/1980|02/28/2018
1257490|Roslyn|Populated Place|56380|P1|2350|462350037|46|SD|1|037|Day|45.4952333|-97.4909258|02/13/1980|02/01/2018
1257508|Rowena|Populated Place|56580|U6|||46|SD|1|099|Minnehaha|43.5202525|-96.5558777|02/13/1980|
1257520|Running Water|Populated Place|56820|U5|||46|SD|1|009|Bon Homme|42.7700008|-97.9839589|02/13/1980|01/13/2011
1257528|Ruskin Park|Populated Place|56950|U6|||46|SD|1|111|Sanborn|44.0055392|-98.0964726|02/13/1980|
1257529|Rutland|Populated Place|56980|U6|2363|462363079|46|SD|1|079|Lake|44.089416|-96.9672804|02/13/1980|02/15/2018
1257590|Saint Francis|Populated Place|57140|P1|||46|SD|1|121|Todd|43.1444497|-100.9051465|02/13/1980|03/20/2008
1257699|Saint Onge|Populated Place|57260|U5|2385|462385081|46|SD|1|081|Lawrence|44.5466507|-103.7210308|02/13/1980|01/29/2011
1257765|Salem|Populated Place|57340|P1|2390|462390087|46|SD|1|087|McCook|43.7241455|-97.388953|02/13/1980|02/15/2018
1257807|Sansarc|Populated Place|57590|U6|||46|SD|1|117|Stanley|44.5066468|-101.034869|02/13/1980|
1257837|Schmidt Landing|Populated Place|57855|U6|||46|SD|1|109|Roberts|45.3796863|-96.5608943|02/13/1980|
1258001|Scotland|Populated Place|57940|P1|2400|462400009|46|SD|1|009|Bon Homme|43.1497151|-97.7175669|02/13/1980|01/23/2018
1258016|Selby|Populated Place|58140|P1|2410|462410129|46|SD|1|129|Walworth|45.5063788|-100.0320657|02/13/1980|02/28/2018
1258028|Shady Beach|Populated Place|58300|U6|||46|SD|1|109|Roberts|45.4035746|-96.6320083|02/13/1980|
1258041|Shelby|Populated Place|58385|U6|||46|SD|1|017|Buffalo|43.9480498|-99.1873214|02/13/1980|
1258044|Sherman|Populated Place|58580|P1|2430|462430099|46|SD|1|099|Minnehaha|43.7591386|-96.4761531|02/13/1980|02/16/2018
1258080|Sinai|Populated Place|58900|P1|2440|462440011|46|SD|1|011|Brookings|44.2444149|-97.0408948|02/13/1980|01/23/2018
1258093|Sisseton|Populated Place|59260|P1|2460|462460109|46|SD|1|109|Roberts|45.6646815|-97.0498046|02/13/1980|02/28/2018
1258130|Smiths Park|Populated Place|59580|U6|||46|SD|1|079|Lake|43.9349735|-96.9970028|02/13/1980|
1258160|Sorum|Populated Place|59740|U6|2468|462468105|46|SD|1|105|Perkins|45.4497134|-102.9293326|02/13/1980|
1258179|South Dakota Park|Populated Place|59830|U6|||46|SD|1|109|Roberts|45.417463|-96.7008999|02/13/1980|
1258216|South Shore|Populated Place|59940|P1|2470|462470029|46|SD|1|029|Codington|45.1057975|-96.9286818|02/13/1980|05/11/2011
1258228|Spencer|Populated Place|60060|P1|2500|462500087|46|SD|1|087|McCook|43.7274793|-97.5931238|02/13/1980|02/15/2018
1258233|Spink|Populated Place|60100|U6|||46|SD|1|127|Union|42.8519399|-96.7469847|02/13/1980|
1258234|Spink Colony|Populated Place|60180|U6|||46|SD|1|115|Spink|44.7466434|-98.2920381|02/13/1980|
1258249|Spring Creek|Populated Place|60500|U5|||46|SD|1|121|Todd|43.1175054|-101.0226501|02/13/1980|03/20/2008
1258265|Spring Creek Colony|Populated Place|60540|U6|||46|SD|1|089|McPherson|45.9091405|-98.8787164|02/13/1980|
1258289|Spring Valley Colony|Populated Place|61180|U6|||46|SD|1|073|Jerauld|44.0405485|-98.8870398|02/13/1980|
1258297|Springfield|Populated Place|60660|P1|2510|462510009|46|SD|1|009|Bon Homme|42.8541658|-97.8972907|02/13/1980|01/23/2018
1258321|Stanley Corner|Populated Place|61300|U6|||46|SD|1|087|McCook|43.5433151|-97.3878413|02/13/1980|
1258338|Stephan|Populated Place|61580|U6|2518|462518069|46|SD|1|069|Hyde|44.2480425|-99.4531649|02/13/1980|
1258346|Stickney|Populated Place|61700|P1|2520|462520003|46|SD|1|003|Aurora|43.5891563|-98.4373047|02/13/1980|01/16/2018
1258361|Stockholm|Populated Place|61740|P1|2530|462530051|46|SD|1|051|Grant|45.0996868|-96.8020104|02/13/1980|02/06/2018
1258365|Stone Bridge|Populated Place|61820|U6|||46|SD|1|057|Hamlin|44.602188|-97.0597891|02/13/1980|
1258382|Storla|Populated Place|61940|U5|||46|SD|1|003|Aurora|43.863599|-98.3514746|02/13/1980|03/20/2008
1258391|Strandburg|Populated Place|61980|P1|2540|462540051|46|SD|1|051|Grant|45.0441317|-96.7606192|02/13/1980|02/06/2018
1258395|Stratford|Populated Place|62020|P1|2550|462550013|46|SD|1|013|Brown|45.3163581|-98.3048159|02/13/1980|01/23/2018
1258398|Strool|Populated Place|62065|U6|||46|SD|1|105|Perkins|45.5005457|-102.8048848|02/13/1980|
1258430|Sunnyview|Populated Place|62380|U6|||46|SD|1|011|Brookings|44.3446901|-96.7853321|02/13/1980|
1258479|Swett|Populated Place|62660|U6|||46|SD|1|007|Bennett|43.1719399|-101.9515399|02/13/1980|01/23/2018
1258490|Tabor|Populated Place|62820|P1|2580|462580009|46|SD|1|009|Bon Homme|42.9486088|-97.658954|02/13/1980|01/23/2018
1258528|Thomas|Populated Place|63340|U6|||46|SD|1|057|Hamlin|44.7607976|-97.2095194|02/13/1980|
1258543|Thunder Butte|Populated Place|63460|U6|||46|SD|1|137|Ziebach|45.2127556|-101.6701522|02/13/1980|
1258545|Thunder Hawk|Populated Place|63500|U6|2594|462594031|46|SD|1|031|Corson|45.9383341|-101.9748682|02/13/1980|
1258560|Timber Lake|Populated Place|63620|P1|2600|462600041|46|SD|1|041|Dewey|45.4291548|-101.0740344|02/13/1980|02/06/2018
1258575|Tolstoy|Populated Place|63700|P1|2610|462610107|46|SD|1|107|Potter|45.2080354|-99.6142827|02/13/1980|02/28/2018
1258580|Toronto|Populated Place|63740|P1|2620|462620039|46|SD|1|039|Deuel|44.5730202|-96.6425537|02/13/1980|02/06/2018
1258590|Trail City|Populated Place|63900|U6|2625|462625041|46|SD|1|041|Dewey|45.472492|-100.725419|02/13/1980|
1258590|Trail City|Populated Place|63900|U6|2625|462625031|46|SD|2|031|Corson|45.472492|-100.725419|02/13/1980|
1258600|Trent|Populated Place|63940|P1|2630|462630101|46|SD|1|101|Moody|43.9063612|-96.6539369|02/13/1980|02/28/2018
1258618|Tripp|Populated Place|64020|P1|2640|462640067|46|SD|1|067|Hutchinson|43.2255461|-97.965905|02/13/1980|02/15/2018
1258625|Troy|Populated Place|64140|U6|||46|SD|1|051|Grant|45.0374649|-96.8653452|02/13/1980|02/06/2018
1258637|Tschetter Colony|Populated Place|64260|U6|||46|SD|1|067|Hutchinson|43.3702642|-97.6861778|02/13/1980|
1258640|Tulare|Populated Place|64300|P1|2650|462650115|46|SD|1|115|Spink|44.7380336|-98.5098176|02/13/1980|02/28/2018
1258658|Twin Brooks|Populated Place|64700|P1|2670|462670051|46|SD|1|051|Grant|45.2057974|-96.7795108|02/13/1980|02/06/2018
1258681|Tyndall|Populated Place|64860|P1|2680|462680009|46|SD|1|009|Bon Homme|42.9933297|-97.8628464|02/13/1980|01/23/2018
1258697|Union Center|Populated Place|65540|U6|2685|462685093|46|SD|1|093|Meade|44.5608212|-102.6693366|02/13/1980|02/15/2018
1258713|Unityville|Populated Place|65580|U6|||46|SD|1|087|McCook|43.8013665|-97.4525658|02/13/1980|02/15/2018
1258718|Utica|Populated Place|65780|P1|2690|462690135|46|SD|1|135|Yankton|42.9811087|-97.4964525|02/13/1980|03/20/2008
1258724|Vale|Populated Place|65900|U5|2695|462695019|46|SD|1|019|Butte|44.6202633|-103.4021316|02/13/1980|01/29/2011
1258730|Valley Springs|Populated Place|66260|P1|2700|462700099|46|SD|1|099|Minnehaha|43.5824734|-96.4678189|02/13/1980|02/16/2018
1258738|Veblen|Populated Place|66540|P1|2710|462710091|46|SD|1|091|Marshall|45.8630145|-97.2875924|02/13/1980|03/20/2008
1258742|Verdon|Populated Place|66660|P1|2720|462720013|46|SD|1|013|Brown|45.24385|-98.0975935|02/13/1980|03/20/2008
1258745|Vermillion|Populated Place|66700|P1|2730|462730027|46|SD|1|027|Clay|42.7794417|-96.9292104|02/13/1980|02/01/2018
1258748|Vetal|Populated Place|66980|U6|2735|462735007|46|SD|1|007|Bennett|43.2144439|-101.3768168|02/13/1980|
1258750|Victor|Populated Place|67140|U6|||46|SD|1|109|Roberts|45.8688482|-96.8328551|02/13/1980|02/28/2018
1258753|Vienna|Populated Place|67220|P1|2750|462750025|46|SD|1|025|Clark|44.7030219|-97.5014704|02/13/1980|01/29/2018
1258758|Vilas|Populated Place|67340|P1|2760|462760097|46|SD|1|097|Miner|44.0105302|-97.5972938|02/13/1980|02/15/2018
1258762|Virgil|Populated Place|67500|P1|2770|462770005|46|SD|1|005|Beadle|44.2908203|-98.4242588|02/13/1980|01/16/2018
1258764|Vivian|Populated Place|67620|U5|2775|462775085|46|SD|1|085|Lyman|43.9269323|-100.2920757|02/13/1980|03/20/2008
1258770|Volga|Populated Place|67700|P1|2780|462780011|46|SD|1|011|Brookings|44.32358|-96.9264476|02/13/1980|03/20/2008
1258771|Volin|Populated Place|67780|P1|2790|462790135|46|SD|1|135|Yankton|42.9572174|-97.1803293|02/13/1980|02/28/2018
1258781|Wagner|Populated Place|68020|P1|2800|462800023|46|SD|1|023|Charles Mix|43.0797156|-98.2931342|02/13/1980|01/29/2018
1258793|Wakonda|Populated Place|68100|P1|2810|462810027|46|SD|1|027|Clay|43.0083269|-97.1067167|02/13/1980|02/01/2018
1258794|Wakpala|Populated Place|68140|U6|2812|462812031|46|SD|1|031|Corson|45.6572189|-100.535136|02/13/1980|
1258809|Wallace|Populated Place|68420|P1|2830|462830029|46|SD|1|029|Codington|45.0860724|-97.4759166|02/13/1980|02/01/2018
1258820|Ward|Populated Place|68660|P1|2840|462840101|46|SD|1|101|Moody|44.1546914|-96.4603202|02/13/1980|03/20/2008
1258822|Warner|Populated Place|68740|P1|2845|462845013|46|SD|1|013|Brown|45.3258099|-98.4953712|02/13/1980|03/20/2008
1258837|Wasta|Populated Place|69140|P1|2850|462850103|46|SD|1|103|Pennington|44.0685986|-102.4457203|02/13/1980|02/28/2018
1258838|Watauga|Populated Place|69220|U6|2859|462859031|46|SD|1|031|Corson|45.9227796|-101.5429106|02/13/1980|
1258841|Watertown|Populated Place|69300|P1|2860|462860029|46|SD|1|029|Codington|44.8994088|-97.1150732|02/13/1980|02/01/2018
1258847|Waverly|Populated Place|69420|U5|2875|462875029|46|SD|1|029|Codington|44.9985763|-96.9717375|02/13/1980|01/29/2011
1258853|Webster|Populated Place|69780|P1|2880|462880037|46|SD|1|037|Day|45.3321795|-97.5200891|02/13/1980|02/01/2018
1258856|Wecota|Populated Place|69900|U6|2885|462885049|46|SD|1|049|Faulk|45.1724739|-99.1176117|02/13/1980|02/06/2018
1258872|Wessington Springs|Populated Place|70220|P1|2910|462910073|46|SD|1|073|Jerauld|44.0791571|-98.569536|02/13/1980|02/15/2018
1258893|West Fork|Populated Place|70360|U6|||46|SD|1|055|Haakon|44.4458179|-101.5484784|02/13/1980|
1258928|Westport|Populated Place|70540|P1|2915|462915013|46|SD|1|013|Brown|45.6488645|-98.4970402|02/13/1980|03/20/2008
1258932|Wetonka|Populated Place|70740|P1|2920|462920089|46|SD|1|089|McPherson|45.6252548|-98.7678798|02/13/1980|02/15/2018
1258935|Wewela|Populated Place|70780|U6|2923|462923123|46|SD|1|123|Tripp|43.0105597|-99.7809488|02/13/1980|
1258947|White|Populated Place|70940|P1|2930|462930011|46|SD|1|011|Brookings|44.4346879|-96.6497736|02/13/1980|03/20/2008
1258949|White Butte|Populated Place|71020|U6|||46|SD|1|105|Perkins|45.9405575|-102.3623796|02/13/1980|
1258966|White Lake|Populated Place|71180|P1|2940|462940003|46|SD|1|003|Aurora|43.7302731|-98.7136998|02/13/1980|01/16/2018
1258970|White Owl|Populated Place|71260|U6|2945|462945093|46|SD|1|093|Meade|44.592211|-102.430721|02/13/1980|05/11/2011
1258972|White Rock|Populated Place|71380|P1|2960|462960109|46|SD|1|109|Roberts|45.9166266|-96.5717363|02/13/1980|03/20/2008
1258980|Whitehorse|Populated Place|71140|U5|2935|462935041|46|SD|1|041|Dewey|45.2705398|-100.8865329|02/13/1980|03/20/2008
1258993|Wicksville|Populated Place|71660|U6|||46|SD|1|103|Pennington|44.0960978|-102.5885008|02/13/1980|
1259028|Willow Lake|Populated Place|71940|P1|2980|462980025|46|SD|1|025|Clark|44.627469|-97.6370273|02/13/1980|01/29/2018
1259033|Wilmot|Populated Place|71980|P1|2990|462990109|46|SD|1|109|Roberts|45.4085732|-96.8578499|02/13/1980|02/28/2018
1259047|Winfred|Populated Place|72100|U5|3000|463000079|46|SD|1|079|Lake|43.9971969|-97.3622875|02/13/1980|02/15/2018
1259072|Wolsey|Populated Place|72540|P1|3020|463020005|46|SD|1|005|Beadle|44.4077625|-98.4748155|02/13/1980|01/16/2018
1259083|Woonsocket|Populated Place|72700|P1|3040|463040111|46|SD|1|111|Sanborn|44.0535982|-98.2756432|02/13/1980|02/28/2018
1259085|Worthing|Populated Place|72820|P1|3050|463050083|46|SD|1|083|Lincoln|43.3291475|-96.7628257|02/13/1980|02/15/2018
1259089|Yale|Populated Place|73020|P1|3060|463060005|46|SD|1|005|Beadle|44.4338671|-97.9900878|02/13/1980|01/16/2018
1259091|Yankton|Populated Place|73060|P1|3070|463070135|46|SD|1|135|Yankton|42.8711088|-97.3972813|02/13/1980|02/28/2018
1259101|Zell|Populated Place|73300|U6|3080|463080049|46|SD|1|049|Faulk|44.8969201|-98.7284331|02/13/1980|
1259101|Zell|Populated Place|73300|U6|3080|463080059|46|SD|2|059|Hand|44.8969201|-98.7284331|02/13/1980|
1259104|Zeona|Populated Place|73380|U6|3085|463085105|46|SD|1|105|Perkins|45.1933219|-102.9123904|02/13/1980|
1259250|North Eagle Butte|Populated Place|45548|U5|||46|SD|1|041|Dewey|45.0041469|-101.2337627|09/23/1986|03/20/2008
1259251|Rapid Valley|Populated Place|53007|U5|||46|SD|1|103|Pennington|44.0624879|-103.14629|09/23/1986|03/20/2008
1259253|Norton Acres|Populated Place|45820|U6|||46|SD|1|099|Minnehaha|43.577197|-96.7044939|09/23/1986|
1259254|Empire|Populated Place|19540|U6|||46|SD|1|019|Butte|44.617486|-103.3212956|09/23/1986|
1259255|Spring Valley|Populated Place|61100|U6|||46|SD|1|125|Turner|43.2041563|-97.2689463|09/23/1986|
1259257|Plano|Populated Place|50100|U6|||46|SD|1|061|Hanson|43.8060928|-97.9225765|09/23/1986|
1260945|New Effington|Populated Place|44820|P1|1950|461950109|46|SD|1|109|Roberts|45.8563481|-96.9203579|02/13/1980|02/28/2018
1260946|Newark|Populated Place|44740|U6|1940|461940091|46|SD|1|091|Marshall|45.9294065|-97.7914912|02/13/1980|02/15/2018
1260972|Ajax|Populated Place|00530|U6|||46|SD|1|103|Pennington|43.8974895|-103.181851|02/13/1980|
1260973|Alsen|Populated Place|01130|U6|||46|SD|1|127|Union|42.961104|-96.8055984|02/13/1980|
1260973|Alsen|Populated Place|01130|U6|||46|SD|2|027|Clay|42.961104|-96.8055984|02/13/1980|
1260974|Alsville|Populated Place|01135|U6|||46|SD|1|057|Hamlin|44.5866326|-97.1281244|02/13/1980|
1260975|Ames|Populated Place|01380|U6|||46|SD|1|059|Hand|44.2691541|-99.084822|02/13/1980|
1260976|Athboy|Populated Place|02650|U6|||46|SD|1|031|Corson|45.5741523|-101.9226431|02/13/1980|
1260977|Badnation|Populated Place|03135|U6|||46|SD|1|095|Mellette|43.6516598|-100.3698566|02/13/1980|
1260978|Bear Butte|Populated Place|03980|U6|||46|SD|1|093|Meade|44.4744299|-103.3074065|02/13/1980|
1260979|Beardsley|Populated Place|04060|U6|||46|SD|1|067|Hutchinson|43.2983222|-97.9822942|02/13/1980|
1260980|Beebe|Populated Place|04230|U6|||46|SD|1|045|Edmunds|45.4480311|-99.195393|02/13/1980|
1260981|Bend|Populated Place|04760|U6|||46|SD|1|093|Meade|44.2277646|-103.0101751|02/13/1980|
1260982|Big Springs|Populated Place|05420|U6|||46|SD|1|127|Union|42.9380468|-96.6075355|02/13/1980|
1260983|Bloomfield|Populated Place|06085|U6|||46|SD|1|115|Spink|44.6324766|-98.09898|02/13/1980|
1260984|Boneita Springs|Populated Place|06210|U6|||46|SD|1|093|Meade|44.4449875|-102.56239|02/13/1980|
1260985|Booge|Populated Place|06390|U6|||46|SD|1|099|Minnehaha|43.645806|-96.4600409|02/13/1980|
1260986|Burkmere|Populated Place|08760|U6|||46|SD|1|049|Faulk|45.0485869|-99.3117791|02/13/1980|
1260987|Castle Rock|Populated Place|10460|U6|||46|SD|1|019|Butte|44.9644342|-103.4243538|02/13/1980|
1260988|Cedar Canyon|Populated Place|10830|U6|||46|SD|1|093|Meade|45.0235996|-102.6904426|02/13/1980|
1260989|Clearfield|Populated Place|12500|U6|0598|460598123|46|SD|1|123|Tripp|43.1683373|-100.028176|02/13/1980|
1260991|Craven|Populated Place|14460|U6|||46|SD|1|045|Edmunds|45.4421975|-98.9251084|02/13/1980|
1260993|Creighton|Populated Place|14540|U6|0684|460684103|46|SD|1|103|Pennington|44.2549857|-102.2079358|02/13/1980|
1260994|Dahlberg|Populated Place|15220|U6|||46|SD|1|109|Roberts|45.8557923|-97.1853669|02/13/1980|
1260995|Dalzell|Populated Place|15340|U6|||46|SD|1|093|Meade|44.3435972|-102.3965527|02/13/1980|
1260996|Danforth|Populated Place|15390|U6|||46|SD|1|059|Hand|44.2541546|-98.8834298|02/13/1980|
1260997|Denby|Populated Place|16180|U6|0766|460766102|46|SD|1|102|Oglala Lakota|43.0608228|-102.3376561|02/13/1980|
1260998|Devoe|Populated Place|16335|U6|||46|SD|1|049|Faulk|45.0916408|-98.878716|02/13/1980|
1260999|Duxbury|Populated Place|17460|U6|||46|SD|1|115|Spink|45.2410875|-98.4950932|02/13/1980|
1261000|Eagle|Populated Place|17495|U6|||46|SD|1|015|Brule|43.5719431|-99.0909255|02/13/1980|
1261002|Emmet|Populated Place|19510|U6|||46|SD|1|127|Union|42.9827698|-96.7461528|02/13/1980|
1261003|Fairpoint|Populated Place|20540|U6|||46|SD|1|093|Meade|44.7483218|-102.7965584|02/13/1980|
1261004|Foley|Populated Place|21975|U6|||46|SD|1|029|Codington|44.8394087|-97.1475735|02/13/1980|
1261005|Franklin|Populated Place|22740|U6|||46|SD|1|079|Lake|43.8916415|-97.0689482|02/13/1980|
1261006|Gallup|Populated Place|23360|U6|||46|SD|1|115|Spink|45.0705307|-98.4953715|02/13/1980|
1261007|Gorman|Populated Place|24940|U6|||46|SD|1|107|Potter|44.9269261|-100.0748438|02/13/1980|
1261008|Gray Goose|Populated Place|25745|U6|||46|SD|1|065|Hughes|44.5047039|-100.3506896|02/13/1980|
1261009|Greenfield|Populated Place|25860|U6|||46|SD|1|027|Clay|42.8805506|-96.8455984|02/13/1980|
1261010|Greenway|Populated Place|26060|U6|||46|SD|1|089|McPherson|45.9097039|-99.7109518|02/13/1980|02/15/2018
1261011|Grosse|Populated Place|26330|U6|||46|SD|1|015|Brule|43.927216|-99.2864898|02/13/1980|
1261012|Grover|Populated Place|26540|U6|||46|SD|1|029|Codington|44.8138531|-97.2686882|02/13/1980|
1261013|Harding|Populated Place|27010|U6|||46|SD|1|063|Harding|45.3983272|-103.8327049|02/13/1980|
1261014|Haydraw|Populated Place|27770|U6|||46|SD|1|093|Meade|44.4449867|-102.7218376|02/13/1980|
1261015|Hereford|Populated Place|28220|U6|||46|SD|1|093|Meade|44.3872086|-102.8954511|02/13/1980|
1261016|Hill Side|Populated Place|29270|U6|||46|SD|1|127|Union|42.9391601|-96.7853199|02/13/1980|
1261017|Hillside|Populated Place|29220|U6|||46|SD|1|043|Douglas|43.4688759|-98.2122994|02/13/1980|
1261018|Hillsview|Populated Place|29340|P1|1330|461330089|46|SD|1|089|McPherson|45.6647023|-99.5584513|02/13/1980|03/20/2008
1261019|Hooker|Populated Place|29900|U6|||46|SD|1|125|Turner|43.1999861|-97.0247727|02/13/1980|
1261020|Hoover|Populated Place|29940|U6|||46|SD|1|019|Butte|45.1124898|-103.2671249|02/13/1980|
1261021|Howes|Populated Place|30580|U6|1382|461382093|46|SD|1|093|Meade|44.6194322|-102.0518255|02/13/1980|
1261022|Imogene|Populated Place|31430|U6|||46|SD|1|105|Perkins|45.1405432|-102.7129412|02/13/1980|
1261024|Jamesville|Populated Place|32375|U6|||46|SD|1|135|Yankton|43.1027724|-97.4836751|02/13/1980|
1261025|Jolly Dump|Populated Place|32900|U6|||46|SD|1|019|Butte|44.5935953|-103.8679817|02/13/1980|
1261026|Junction City|Populated Place|33100|U6|||46|SD|1|127|Union|42.786664|-96.7861515|02/13/1980|
1261027|Kingsburg|Populated Place|34100|U6|||46|SD|1|009|Bon Homme|42.9144422|-97.9311807|02/13/1980|01/23/2018
1261028|Kones Corner|Populated Place|34260|U6|||46|SD|1|057|Hamlin|44.7313534|-97.1075708|02/13/1980|
1261029|LaDelle|Populated Place|34610|U6|||46|SD|1|115|Spink|44.6752538|-98.1189805|02/13/1980|
1261030|Lacy|Populated Place|34600|U6|||46|SD|1|117|Stanley|44.4955354|-100.7012544|02/13/1980|
1261031|Ladner|Populated Place|34620|U6|1535|461535063|46|SD|1|063|Harding|45.8272227|-103.7279777|02/13/1980|
1261032|Lakeview|Populated Place|35665|U6|||46|SD|1|121|Todd|43.1036169|-100.7481969|02/13/1980|
1261033|Lantry|Populated Place|35900|U6|1593|461593041|46|SD|1|041|Dewey|45.0144259|-101.4315439|02/13/1980|
1261035|Lodi|Populated Place|38135|U6|||46|SD|1|027|Clay|42.982493|-96.9839357|02/13/1980|
1261036|Lone Tree|Populated Place|38660|U6|||46|SD|1|101|Moody|43.9788605|-96.7292169|02/13/1980|
1261038|Mahto|Populated Place|40340|U6|||46|SD|1|031|Corson|45.7586097|-100.676245|02/13/1980|
1261039|Marlow|Populated Place|41020|U6|||46|SD|1|091|Marshall|45.9207932|-97.3856503|02/13/1980|
1261040|Mawl Springs|Populated Place|41415|U6|||46|SD|1|103|Pennington|44.087209|-102.8004484|02/13/1980|
1261041|Mayfield|Populated Place|41500|U6|||46|SD|1|135|Yankton|43.0824936|-97.3186685|02/13/1980|
1261042|Medary|Populated Place|41775|U6|||46|SD|1|011|Brookings|44.2096916|-96.7867197|02/13/1980|01/23/2018
1261043|Metzgerville|Populated Place|42070|U6|||46|SD|1|035|Davison|43.5419312|-98.262579|02/13/1980|
1261044|Midway|Populated Place|42225|U6|||46|SD|1|127|Union|42.8663841|-96.7864302|02/13/1980|
1261045|Midway|Populated Place|42240|U6|||46|SD|1|135|Yankton|43.1258264|-97.3992278|02/13/1980|
1261046|Midway|Populated Place|42215|U6|||46|SD|1|099|Minnehaha|43.7033074|-96.7114389|02/13/1980|
1261047|Moe|Populated Place|43210|U6|||46|SD|1|083|Lincoln|43.1560966|-96.6089284|02/13/1980|
1261048|Moreau|Populated Place|43645|U6|||46|SD|1|041|Dewey|45.3558226|-100.3979137|02/13/1980|
1261049|Naomi|Populated Place|44530|U6|||46|SD|1|083|Lincoln|43.3305373|-96.9244952|02/13/1980|
1261049|Naomi|Populated Place|44530|U6|||46|SD|2|125|Turner|43.3305373|-96.9244952|02/13/1980|
1261050|Okobojo|Populated Place|46650|U6|||46|SD|1|119|Sully|44.6491491|-100.3956911|02/13/1980|
1261051|Ola|Populated Place|46700|U5|||46|SD|1|015|Brule|43.600832|-99.2106509|02/13/1980|01/29/2011
1261052|Ordway|Populated Place|47380|U6|||46|SD|1|013|Brown|45.5785837|-98.4120406|02/13/1980|
1261053|Orland|Populated Place|47540|U6|||46|SD|1|079|Lake|43.8916426|-97.1892279|02/13/1980|
1261054|Pearsons Corner|Populated Place|48860|U6|||46|SD|1|135|Yankton|43.1694355|-97.318392|02/13/1980|
1261054|Pearsons Corner|Populated Place|48860|U6|||46|SD|2|125|Turner|43.1694355|-97.318392|02/13/1980|
1261055|Pedro|Populated Place|48900|U6|||46|SD|1|103|Pennington|44.4199864|-102.1190461|02/13/1980|
1261056|Powell|Populated Place|51510|U6|||46|SD|1|055|Haakon|44.0441552|-101.4906982|02/13/1980|
1261057|Powell|Populated Place|51505|U6|||46|SD|1|045|Edmunds|45.2885846|-99.0309455|02/13/1980|
1261058|Pumpkin Center|Populated Place|52340|U6|||46|SD|1|099|Minnehaha|43.5433124|-97.0886684|02/13/1980|
1261059|Ralph|Populated Place|52780|U6|2232|462232063|46|SD|1|063|Harding|45.7766666|-103.0660038|02/13/1980|
1261060|Redig|Populated Place|53580|U6|2281|462281063|46|SD|1|063|Harding|45.271103|-103.5482463|02/13/1980|
1261061|Rockyford|Populated Place|55665|U6|||46|SD|1|102|Oglala Lakota|43.4972116|-102.5021165|02/13/1980|
1261063|Rumpus Ridge|Populated Place|56740|U6|||46|SD|1|087|McCook|43.5805355|-97.1886706|02/13/1980|
1261064|Sheffield|Populated Place|58360|U6|||46|SD|1|005|Beadle|44.4130358|-98.0739778|02/13/1980|
1261065|Shindler|Populated Place|58590|U5|||46|SD|1|083|Lincoln|43.4749759|-96.648658|02/13/1980|01/29/2011
1261066|Sioux Falls Junction|Populated Place|59100|U6|||46|SD|1|101|Moody|43.9791384|-96.6894935|02/13/1980|
1261067|Slim Butte|Populated Place|59505|U6|||46|SD|1|102|Oglala Lakota|43.0760921|-102.8207338|02/13/1980|
1261068|Spain|Populated Place|59980|U6|||46|SD|1|091|Marshall|45.7030061|-97.7859363|02/13/1980|
1261069|Stamford|Populated Place|61220|U6|||46|SD|1|071|Jackson|43.8949909|-101.0890293|02/13/1980|
1261070|Stoneville|Populated Place|61860|U6|||46|SD|1|093|Meade|44.7335996|-102.6546121|02/13/1980|
1261071|Turkey Ridge|Populated Place|64420|U6|||46|SD|1|125|Turner|43.2435997|-97.2795028|02/13/1980|
1261072|Usta|Populated Place|65740|U6|||46|SD|1|105|Perkins|45.220258|-102.1629361|02/13/1980|
1261073|Valleyview|Populated Place|66340|U6|||46|SD|1|135|Yankton|42.9672181|-97.2789434|02/13/1980|
1261074|Vedin Corner|Populated Place|66620|U6|||46|SD|1|135|Yankton|43.0824943|-97.3989494|02/13/1980|
1261075|Viewfield|Populated Place|67260|U6|||46|SD|1|093|Meade|44.2119299|-102.8296145|02/13/1980|
1261076|Virginia|Populated Place|67560|U6|||46|SD|1|041|Dewey|45.2424847|-100.567919|02/13/1980|
1261077|Volunteer|Populated Place|67860|U6|||46|SD|1|093|Meade|44.5119307|-103.1329574|02/13/1980|
1261078|Wendte|Populated Place|69980|U6|||46|SD|1|117|Stanley|44.2444261|-100.6651383|02/13/1980|
1261079|Westover|Populated Place|70465|U6|||46|SD|1|075|Jones|43.7477694|-100.6662473|02/13/1980|
1261080|Westreville|Populated Place|70610|U6|||46|SD|1|027|Clay|42.9241611|-97.0233806|02/13/1980|
1261081|Winship|Populated Place|72250|U6|||46|SD|1|013|Brown|45.922751|-98.5187111|02/13/1980|
1261088|Ahnberg|Populated Place|00525|U6|||46|SD|1|011|Brookings|44.3041364|-97.0570071|02/13/1980|
1261089|Allen|Populated Place|00900|U5|0065|460065007|46|SD|1|007|Bennett|43.2808283|-101.9243185|02/13/1980|03/20/2008
1261090|Appleby|Populated Place|01820|U6|||46|SD|1|029|Codington|44.8169089|-97.0506257|02/13/1980|
1261091|Argonne|Populated Place|02140|U6|||46|SD|1|097|Miner|44.0733075|-97.6386848|02/13/1980|
1261092|Arpan|Populated Place|02300|U6|||46|SD|1|019|Butte|44.7883191|-103.6490851|02/13/1980|
1261093|Bath Corner|Populated Place|03960|U5|||46|SD|1|013|Brown|45.4591362|-98.32954|02/13/1980|01/13/2011
1261094|Betts|Populated Place|05180|U6|||46|SD|1|035|Davison|43.7063737|-98.1461904|02/13/1980|
1261095|Bijou Hills|Populated Place|05580|U5|||46|SD|1|015|Brule|43.518055|-99.1498153|02/13/1980|01/29/2011
1261096|Black Horse|Populated Place|05790|U6|||46|SD|1|031|Corson|45.7158278|-101.3806936|02/13/1980|
1261097|Blackpipe|Populated Place|05815|U6|||46|SD|1|007|Bennett|43.343889|-101.2745928|02/13/1980|
1261098|Bloomingdale|Populated Place|06090|U6|||46|SD|1|027|Clay|42.9244386|-96.9567124|02/13/1980|
1261099|Burdette|Populated Place|08535|U6|||46|SD|1|059|Hand|44.7049783|-98.8003776|02/13/1980|
1261100|Carlock|Populated Place|09895|U6|||46|SD|1|053|Gregory|43.0819457|-99.4348289|02/13/1980|
1261101|Council House|Populated Place|14310|U6|||46|SD|1|085|Lyman|44.0777665|-99.5889994|02/13/1980|
1261102|Crow Lake|Populated Place|14900|U6|||46|SD|1|073|Jerauld|43.9574939|-98.7389812|02/13/1980|
1261103|De Grey|Populated Place|15780|U6|||46|SD|1|065|Hughes|44.2858171|-99.9178979|02/13/1980|
1261104|Diamond|Populated Place|16530|U6|||46|SD|1|109|Roberts|45.7371828|-96.6914605|02/13/1980|
1261105|Eakin|Populated Place|17660|U6|||46|SD|1|119|Sully|44.6155377|-100.0331781|02/13/1980|
1261106|Elm Springs|Populated Place|19100|U6|0887|460887093|46|SD|1|093|Meade|44.3133187|-102.5276665|02/13/1980|
1261107|Farwell|Populated Place|21230|U6|||46|SD|1|111|Sanborn|43.8505367|-97.911466|02/13/1980|
1261107|Farwell|Populated Place|21230|U6|||46|SD|2|061|Hanson|43.8505367|-97.911466|02/13/1980|
1261108|Gretna|Populated Place|26300|U6|||46|SD|1|045|Edmunds|45.4505347|-99.5148398|02/13/1980|
1261109|Gustave|Populated Place|26560|U6|||46|SD|1|063|Harding|45.281101|-103.9752127|02/13/1980|
1261110|Harrington|Populated Place|27220|U6|||46|SD|1|007|Bennett|43.1711136|-101.2545948|02/13/1980|
1261111|Hidden Timber|Populated Place|28600|U6|||46|SD|1|121|Todd|43.2294499|-100.4215204|02/13/1980|
1261112|Huntimer|Populated Place|30950|U6|||46|SD|1|099|Minnehaha|43.8341412|-96.9300559|02/13/1980|
1261113|Fordham Colony|Populated Place|31145|U6|||46|SD|1|025|Clark|44.7685819|-97.909256|02/13/1980|06/01/2012
1261114|Karinen|Populated Place|33330|U6|||46|SD|1|063|Harding|45.900557|-103.6749196|02/13/1980|
1261115|Keldron|Populated Place|33460|U6|1503|461503031|46|SD|1|031|Corson|45.9319474|-101.809582|02/13/1980|
1261116|Keyapaha|Populated Place|33740|U6|1514|461514123|46|SD|1|123|Tripp|43.1094497|-100.1379014|02/13/1980|
1261117|Kirley|Populated Place|34160|U6|||46|SD|1|055|Haakon|44.5235944|-101.3118128|02/13/1980|
1261118|Littleburg|Populated Place|37870|U6|||46|SD|1|121|Todd|43.0450068|-100.4520757|02/13/1980|
1261119|Lyonville|Populated Place|39785|U6|||46|SD|1|015|Brule|43.877774|-98.9706501|02/13/1980|
1261120|Madra|Populated Place|40260|U6|||46|SD|1|089|McPherson|45.9299816|-99.7165074|02/13/1980|
1261121|Maple Leaf|Populated Place|40620|U6|||46|SD|1|031|Corson|45.9247218|-100.890687|02/13/1980|
1261122|Millard|Populated Place|42370|U6|||46|SD|1|049|Faulk|45.1494189|-99.1948347|02/13/1980|
1261123|Miscol|Populated Place|42880|U6|||46|SD|1|031|Corson|45.6769391|-101.1623621|02/13/1980|
1261124|Moritz|Populated Place|43750|U6|||46|SD|1|039|Deuel|44.833853|-96.5611667|02/13/1980|
1261125|Mosher|Populated Place|43940|U6|||46|SD|1|095|Mellette|43.4683323|-100.2981892|02/13/1980|
1261126|Murphy|Populated Place|44340|U6|||46|SD|1|103|Pennington|44.0444325|-103.1271228|02/13/1980|
1261127|Nahon|Populated Place|44495|U6|||46|SD|1|013|Brown|45.3855286|-98.406483|02/13/1980|
1261128|Napa Junction|Populated Place|44590|U6|||46|SD|1|135|Yankton|42.9411087|-97.4536728|02/13/1980|
1261129|Oglala|Populated Place|46540|U5|2032|462032102|46|SD|1|102|Oglala Lakota|43.1885942|-102.7396211|02/13/1980|03/20/2008
1261130|Osceola|Populated Place|47820|U6|||46|SD|1|077|Kingsbury|44.4674744|-97.8386961|02/13/1980|
1261131|Parade|Populated Place|48300|U6|||46|SD|1|041|Dewey|45.02387|-101.1045932|02/13/1980|
1261132|Rauville|Populated Place|53060|U6|||46|SD|1|029|Codington|44.9796868|-97.1059073|02/13/1980|
1261133|Renner Corner|Populated Place|54145|U5|||46|SD|1|099|Minnehaha|43.6452523|-96.7114387|02/13/1980|01/13/2011
1261134|Ridgeview|Populated Place|54900|U6|2315|462315041|46|SD|1|041|Dewey|45.0849827|-100.8004206|02/13/1980|
1261135|Riverside|Populated Place|55140|U6|||46|SD|1|061|Hanson|43.7227606|-97.9484089|02/13/1980|
1261136|Rousseau|Populated Place|56510|U6|||46|SD|1|065|Hughes|44.316372|-100.0715133|02/13/1980|
1261137|Rudolph|Populated Place|56660|U6|||46|SD|1|013|Brown|45.3480323|-98.5362059|02/13/1980|01/23/2018
1261140|Sitka|Populated Place|59380|U6|||46|SD|1|129|Walworth|45.5169359|-100.1862369|02/13/1980|
1261141|Snake Creek|Populated Place|59630|U6|||46|SD|1|031|Corson|45.5847175|-100.5859712|02/13/1980|
1261142|Soldier Creek|Populated Place|59700|U5|||46|SD|1|121|Todd|43.3236142|-100.8882002|02/13/1980|01/29/2011
1261143|Spottswood|Populated Place|60320|U6|||46|SD|1|115|Spink|44.6522019|-98.5056506|02/13/1980|
1261144|Spring Grove|Populated Place|60745|U6|||46|SD|1|109|Roberts|45.4630163|-97.0500796|02/13/1980|
1261145|Sulphur|Populated Place|62150|U6|||46|SD|1|093|Meade|44.8766557|-102.9135051|02/13/1980|
1261146|Teton|Populated Place|63250|U6|||46|SD|1|117|Stanley|44.2869263|-100.5079139|02/13/1980|
1261147|Thatcher|Populated Place|63290|U6|||46|SD|1|041|Dewey|45.0219264|-100.9276451|02/13/1980|
1261149|Tunerville|Populated Place|64350|U6|||46|SD|1|039|Deuel|44.8902426|-96.6811706|02/13/1980|
1261150|Tuthill|Populated Place|64620|U6|2665|462665007|46|SD|1|007|Bennett|43.1558331|-101.4937604|02/13/1980|01/23/2018
1261151|Walker|Populated Place|68260|U6|2816|462816031|46|SD|1|031|Corson|45.9102781|-101.0904102|02/13/1980|
1261152|West Britton|Populated Place|70280|U6|||46|SD|1|091|Marshall|45.7921755|-97.837882|02/13/1980|
1261153|Yellowhorse Ford|Populated Place|73200|U6|||46|SD|1|041|Dewey|45.2802626|-100.7970874|02/13/1980|
1261164|Shadehill|Populated Place|58260|U6|2425|462425105|46|SD|1|105|Perkins|45.7655514|-102.1793214|02/13/1980|
1261167|Summerville|Populated Place|62160|U6|||46|SD|1|105|Perkins|45.773885|-102.1773768|09/23/1986|
1261200|Ardmore|Populated Place|01980|U6|0100|460100047|46|SD|1|047|Fall River|43.0194127|-103.6563145|02/13/1980|
1261201|Argyle|Populated Place|02150|U6|||46|SD|1|033|Custer|43.5349783|-103.6479726|02/13/1980|
1261253|Benchmark|Populated Place|04730|U6|||46|SD|1|081|Lawrence|44.2252632|-103.5782475|02/13/1980|
1261259|Berne|Populated Place|05020|U6|||46|SD|1|033|Custer|43.8174833|-103.6388061|02/13/1980|
1261262|Big Bend|Populated Place|05300|U6|||46|SD|1|103|Pennington|44.065543|-103.4146319|02/13/1980|
1261342|Brandt|Populated Place|06940|P1|0300|460300039|46|SD|1|039|Deuel|44.6635753|-96.6242218|02/13/1980|03/20/2008
1261390|Cactus Flat|Populated Place|09100|U6|||46|SD|1|071|Jackson|43.8355476|-101.8943171|09/23/1986|
1261404|Canyon City (historical)|Populated Place|09600|U6|||46|SD|1|103|Pennington|44.0849852|-103.6057487|02/13/1980|
1261407|Caputa|Populated Place|09780|U6|0473|460473103|46|SD|1|103|Pennington|43.9938774|-102.9821191|02/13/1980|
1261434|Central City|Populated Place|11140|P1|0530|460530081|46|SD|1|081|Lawrence|44.3658176|-103.772421|02/13/1980|02/15/2018
1261477|Conata|Populated Place|13580|U6|||46|SD|1|103|Pennington|43.7286034|-102.1887707|02/13/1980|
1261490|Cottonwood|Populated Place|14220|P1|0680|460680071|46|SD|1|071|Jackson|43.9669341|-101.9059831|02/13/1980|03/20/2008
1261505|Creston|Populated Place|14620|U6|||46|SD|1|103|Pennington|43.9105445|-102.6987841|02/13/1980|
1261554|Dewey|Populated Place|16380|U6|||46|SD|1|033|Custer|43.5308076|-104.0410424|02/13/1980|
1261594|Dudley|Populated Place|17215|U6|||46|SD|1|047|Fall River|43.311362|-103.8182533|02/13/1980|
1261600|Dumont|Populated Place|17340|U6|||46|SD|1|081|Lawrence|44.2385954|-103.7988107|02/13/1980|
1261642|Elmore|Populated Place|19060|U6|||46|SD|1|081|Lawrence|44.3155395|-103.8874261|02/13/1980|
1261645|Englewood|Populated Place|19580|U6|||46|SD|1|081|Lawrence|44.2969288|-103.7846436|02/13/1980|
1261656|Fairburn|Populated Place|20340|P1|0950|460950033|46|SD|1|033|Custer|43.6861008|-103.2115821|02/13/1980|03/20/2008
1261667|Farmingdale|Populated Place|21100|U6|0995|460995103|46|SD|1|103|Pennington|43.9591551|-102.8837856|02/13/1980|
1261673|Five Points|Populated Place|21510|U6|||46|SD|1|103|Pennington|43.9713752|-103.5504699|02/13/1980|
1261685|Folsom|Populated Place|21990|U6|||46|SD|1|033|Custer|43.8252673|-102.8699019|02/13/1980|
1261691|Fourmile|Populated Place|22510|U6|||46|SD|1|033|Custer|43.7327594|-103.6754736|02/13/1980|
1261734|Gossage Memorial|Populated Place|24950|U6|||46|SD|1|103|Pennington|44.0708211|-103.2507376|02/13/1980|
1261765|Hanna|Populated Place|26900|U6|||46|SD|1|081|Lawrence|44.2616509|-103.8457575|02/13/1980|
1261769|Harney|Populated Place|27190|U6|||46|SD|1|103|Pennington|43.8924883|-103.3879672|02/13/1980|
1261804|Heppner|Populated Place|28200|U6|||46|SD|1|047|Fall River|43.2469185|-103.5499187|02/13/1980|
1261819|Hisega|Populated Place|29420|U6|||46|SD|1|103|Pennington|44.0533208|-103.4018537|02/13/1980|
1261859|Igloo|Populated Place|31270|U6|||46|SD|1|047|Fall River|43.2024715|-103.8568674|02/13/1980|
1261861|Imlay|Populated Place|31380|U6|||46|SD|1|103|Pennington|43.7194367|-102.3973903|02/13/1980|
1261866|Interior|Populated Place|31620|P1|1430|461430071|46|SD|1|071|Jackson|43.7269378|-101.9840423|02/13/1980|03/20/2008
1261905|Kadoka|Populated Place|33180|P1|1500|461500071|46|SD|1|071|Jackson|43.833882|-101.5098658|02/13/1980|03/20/2008
1261906|Kadoka Junction|Populated Place|33225|U6|||46|SD|1|071|Jackson|43.8358263|-101.5223659|02/13/1980|
1261912|Keystone|Populated Place|33820|P1|1515|461515103|46|SD|1|103|Pennington|43.8955436|-103.4182455|02/13/1980|03/20/2008
1262021|Marietta|Populated Place|40780|U6|||46|SD|1|047|Fall River|43.3919179|-103.9193691|02/13/1980|
1262031|Maurice|Populated Place|41375|U6|||46|SD|1|081|Lawrence|44.3977617|-103.8977046|02/13/1980|
1262057|Merritt|Populated Place|42050|U6|||46|SD|1|103|Pennington|44.140819|-103.5685253|02/13/1980|
1262057|Merritt|Populated Place|42050|U6|||46|SD|2|081|Lawrence|44.140819|-103.5685253|02/13/1980|
1262082|Minnekahta|Populated Place|42780|U6|||46|SD|1|047|Fall River|43.4305313|-103.6882504|02/13/1980|
1262118|Nemo|Populated Place|44700|U6|1937|461937081|46|SD|1|081|Lawrence|44.1941528|-103.5049119|02/13/1980|
1262163|Oelrichs|Populated Place|46500|P1|2030|462030047|46|SD|1|047|Fall River|43.1788648|-103.2307532|02/13/1980|02/06/2018
1262170|Oreville|Populated Place|47430|U6|||46|SD|1|103|Pennington|43.867484|-103.6229722|02/13/1980|
1262198|Philip Junction|Populated Place|49310|U6|||46|SD|1|071|Jackson|43.9658232|-101.6612554|02/13/1980|
1262222|Pluma|Populated Place|51140|U6|||46|SD|1|081|Lawrence|44.3585955|-103.7382529|02/13/1980|
1262241|Preston|Populated Place|51915|U6|||46|SD|1|081|Lawrence|44.3577617|-103.887704|02/13/1980|
1262247|Provo|Populated Place|52140|U6|2215|462215047|46|SD|1|047|Fall River|43.1910824|-103.8249221|02/13/1980|
1262249|Quinn|Populated Place|52500|P1|2230|462230103|46|SD|1|103|Pennington|43.9880447|-102.1262668|02/13/1980|02/28/2018
1262279|Red Shirt|Populated Place|53820|U6|2285|462285102|46|SD|1|102|Oglala Lakota|43.6674891|-102.8987968|02/13/1980|
1262286|Redfern|Populated Place|53420|U6|||46|SD|1|103|Pennington|44.0024842|-103.6449165|02/13/1980|
1262290|Reno|Populated Place|54150|U6|||46|SD|1|103|Pennington|43.9147066|-103.6174163|02/13/1980|
1262317|Rochford|Populated Place|55340|U6|2318|462318103|46|SD|1|103|Pennington|44.124428|-103.7196408|02/13/1980|
1262320|Rockerville|Populated Place|55460|U6|||46|SD|1|103|Pennington|43.9580438|-103.3585202|02/13/1980|02/28/2018
1262323|Rocky Ford|Populated Place|55655|U6|||46|SD|1|047|Fall River|43.2863634|-103.5982514|02/13/1980|
1262342|Rumford|Populated Place|56700|U6|||46|SD|1|047|Fall River|43.126637|-103.6979776|02/13/1980|02/06/2018
1262357|Sanator|Populated Place|57460|U6|2395|462395033|46|SD|1|033|Custer|43.6966493|-103.6057504|02/13/1980|
1262368|Scenic|Populated Place|57780|U6|2398|462398103|46|SD|1|103|Pennington|43.779714|-102.5548958|02/13/1980|
1262371|Schaeferville|Populated Place|57850|U6|||46|SD|1|103|Pennington|44.1213763|-103.2954614|02/13/1980|
1262439|Smithwick|Populated Place|59620|U6|2466|462466047|46|SD|1|047|Fall River|43.3013677|-103.2182538|02/13/1980|
1262476|Spearfish|Populated Place|60020|P1|2490|462490081|46|SD|1|081|Lawrence|44.4908172|-103.8593698|02/13/1980|02/15/2018
1262481|Spokane|Populated Place|60310|U6|||46|SD|1|033|Custer|43.8413775|-103.3799128|02/13/1980|
1262569|Terraville|Populated Place|63220|U6|||46|SD|1|081|Lawrence|44.3622065|-103.7646429|02/13/1980|
1262570|Terry|Populated Place|63230|U6|||46|SD|1|081|Lawrence|44.3335953|-103.8168674|02/13/1980|
1262587|Tilford|Populated Place|63580|U6|||46|SD|1|093|Meade|44.3002635|-103.4299097|02/13/1980|02/15/2018
1262601|Tomahawk|Populated Place|63710|U6|||46|SD|1|081|Lawrence|44.2119302|-103.5285238|02/13/1980|
1262635|Vestal Springs|Populated Place|66950|U6|||46|SD|1|033|Custer|43.8285932|-103.6863069|02/13/1980|
1262637|Victoria|Populated Place|67190|U6|||46|SD|1|081|Lawrence|44.3949839|-103.907705|02/13/1980|
1262653|Wall|Populated Place|68380|P1|2820|462820103|46|SD|1|103|Pennington|43.9924889|-102.2415477|02/13/1980|02/28/2018
1262682|Weta|Populated Place|70660|U6|||46|SD|1|071|Jackson|43.7744385|-101.7168128|02/13/1980|
1262710|Whitewood|Populated Place|71580|P1|2970|462970081|46|SD|1|081|Lawrence|44.4610953|-103.6385276|02/13/1980|02/15/2018
1262990|Kirk|Populated Place|34140|U6|||46|SD|1|081|Lawrence|44.3430399|-103.7935331|02/01/1991|
1263144|Pine Ridge Reservation|Civil|2810R|D2|||46|SD|1|007|Bennett|43.3528775|-102.0889264|09/01/1992|12/01/2016
1263144|Pine Ridge Reservation|Civil|2810R|D2|||46|SD|2|102|Oglala Lakota|43.3528775|-102.0889264|09/01/1992|12/01/2016
1263144|Pine Ridge Reservation|Civil|2810R|D2|||46|SD|3|071|Jackson|43.3528775|-102.0889264|09/01/1992|12/01/2016
1263144|Pine Ridge Reservation|Civil|2810R|D2|||31|NE|4|161|Sheridan|43.3528775|-102.0889264|09/01/1992|12/01/2016
1263387|Township of Newton (historical)|Civil||X1|||46|SD|1|015|Brule|43.6013853|-98.8448101|09/23/1986|03/20/2008
1263702|Winnebago Indian Reservation (historical)|Civil||X1|||46|SD|1|065|Hughes|44.2583182|-99.7753945|09/23/1986|04/11/2008
1264929|Anderson Subdivision|Populated Place|01452|U3|||46|SD|1|099|Minnehaha|43.5163638|-96.6250466|09/23/1986|01/13/2011
1264933|Meadow View Addition|Populated Place|41680|U5|||46|SD|1|099|Minnehaha|43.6199746|-96.7111609|09/23/1986|01/13/2011
1264938|Pine Lakes Addition|Populated Place|49640|U5|||46|SD|1|099|Minnehaha|43.5519191|-96.6356027|09/23/1986|01/13/2011
1265103|Akaska|Populated Place|00540|P1|0030|460030129|46|SD|1|129|Walworth|45.3324891|-100.1206808|02/13/1980|02/28/2018
1265111|Ashton|Populated Place|02540|P1|0140|460140115|46|SD|1|115|Spink|44.9949746|-98.4978718|02/13/1980|02/28/2018
1265119|Belle Fourche|Populated Place|04380|P1|0210|460210019|46|SD|1|019|Butte|44.6713733|-103.852148|02/13/1980|01/29/2018
1265129|Blackhawk|Populated Place|05780|U5|0255|460255093|46|SD|1|093|Meade|44.1510983|-103.3079619|02/13/1980|03/20/2008
1265131|Blacktail|Populated Place|05860|U6|||46|SD|1|081|Lawrence|44.3699843|-103.7601982|02/13/1980|
1265132|Bon Homme Colony|Populated Place|06300|U6|||46|SD|1|009|Bon Homme|42.8641656|-97.7070095|02/13/1980|
1265138|Burbank|Populated Place|08500|U6|0408|460408027|46|SD|1|027|Clay|42.745276|-96.8292077|02/13/1980|
1265145|Cascade Springs|Populated Place|10280|U6|||46|SD|1|047|Fall River|43.3333092|-103.5504737|02/13/1980|
1265146|Castlewood|Populated Place|10500|P1|0500|460500057|46|SD|1|057|Hamlin|44.7227424|-97.0300678|02/13/1980|02/06/2018
1265153|Chamberlain|Populated Place|11220|P1|0540|460540015|46|SD|1|015|Brule|43.810828|-99.3306556|02/13/1980|01/29/2018
1265155|Cheyenne Crossing|Populated Place|11820|U6|||46|SD|1|081|Lawrence|44.2960951|-103.8693697|02/13/1980|
1265158|Clark|Populated Place|12180|P1|0590|460590025|46|SD|1|025|Clark|44.877743|-97.7331411|02/13/1980|01/29/2018
1265162|Columbia|Populated Place|13420|P1|0640|460640013|46|SD|1|013|Brown|45.6130241|-98.3125979|02/13/1980|01/23/2018
1265169|Crandon|Populated Place|14415|U6|||46|SD|1|115|Spink|44.7746994|-98.4581505|02/13/1980|
1265170|Crook City|Populated Place|14680|U6|||46|SD|1|081|Lawrence|44.4413732|-103.6335274|02/13/1980|
1265173|Dalesburg|Populated Place|15270|U6|||46|SD|1|027|Clay|42.9769372|-96.9042117|02/13/1980|
1265178|De Smet|Populated Place|16260|P1|0770|460770077|46|SD|1|077|Kingsbury|44.3874697|-97.5503541|02/13/1980|03/20/2008
1265180|Deadwood|Populated Place|15700|P1|0740|460740081|46|SD|1|081|Lawrence|44.376651|-103.7296416|02/13/1980|03/20/2008
1265181|Deerfield|Populated Place|15770|U6|||46|SD|1|103|Pennington|44.0172035|-103.8340897|02/13/1980|
1265203|Elrod|Populated Place|19180|U6|||46|SD|1|025|Clark|44.8863532|-97.5736943|02/13/1980|
1265206|Erskine|Populated Place|19850|U6|||46|SD|1|047|Fall River|43.4330334|-103.5649174|02/13/1980|
1265207|Esmond|Populated Place|19900|U6|0910|460910077|46|SD|1|077|Kingsbury|44.2621967|-97.7714691|02/13/1980|
1265226|Galena|Populated Place|23260|U6|||46|SD|1|081|Lawrence|44.3335959|-103.6410274|02/13/1980|
1265227|Gannvalley|Populated Place|23420|U3|1085|461085017|46|SD|1|017|Buffalo|44.0333265|-98.9878745|02/13/1980|01/29/2011
1265238|Greenwood|Populated Place|26110|U6|||46|SD|1|081|Lawrence|44.2202633|-103.5615803|02/13/1980|
1265246|Hermosa|Populated Place|28300|P1|1270|461270033|46|SD|1|033|Custer|43.8397124|-103.1910205|02/13/1980|03/20/2008
1265247|Hetland|Populated Place|28460|P1|1300|461300077|46|SD|1|077|Kingsbury|44.3780244|-97.2350688|02/13/1980|03/20/2008
1265251|Hitchcock|Populated Place|29500|P1|1340|461340005|46|SD|1|005|Beadle|44.629702|-98.4095385|02/13/1980|03/20/2008
1265256|Hot Springs|Populated Place|30220|P1|1360|461360047|46|SD|1|047|Fall River|43.431646|-103.4743625|02/13/1980|02/06/2018
1265265|Kampeska|Populated Place|33260|U6|||46|SD|1|029|Codington|44.879964|-97.2686884|02/13/1980|02/01/2018
1265266|Kennebec|Populated Place|33580|P1|1510|461510085|46|SD|1|085|Lyman|43.903602|-99.8617834|02/13/1980|02/15/2018
1265268|Kimball|Populated Place|33980|P1|1520|461520015|46|SD|1|015|Brule|43.7466651|-98.9584258|02/13/1980|03/20/2008
1265274|Lake Preston|Populated Place|35500|P1|1570|461570077|46|SD|1|077|Kingsbury|44.3635802|-97.377294|02/13/1980|02/15/2018
1265276|Lead|Populated Place|36220|P1|1600|461600081|46|SD|1|081|Lawrence|44.3522065|-103.7651984|02/13/1980|03/20/2008
1265286|Lyman|Populated Place|39570|U6|||46|SD|1|085|Lyman|43.8811033|-99.7395576|02/13/1980|
1265287|Maitland|Populated Place|40390|U6|||46|SD|1|081|Lawrence|44.3974841|-103.8015891|02/13/1980|
1265289|Manchester|Populated Place|40460|U6|||46|SD|1|077|Kingsbury|44.3691394|-97.7206362|02/13/1980|
1265291|McGee|Populated Place|39930|U6|||46|SD|1|103|Pennington|44.0380433|-103.3840753|02/13/1980|
1265299|Myersville|Populated Place|44410|U6|||46|SD|1|103|Pennington|44.1033164|-103.7390858|02/13/1980|
1265300|Mystic|Populated Place|44460|U6|||46|SD|1|103|Pennington|44.076929|-103.641583|02/13/1980|
1265302|Nihart|Populated Place|45140|U6|||46|SD|1|033|Custer|43.656371|-103.5910281|02/13/1980|
1265307|Novak|Populated Place|46010|U6|||46|SD|1|081|Lawrence|44.2163745|-103.5518578|02/13/1980|
1265308|Oacoma|Populated Place|46180|P1|2020|462020085|46|SD|1|085|Lyman|43.7961053|-99.3956571|02/13/1980|02/15/2018
1265313|Oral|Populated Place|47340|U6|2075|462075047|46|SD|1|047|Fall River|43.4049815|-103.2690869|02/13/1980|
1265314|Owanka|Populated Place|47940|U6|2093|462093103|46|SD|1|103|Pennington|44.0222101|-102.58739|02/13/1980|02/28/2018
1265319|Piedmont|Populated Place|49500|P1|2142|462142093|46|SD|1|093|Meade|44.231653|-103.3890753|02/13/1980|02/15/2018
1265322|Plana|Populated Place|50010|U6|||46|SD|1|013|Brown|45.5191351|-98.3092632|02/13/1980|
1265323|Platte Colony|Populated Place|50310|U6|||46|SD|1|023|Charles Mix|43.4697214|-99.1259259|02/13/1980|
1265329|Pringle|Populated Place|51940|P1|2210|462210033|46|SD|1|033|Custer|43.6085921|-103.5938058|02/13/1980|03/20/2008
1265333|Rapid City|Populated Place|52980|P1|2250|462250103|46|SD|1|103|Pennington|44.0805434|-103.2310149|02/13/1980|02/28/2018
1265335|Ree Heights|Populated Place|53940|P1|2290|462290059|46|SD|1|059|Hand|44.5185938|-99.2001057|02/13/1980|02/15/2018
1265342|Roubaix|Populated Place|56480|U6|||46|SD|1|081|Lawrence|44.2758183|-103.6663058|02/13/1980|
1265350|Saint Lawrence|Populated Place|57180|P1|||46|SD|1|059|Hand|44.5177594|-98.9378777|02/13/1980|02/15/2018
1265360|Savoy|Populated Place|57700|U6|||46|SD|1|081|Lawrence|44.3524838|-103.9313171|02/13/1980|
1265372|Seneca|Populated Place|58180|P1|2420|462420049|46|SD|1|049|Faulk|45.0616446|-99.5120591|02/13/1980|03/20/2008
1265375|Silver City|Populated Place|58780|U6|2432|462432103|46|SD|1|103|Pennington|44.0844303|-103.563803|02/13/1980|02/28/2018
1265386|Stratosphere Bowl|Populated Place|62030|U6|||46|SD|1|103|Pennington|43.9766549|-103.3457414|02/13/1980|
1265387|Sturgis|Populated Place|62100|P1|2560|462560093|46|SD|1|093|Meade|44.4097069|-103.5090786|02/13/1980|02/15/2018
1265391|Tacoma Park|Populated Place|62900|U6|||46|SD|1|013|Brown|45.5430213|-98.2470422|02/13/1980|
1265396|Tigerville|Populated Place|63570|U6|||46|SD|1|103|Pennington|43.9766509|-103.6399165|02/13/1980|
1265397|Tinton|Populated Place|63630|U6|||46|SD|1|081|Lawrence|44.3805398|-104.0485446|02/13/1980|
1265400|Trojan|Populated Place|64090|U6|||46|SD|1|081|Lawrence|44.3422063|-103.8379795|02/13/1980|
1265406|Van Metre|Populated Place|66380|U6|||46|SD|1|075|Jones|44.1594279|-100.79375|02/13/1980|
1265413|Wentworth|Populated Place|70020|P1|2890|462890079|46|SD|1|079|Lake|43.9971946|-96.9642243|02/13/1980|02/15/2018
1265420|Woodville|Populated Place|72670|U6|||46|SD|1|081|Lawrence|44.2910957|-103.7551977|02/13/1980|
1265605|Johnson Siding|Populated Place|32820|U5|||46|SD|1|103|Pennington|44.0847094|-103.4379659|02/13/1980|01/29/2011
1265606|Alto|Populated Place|01215|U6|||46|SD|1|065|Hughes|44.3299831|-100.1273485|02/13/1980|
1265608|Andover|Populated Place|01500|P1|0090|460090037|46|SD|1|037|Day|45.4102319|-97.9025974|02/13/1980|02/01/2018
1265609|Artesian|Populated Place|02380|P1|0130|460130111|46|SD|1|111|Sanborn|44.0091465|-97.9209135|02/13/1980|02/28/2018
1265610|Athol|Populated Place|02660|U6|0155|460155115|46|SD|1|115|Spink|45.0088635|-98.5964856|02/13/1980|
1265611|Baltic|Populated Place|03380|P1|0190|460190099|46|SD|1|099|Minnehaha|43.7613629|-96.7403289|02/13/1980|02/16/2018
1265615|Bemis|Populated Place|04700|U6|0225|460225039|46|SD|1|039|Deuel|44.8349648|-96.8483975|02/13/1980|
1265616|Benclare|Populated Place|04740|U6|||46|SD|1|099|Minnehaha|43.5055299|-96.4789303|02/13/1980|02/16/2018
1265619|Bovee|Populated Place|06460|U6|||46|SD|1|023|Charles Mix|43.3233272|-98.7689726|02/13/1980|
1265621|Brownsville (historical)|Populated Place|07720|U6|||46|SD|1|081|Lawrence|44.2752627|-103.6943623|02/13/1980|
1265622|Burdock|Populated Place|08590|U6|||46|SD|1|047|Fall River|43.4530292|-103.9932617|02/13/1980|
1265623|Canova|Populated Place|09420|P1|0460|460460097|46|SD|1|097|Miner|43.8810873|-97.5045121|02/13/1980|02/15/2018
1265628|Corona|Populated Place|13940|P1|0660|460660109|46|SD|1|109|Roberts|45.3338521|-96.7631231|02/13/1980|03/20/2008
1265631|Crooks|Populated Place|14740|P1|0695|460695099|46|SD|1|099|Minnehaha|43.6646974|-96.8108859|02/13/1980|02/16/2018
1265633|Custer|Populated Place|15140|P1|0700|460700033|46|SD|1|033|Custer|43.7666507|-103.5988057|02/13/1980|03/20/2008
1265634|Cuthbert|Populated Place|15180|U6|||46|SD|1|111|Sanborn|43.9677638|-98.2239743|02/13/1980|
1265635|Dell Rapids|Populated Place|15980|P1|0750|460750099|46|SD|1|099|Minnehaha|43.8260842|-96.7061609|02/13/1980|03/20/2008
1265637|Ellis|Populated Place|18820|U6|0882|460882099|46|SD|1|099|Minnehaha|43.5624759|-96.830608|02/13/1980|
1265639|Epiphany|Populated Place|19820|U6|||46|SD|1|061|Hanson|43.8491444|-97.661738|02/13/1980|
1265639|Epiphany|Populated Place|19820|U6|||46|SD|2|097|Miner|43.8491444|-97.661738|02/13/1980|
1265640|Eureka|Populated Place|20180|P1|0940|460940089|46|SD|1|089|McPherson|45.7694255|-99.6195625|02/13/1980|02/15/2018
1265643|Gary|Populated Place|23860|P1|1110|461110039|46|SD|1|039|Deuel|44.7924636|-96.4558855|02/13/1980|02/06/2018
1265645|Goodwin|Populated Place|24820|P1|1160|461160039|46|SD|1|039|Deuel|44.8791316|-96.8486758|02/13/1980|03/20/2008
1265646|Greenwood|Populated Place|26100|U6|1185|461185023|46|SD|1|023|Charles Mix|42.9230521|-98.388414|02/13/1980|
1265650|Harrisburg|Populated Place|27260|P1|1200|461200083|46|SD|1|083|Lincoln|43.4313663|-96.69727|02/13/1980|03/20/2008
1265651|Hartford|Populated Place|27540|P1|1220|461220099|46|SD|1|099|Minnehaha|43.6230323|-96.942555|02/13/1980|02/16/2018
1265653|Hillhead|Populated Place|29140|U6|1321|461321091|46|SD|1|091|Marshall|45.8349572|-97.3920395|02/13/1980|
1265655|Holabird|Populated Place|29580|U6|1342|461342069|46|SD|1|069|Hyde|44.5230396|-99.5981704|02/13/1980|
1265656|Howard|Populated Place|30460|P1|1380|461380097|46|SD|1|097|Miner|44.0108074|-97.5267361|02/13/1980|03/20/2008
1265658|Hudson|Populated Place|30740|P1|1390|461390083|46|SD|1|083|Lincoln|43.1302628|-96.4541994|02/13/1980|03/20/2008
1265660|Joubert|Populated Place|33020|U6|||46|SD|1|043|Douglas|43.4274931|-98.6667498|02/13/1980|
1265663|Lebanon|Populated Place|36260|P1|1610|461610107|46|SD|1|107|Potter|45.0697025|-99.7698372|02/13/1980|02/28/2018
1265666|Marion|Populated Place|40860|P1|1740|461740125|46|SD|1|125|Turner|43.4230394|-97.2606153|02/13/1980|02/28/2018
1265670|Mobridge|Populated Place|43180|P1|1860|461860129|46|SD|1|129|Walworth|45.5372162|-100.4279129|02/13/1980|02/28/2018
1265671|Monroe|Populated Place|43380|P1|1870|461870125|46|SD|1|125|Turner|43.4863706|-97.2150594|02/13/1980|02/28/2018
1265672|Nahant|Populated Place|44490|U6|||46|SD|1|081|Lawrence|44.1766505|-103.7554753|02/13/1980|
1265675|Norway Center|Populated Place|45990|U6|||46|SD|1|083|Lincoln|43.1272086|-96.628373|02/13/1980|
1265677|Parker|Populated Place|48380|P1|2100|462100125|46|SD|1|125|Turner|43.3974827|-97.1364454|02/13/1980|02/28/2018
1265681|Pine Ridge|Populated Place|49660|U5|2165|462165102|46|SD|1|102|Oglala Lakota|43.0255408|-102.5562743|02/13/1980|03/20/2008
1265682|Platte|Populated Place|50260|P1|2180|462180023|46|SD|1|023|Charles Mix|43.3869397|-98.8445303|02/13/1980|01/29/2018
1265684|Pollock|Populated Place|51260|P1|2190|462190021|46|SD|1|021|Campbell|45.9013832|-100.2884568|02/13/1980|01/29/2018
1265686|Ramona|Populated Place|52860|P1|2240|462240079|46|SD|1|079|Lake|44.1194174|-97.2164532|02/13/1980|02/15/2018
1265687|Redfield|Populated Place|53460|P1|2280|462280115|46|SD|1|115|Spink|44.8758095|-98.5187062|02/13/1980|02/28/2018
1265690|Saint Charles|Populated Place|57060|U5|||46|SD|1|053|Gregory|43.0869429|-99.0953727|02/13/1980|03/20/2008
1265700|Summit|Populated Place|62220|P1|2570|462570109|46|SD|1|109|Roberts|45.3044063|-97.0364661|02/13/1980|02/28/2018
1265702|Tea|Populated Place|63100|P1|2590|462590083|46|SD|1|083|Lincoln|43.4463668|-96.8358847|02/13/1980|02/15/2018
1265705|Turton|Populated Place|64540|P1|2660|462660115|46|SD|1|115|Spink|45.049688|-98.0956464|02/13/1980|02/28/2018
1265706|Vayland|Populated Place|66500|U6|||46|SD|1|059|Hand|44.4935934|-98.7989865|02/13/1980|
1265707|Viborg|Populated Place|67020|P1|2740|462740125|46|SD|1|125|Turner|43.1702657|-97.0814405|02/13/1980|02/28/2018
1265709|Warbonnet|Populated Place|68600|U6|||46|SD|1|103|Pennington|43.9991551|-103.133234|02/13/1980|
1265711|Waubay|Populated Place|69340|P1|2870|462870037|46|SD|1|037|Day|45.3319042|-97.3050847|02/13/1980|02/01/2018
1265713|Wolf Creek|Populated Place|72470|U6|||46|SD|1|067|Hutchinson|43.3474874|-97.6236776|02/13/1980|
1265714|Wounded Knee|Populated Place|72900|U5|3052|463052102|46|SD|1|102|Oglala Lakota|43.1405442|-102.365715|02/13/1980|03/20/2008
1265750|Chase|Populated Place|11410|U6|||46|SD|1|137|Ziebach|44.9410942|-101.6284896|02/13/1980|
1265751|Dupree|Populated Place|17420|P1|0810|460810137|46|SD|1|137|Ziebach|45.0474815|-101.6009896|02/13/1980|02/28/2018
1265753|Kyle|Populated Place|34460|U5|1525|461525102|46|SD|1|102|Oglala Lakota|43.4249934|-102.1765463|02/13/1980|03/20/2008
1265759|Marshall County|Civil|99091|H1|||46|SD|1|091|Marshall|45.7586708|-97.5985004|09/23/1986|12/01/2016
1265760|Faulk County|Civil|99049|H1|||46|SD|1|049|Faulk|45.071011|-99.1452546|09/23/1986|12/01/2016
1265761|Potter County|Civil|99107|H1|||46|SD|1|107|Potter|45.0645024|-99.9572545|09/23/1986|12/01/2016
1265762|McPherson County|Civil|99089|H1|||46|SD|1|089|McPherson|45.7663736|-99.2214554|09/23/1986|12/01/2016
1265763|Union County|Civil|99127|H1|||46|SD|1|127|Union|42.8324863|-96.6560904|09/23/1986|12/01/2016
1265764|Clay County|Civil|99027|H1|||46|SD|1|027|Clay|42.9146544|-96.9756554|09/23/1986|12/01/2016
1265765|Gregory County|Civil|99053|H1|||46|SD|1|053|Gregory|43.1923769|-99.1856122|09/23/1986|12/01/2016
1265766|Hamlin County|Civil|99057|H1|||46|SD|1|057|Hamlin|44.6737591|-97.1883338|09/23/1986|12/01/2016
1265767|Buffalo County|Civil|99017|H1|||46|SD|1|017|Buffalo|44.0763458|-99.2049642|09/23/1986|12/01/2016
1265768|Brule County|Civil|99015|H1|||46|SD|1|015|Brule|43.7180587|-99.0809354|09/23/1986|12/01/2016
1265769|Lincoln County|Civil|99083|H1|||46|SD|1|083|Lincoln|43.2789221|-96.7218243|09/23/1986|12/01/2016
1265770|Turner County|Civil|99125|H1|||46|SD|1|125|Turner|43.3108677|-97.1486602|09/23/1986|12/01/2016
1265771|Hutchinson County|Civil|99067|H1|||46|SD|1|067|Hutchinson|43.3348468|-97.7544162|09/23/1986|12/01/2016
1265772|Minnehaha County|Civil|99099|H1|||46|SD|1|099|Minnehaha|43.6741782|-96.7914365|09/23/1986|12/01/2016
1265773|McCook County|Civil|99087|H1|||46|SD|1|087|McCook|43.6743108|-97.3684432|09/23/1986|12/01/2016
1265774|Hughes County|Civil|99065|H1|||46|SD|1|065|Hughes|44.3890305|-99.99605|09/23/1986|12/01/2016
1265775|Moody County|Civil|99101|H1|||46|SD|1|101|Moody|44.0220118|-96.6709222|09/23/1986|12/01/2016
1265776|Lake County|Civil|99079|H1|||46|SD|1|079|Lake|44.0220443|-97.1293764|09/23/1986|12/01/2016
1265777|Miner County|Civil|99097|H1|||46|SD|1|097|Miner|44.0219512|-97.6102452|09/23/1986|12/01/2016
1265778|Jerauld County|Civil|99073|H1|||46|SD|1|073|Jerauld|44.0663371|-98.6297052|09/23/1986|12/01/2016
1265779|Brookings County|Civil|99011|H1|||46|SD|1|011|Brookings|44.3696801|-96.7904215|09/23/1986|12/01/2016
1265780|Kingsbury County|Civil|99077|H1|||46|SD|1|077|Kingsbury|44.3695853|-97.4914761|09/23/1986|12/01/2016
1265781|Deuel County|Civil|99039|H1|||46|SD|1|039|Deuel|44.7600579|-96.6679741|09/23/1986|12/01/2016
1265782|Grant County|Civil|99051|H1|||46|SD|1|051|Grant|45.1719349|-96.7676947|09/23/1986|12/01/2016
1265783|Hand County|Civil|99059|H1|||46|SD|1|059|Hand|44.5477649|-99.0049318|09/23/1986|12/01/2016
1265784|Tripp County|Civil|99123|H1|||46|SD|1|123|Tripp|43.3458725|-99.8839954|09/23/1986|12/01/2016
1265785|Brown County|Civil|99013|H1|||46|SD|1|013|Brown|45.589723|-98.3516118|09/23/1986|12/01/2016
1265786|Roberts County|Civil|99109|H1|||46|SD|1|109|Roberts|45.6296436|-96.9461134|09/23/1986|12/01/2016
1265787|Fall River County|Civil|99047|H1|||46|SD|1|047|Fall River|43.2393885|-103.5275607|09/23/1986|12/01/2016
1265788|Custer County|Civil|99033|H1|||46|SD|1|033|Custer|43.6776294|-103.4515362|09/23/1986|12/01/2016
1265789|Lyman County|Civil|99085|H1|||46|SD|1|085|Lyman|43.8958172|-99.8473846|09/23/1986|12/01/2016
1265790|Day County|Civil|99037|H1|||46|SD|1|037|Day|45.3671516|-97.607409|09/23/1986|12/01/2016
1265791|Codington County|Civil|99029|H1|||46|SD|1|029|Codington|44.9778528|-97.1886184|09/23/1986|12/01/2016
1265792|Harding County|Civil|99063|H1|||46|SD|1|063|Harding|45.5803502|-103.4957677|09/23/1986|12/01/2016
1265793|Butte County|Civil|99019|H1|||46|SD|1|019|Butte|44.9058408|-103.5080403|09/23/1986|12/01/2016
1265794|Jackson County|Civil|99071|H1|||46|SD|1|071|Jackson|43.6942093|-101.6281315|09/23/1986|12/01/2016
1265811|Corson County|Civil|99031|H1|||46|SD|1|031|Corson|45.7086009|-101.1968693|09/23/1986|12/01/2016
1265812|Bennett County|Civil|99007|H1|||46|SD|1|007|Bennett|43.1949203|-101.6639688|09/23/1986|12/01/2016
1265836|Iron Lightning|Populated Place|31980|U6|||46|SD|1|137|Ziebach|45.1797007|-101.8462645|09/23/1986|
1265840|Jolly|Locale|32895|U6|||46|SD|1|019|Butte|44.6213732|-103.8252021|02/13/1980|
1266248|Rosebud Indian Reservation|Civil|3235R|D1|||46|SD|1|121|Todd|43.2943656|-100.6559764|01/01/1995|12/01/2016
1266248|Rosebud Indian Reservation|Civil|3235R|D1|||46|SD|2|053|Gregory|43.2943656|-100.6559764|01/01/1995|12/01/2016
1266248|Rosebud Indian Reservation|Civil|3235R|D1|||46|SD|3|123|Tripp|43.2943656|-100.6559764|01/01/1995|12/01/2016
1266248|Rosebud Indian Reservation|Civil|3235R|D1|||46|SD|4|095|Mellette|43.2943656|-100.6559764|01/01/1995|12/01/2016
1266248|Rosebud Indian Reservation|Civil|3235R|D1|||46|SD|5|085|Lyman|43.2943656|-100.6559764|01/01/1995|12/01/2016
1266592|Corn Creek|Populated Place|13840|U5|||46|SD|1|095|Mellette|43.5649992|-101.2009781|01/01/1995|01/13/2011
1266769|Avance (historical)|Populated Place|02890|U6|||46|SD|1|093|Meade|44.9183197|-102.2476606|02/13/1980|
1266796|Dennis|Populated Place|16200|U6|||46|SD|1|047|Fall River|43.2613614|-103.8668665|02/13/1980|
1266810|Edgemont|Populated Place|18300|P1|0850|460850047|46|SD|1|047|Fall River|43.3010841|-103.8254758|02/13/1980|02/06/2018
1266832|Ideal|Populated Place|31220|U6|1423|461423123|46|SD|1|123|Tripp|43.5433299|-99.9215103|02/13/1980|
1266855|Lucerne|Populated Place|39390|U6|||46|SD|1|055|Haakon|44.2391523|-101.5262548|02/13/1980|
1266866|Mission Ridge|Populated Place|43060|U6|1842|461842117|46|SD|1|117|Stanley|44.6919264|-100.7957026|02/13/1980|
1266868|Moenville|Populated Place|43220|U6|||46|SD|1|055|Haakon|44.476372|-101.2554232|02/13/1980|
1266887|Pierre|Populated Place|49600|P1|2160|462160065|46|SD|1|065|Hughes|44.3683156|-100.3509665|02/13/1980|02/15/2018
1266934|White River|Populated Place|71340|P1|2950|462950095|46|SD|1|095|Mellette|43.5680531|-100.7454167|02/13/1980|02/15/2018
1266939|Winner|Populated Place|72180|P1|3010|463010123|46|SD|1|123|Tripp|43.3766665|-99.8590069|02/13/1980|02/28/2018
1266941|Wood|Populated Place|72620|P1|3030|463030095|46|SD|1|095|Mellette|43.4969428|-100.4773584|02/13/1980|02/15/2018
1266972|Edmunds County|Civil|99045|H1|||46|SD|1|045|Edmunds|45.4187968|-99.2153258|09/23/1986|12/01/2016
1266973|Walworth County|Civil|99129|H1|||46|SD|1|129|Walworth|45.4299501|-100.0315561|09/23/1986|12/01/2016
1266974|Campbell County|Civil|99021|H1|||46|SD|1|021|Campbell|45.7711314|-100.0516286|09/23/1986|12/01/2016
1266975|Yankton County|Civil|99135|H1|||46|SD|1|135|Yankton|43.0089688|-97.3947451|09/23/1986|12/01/2016
1266976|Charles Mix County|Civil|99023|H1|||46|SD|1|023|Charles Mix|43.207907|-98.5878939|09/23/1986|12/01/2016
1266977|Sanborn County|Civil|99111|H1|||46|SD|1|111|Sanborn|44.0234511|-98.0913854|09/23/1986|12/01/2016
1266978|Douglas County|Civil|99043|H1|||46|SD|1|043|Douglas|43.3869241|-98.3660984|09/23/1986|12/01/2016
1266979|Hanson County|Civil|99061|H1|||46|SD|1|061|Hanson|43.6748223|-97.7873426|09/23/1986|12/01/2016
1266980|Davison County|Civil|99035|H1|||46|SD|1|035|Davison|43.67474|-98.1459982|09/23/1986|12/01/2016
1266981|Jones County|Civil|99075|H1|||46|SD|1|075|Jones|43.9606083|-100.689722|09/23/1986|12/01/2016
1266982|Sully County|Civil|99119|H1|||46|SD|1|119|Sully|44.7155767|-100.1322036|09/23/1986|12/01/2016
1266983|Aurora County|Civil|99003|H1|||46|SD|1|003|Aurora|43.718009|-98.5615534|09/23/1986|12/01/2016
1266984|Hyde County|Civil|99069|H1|||46|SD|1|069|Hyde|44.5473583|-99.487109|09/23/1986|12/01/2016
1266985|Clark County|Civil|99025|H1|||46|SD|1|025|Clark|44.8582539|-97.7294963|09/23/1986|12/01/2016
1266986|Beadle County|Civil|99005|H1|||46|SD|1|005|Beadle|44.4144802|-98.2781098|09/23/1986|12/01/2016
1266987|Spink County|Civil|99115|H1|||46|SD|1|115|Spink|44.9380154|-98.3461901|09/23/1986|12/01/2016
1266988|Haakon County|Civil|99055|H1|||46|SD|1|055|Haakon|44.2944278|-101.5399858|09/23/1986|12/01/2016
1266989|Todd County|Civil|99121|H1|||46|SD|1|121|Todd|43.1933711|-100.7184108|09/23/1986|12/01/2016
1266990|Perkins County|Civil|99105|H1|||46|SD|1|105|Perkins|45.4905049|-102.4756337|09/23/1986|12/01/2016
1266991|Meade County|Civil|99093|H1|||46|SD|1|093|Meade|44.5668319|-102.716866|09/23/1986|12/01/2016
1266992|Oglala Lakota County|Civil|99102|H1|||46|SD|1|102|Oglala Lakota|43.3355932|-102.5516175|09/23/1986|12/01/2016
1266993|Ziebach County|Civil|99137|H1|||46|SD|1|137|Ziebach|44.9804118|-101.6658595|09/23/1986|12/01/2016
1266994|Dewey County|Civil|99041|H1|||46|SD|1|041|Dewey|45.1566157|-100.8718639|09/23/1986|12/01/2016
1266995|Pennington County|Civil|99103|H1|||46|SD|1|103|Pennington|44.0037329|-102.8238313|09/23/1986|12/01/2016
1266996|Lawrence County|Civil|99081|H1|||46|SD|1|081|Lawrence|44.3586272|-103.7922245|09/23/1986|12/01/2016
1266997|Bon Homme County|Civil|99009|H1|||46|SD|1|009|Bon Homme|42.9883711|-97.8846323|09/23/1986|12/01/2016
1266998|Stanley County|Civil|99117|H1|||46|SD|1|117|Stanley|44.4123214|-100.7359432|09/23/1986|12/01/2016
1266999|Long Valley|Populated Place|38940|U6|1681|461681071|46|SD|1|071|Jackson|43.461665|-101.4948695|09/23/1986|
1267015|Lower Brule Reservation|Civil|2030R|D1|||46|SD|1|085|Lyman|44.0896522|-99.7715183|09/23/1986|12/01/2016
1267015|Lower Brule Reservation|Civil|2030R|D1|||46|SD|2|117|Stanley|44.0896522|-99.7715183|09/23/1986|12/01/2016
1267021|Blue Bell|Populated Place|06130|U6|||46|SD|1|033|Custer|43.7166527|-103.4824157|02/13/1980|
1267022|Carthage|Populated Place|10220|P1|0490|460490097|46|SD|1|097|Miner|44.1710853|-97.7164663|02/13/1980|02/15/2018
1267023|Centerville|Populated Place|11060|P1|0520|460520125|46|SD|1|125|Turner|43.1194328|-96.961437|02/13/1980|02/28/2018
1267028|Hayward (historical)|Populated Place|27890|U6|||46|SD|1|103|Pennington|43.8716557|-103.3343556|02/13/1980|
1267029|Hill City|Populated Place|29100|P1|1320|461320103|46|SD|1|103|Pennington|43.9324855|-103.575193|02/13/1980|02/28/2018
1267055|Junius|Populated Place|33140|U6|||46|SD|1|079|Lake|44.0063638|-97.2442295|02/13/1980|
1267056|Roswell|Populated Place|56420|U5|2360|462360097|46|SD|1|097|Miner|44.0071976|-97.6959079|02/13/1980|01/30/2014
1267067|Crow Creek Reservation|Civil|0855R|D2|||46|SD|1|017|Buffalo|44.1287256|-99.4744493|09/23/1986|12/01/2016
1267067|Crow Creek Reservation|Civil|0855R|D2|||46|SD|2|065|Hughes|44.1287256|-99.4744493|09/23/1986|12/01/2016
1267067|Crow Creek Reservation|Civil|0855R|D2|||46|SD|3|069|Hyde|44.1287256|-99.4744493|09/23/1986|12/01/2016
1267177|Mellette County|Civil|99095|H1|||46|SD|1|095|Mellette|43.5812691|-100.7599908|09/23/1986|12/01/2016
1267217|Hisle|Populated Place|29460|U6|1332|461332071|46|SD|1|071|Jackson|43.405832|-101.7518149|02/13/1980|
1267234|Potato Creek|Populated Place|51460|U6|||46|SD|1|071|Jackson|43.5344429|-101.990151|02/13/1980|
