FEATURE_ID|FEATURE_NAME|FEATURE_CLASS|CENSUS_CODE|CENSUS_CLASS_CODE|GSA_CODE|OPM_CODE|STATE_NUMERIC|STATE_ALPHA|COUNTY_SEQUENCE|COUNTY_NUMERIC|COUNTY_NAME|PRIMARY_LATITUDE|PRIMARY_LONGITUDE|DATE_CREATED|DATE_EDITED
487367|Black Jack|Populated Place|07084|U6|||21|KY|1|213|Simpson|36.633653|-86.563884|09/20/1979|09/20/2011
487367|Black Jack|Populated Place|07084|U6|||47|TN|2|147|Robertson|36.633653|-86.563884|09/20/1979|09/20/2011
487367|Black Jack|Populated Place|07084|U6|||47|TN|3|165|Sumner|36.633653|-86.563884|09/20/1979|09/20/2011
490399|Crossland|Populated Place|18784|U6|||21|KY|1|035|Calloway|36.5006122|-88.3803204|09/20/1979|
490399|Crossland|Populated Place|18784|U6|||47|TN|2|079|Henry|36.5006122|-88.3803204|09/20/1979|
501387|Pruden|Populated Place|63408|U6|2710|212710013|21|KY|1|013|Bell|36.590637|-83.8913105|09/20/1979|
501387|Pruden|Populated Place|63408|U6|2710|472710025|47|TN|2|025|Claiborne|36.590637|-83.8913105|09/20/1979|
504285|Static|Populated Place|73290|U6|3191|213191053|21|KY|1|053|Clinton|36.6220111|-85.0849529|09/20/1979|
504285|Static|Populated Place|73290|U6|3191|473191137|47|TN|2|137|Pickett|36.6220111|-85.0849529|09/20/1979|
507566|Boydsville|Populated Place|07725|U6|||21|KY|1|083|Graves|36.5020023|-88.5233805|09/20/1979|01/31/2011
507566|Boydsville|Populated Place|07725|U6|||47|TN|2|183|Weakley|36.5020023|-88.5233805|09/20/1979|01/31/2011
507615|Bugtussle|Populated Place|09450|U6|||21|KY|1|171|Monroe|36.6258878|-85.8758124|09/20/1979|
507615|Bugtussle|Populated Place|09450|U6|||47|TN|2|111|Macon|36.6258878|-85.8758124|09/20/1979|
1269179|Sparta|Populated Place|70180|P1|2310|472310185|47|TN|1|185|White|35.9258986|-85.4641421|05/19/1980|05/12/2008
1269205|De Rossett|Populated Place|20440|U6|||47|TN|1|185|White|35.9506212|-85.3088591|05/19/1980|
1269208|Findlay|Populated Place|26140|U4|||47|TN|1|185|White|35.9578427|-85.4796983|05/19/1980|
1269229|Ravenscroft|Populated Place|61760|U6|||47|TN|1|185|White|35.9772876|-85.2952479|05/19/1980|
1269252|Cumberland Plateau Division (historical)|Census|90904|X0|||47|TN|1|007|Bledsoe|35.6400671|-85.2624646|08/01/1991|07/11/2008
1269253|Metropolitan Government Division (historical)|Census|92200|X0|||47|TN|1|037|Davidson|36.1567236|-86.7627763|08/01/1991|07/11/2008
1269254|Moscow-La Grange Division (historical)|Census|92344|X0|||47|TN|1|047|Fayette|35.0617564|-89.3631285|08/01/1991|07/11/2008
1269255|Rossville Division (historical)|Census|92864|X0|||47|TN|1|047|Fayette|35.0664796|-89.5748016|08/01/1991|07/11/2008
1269256|Winchester Division (historical)|Census|93664|X0|||47|TN|1|051|Franklin|35.2028605|-86.0716505|08/01/1991|07/11/2008
1269257|Bakerville-Bold Spring Division (historical)|Census|90120|X0|||47|TN|1|085|Humphreys|35.9667292|-87.7889138|08/01/1991|07/11/2008
1269258|Knoxville Division (historical)|Census|91800|X0|||47|TN|1|093|Knox|35.968138|-83.942407|08/01/1991|07/11/2008
1269259|Ashport-Three Point Division (historical)|Census|90088|X0|||47|TN|1|097|Lauderdale|35.6948008|-89.6903569|08/01/1991|07/11/2008
1269260|Tellico Plains Division (historical)|Census|93320|X0|||47|TN|1|123|Monroe|35.354244|-84.2840867|08/01/1991|07/11/2008
1269261|Clarksville Division (historical)|Census|90696|X0|||47|TN|1|125|Montgomery|36.37283|-87.3555645|08/01/1991|07/11/2008
1269262|Linden Division (historical)|Census|91944|X0|||47|TN|1|135|Perry|35.5970144|-87.8589154|08/01/1991|07/11/2008
1269263|Memphis Division (historical)|Census|92192|X0|||47|TN|1|157|Shelby|35.1189791|-89.9648115|08/01/1991|07/11/2008
1269264|Clifton-Natural Bridge Division (historical)|Census|90712|X0|||47|TN|1|181|Wayne|35.3925753|-87.8855825|08/01/1991|07/11/2008
1269295|Adamsville|Populated Place|00240|P1|0010|470010109|47|TN|1|109|McNairy|35.2359146|-88.3905965|05/19/1980|03/20/2008
1269295|Adamsville|Populated Place|00240|P1|0010|470010071|47|TN|2|071|Hardin|35.2359146|-88.3905965|05/19/1980|03/20/2008
1269300|Allardt|Populated Place|00660|P1|0056|470056049|47|TN|1|049|Fentress|36.3809044|-84.8843918|05/19/1980|03/20/2008
1269302|Alumwell|Populated Place|01020|U6|||47|TN|1|073|Hawkins|36.4812045|-83.001833|05/19/1980|
1269307|Apollo Shores|Populated Place|01485|U6|||47|TN|1|143|Rhea|35.7461831|-84.7491082|05/19/1980|
1269328|Beechgrove|Populated Place|04080|U6|0177|470177031|47|TN|1|031|Coffee|35.6270164|-86.2402706|05/19/1980|
1269358|Blaine|Populated Place|06340|P1|0242|470242057|47|TN|1|057|Grainger|36.1542508|-83.7040704|05/19/1980|03/20/2008
1269372|Bolivar|Populated Place|07180|P1|0260|470260069|47|TN|1|069|Hardeman|35.2561937|-88.9878389|05/19/1980|03/20/2008
1269404|Bulls Gap|Populated Place|09560|P1|0315|470315073|47|TN|1|073|Hawkins|36.2570407|-83.0859967|05/19/1980|03/20/2008
1269405|Bunker Hill|Populated Place|09660|U6|||47|TN|1|055|Giles|35.1395256|-86.8763922|05/19/1980|
1269413|Camp Creek|Populated Place|10760|U6|||47|TN|1|059|Greene|36.0873257|-82.7637586|05/19/1980|
1269424|Cartwright|Populated Place|11340|U6|||47|TN|1|159|Smith|36.3925557|-85.8699827|05/19/1980|
1269440|Chapel Hill|Populated Place|12880|P1|0380|470380117|47|TN|1|117|Marshall|35.6264581|-86.6933305|05/19/1980|03/20/2008
1269467|Clarksville|Populated Place|15160|P1|0410|470410125|47|TN|1|125|Montgomery|36.5297706|-87.3594529|05/19/1980|03/20/2008
1269469|Clear Springs|Populated Place|15320|U6|||47|TN|1|093|Knox|36.1470255|-83.8804652|05/19/1980|
1269482|Collinwood|Populated Place|16480|P1|0460|470460181|47|TN|1|181|Wayne|35.1742474|-87.7378029|05/19/1980|03/20/2008
1269483|Columbia|Populated Place|16540|P1|0470|470470119|47|TN|1|119|Maury|35.6150716|-87.0352831|05/19/1980|03/20/2008
1269484|Columbus Hill|Populated Place|16580|U6|||47|TN|1|087|Jackson|36.3864485|-85.6221981|05/19/1980|
1269501|Crockett Mills|Populated Place|18260|U6|0536|470536033|47|TN|1|033|Crockett|35.8675724|-89.1692346|05/19/1980|
1269568|Fairview|Populated Place|25200|U6|||47|TN|1|049|Fentress|36.4997903|-85.0060587|05/19/1980|
1269581|Forest Hills|Populated Place|27020|P1|0846|470846037|47|TN|1|037|Davidson|36.0683932|-86.844167|05/19/1980|03/20/2008
1269588|Frog Pond|Populated Place|28145|U6|||47|TN|1|043|Dickson|36.1261698|-87.2297298|05/19/1980|
1269599|Goose Horn|Populated Place|30040|U6|||47|TN|1|111|Macon|36.4425565|-85.8260918|05/19/1980|
1269607|Griffintown|Populated Place|31375|U6|||47|TN|1|021|Cheatham|36.1825569|-87.1375052|05/19/1980|
1269628|Harrison Point|Populated Place|32630|U6|||47|TN|1|065|Hamilton|35.1234057|-85.1405094|05/19/1980|
1269642|Highland|Populated Place|34140|U6|||47|TN|1|181|Wayne|35.232024|-87.7375244|05/19/1980|
1269679|Island Home|Populated Place|37460|U4|||47|TN|1|093|Knox|35.9559168|-83.8846266|05/19/1980|
1269728|Lightfoot|Populated Place|42460|U6|||47|TN|1|097|Lauderdale|35.7478554|-89.6425779|05/19/1980|
1269790|McGlamery Stand|Populated Place|44893|U6|||47|TN|1|181|Wayne|35.1467479|-87.7450256|05/19/1980|07/26/2006
1269807|Milltown|Populated Place|49140|U6|||47|TN|1|087|Jackson|36.3936685|-85.7994253|05/19/1980|
1269815|Morristown|Populated Place|50280|P1|1700|471700063|47|TN|1|063|Hamblen|36.2139814|-83.2948922|05/19/1980|03/20/2008
1269815|Morristown|Populated Place|50280|P1|1700|471700089|47|TN|2|089|Jefferson|36.2139814|-83.2948922|05/19/1980|03/20/2008
1269838|Obion|Populated Place|55240|P1|1860|471860131|47|TN|1|131|Obion|36.2589567|-89.1917353|05/19/1980|03/20/2008
1269879|Prosperity|Populated Place|60840|U6|||47|TN|1|111|Macon|36.4872774|-85.8741479|05/19/1980|
1269895|Richmond|Populated Place|62780|U6|||47|TN|1|003|Bedford|35.3856308|-86.5919403|05/19/1980|
1269914|Rose Creek|Populated Place|65020|U6|||47|TN|1|109|McNairy|35.205361|-88.6969965|05/19/1980|
1269919|Rutledge|Populated Place|65820|P1|2105|472105057|47|TN|1|057|Grainger|36.2809202|-83.5149023|05/19/1980|05/12/2008
1269941|Shawanee|Populated Place|67660|U3|2197|472197025|47|TN|1|025|Claiborne|36.5806383|-83.6388018|05/19/1980|
1269993|Shelbyville|Populated Place|67760|P1|2200|472200003|47|TN|1|003|Bedford|35.483406|-86.4602717|05/19/1980|05/12/2008
1269994|Shelbyville Mills|Populated Place|67770|U6|||47|TN|1|003|Bedford|35.4720171|-86.4883274|05/19/1980|
1270042|Shepherd Forest|Populated Place|67880|U4|||47|TN|1|065|Hamilton|35.1311834|-85.3285707|05/19/1980|
1270045|Sherril Heights|Populated Place|67910|U6|||47|TN|1|123|Monroe|35.5036871|-84.3832569|05/19/1980|
1270052|Sherwood Estates|Populated Place|67940|U6|||47|TN|1|001|Anderson|36.0345239|-84.1415841|05/19/1980|
1270069|Shiloh|Populated Place|68140|U6|||47|TN|1|149|Rutherford|35.8611767|-86.3305477|05/19/1980|
1270070|Shiloh|Populated Place|68120|U6|||47|TN|1|125|Montgomery|36.3647753|-87.5014011|05/19/1980|
1270116|Shipetown|Populated Place|68200|U6|||47|TN|1|093|Knox|36.0745286|-83.7629584|05/19/1980|
1270155|Shooks|Populated Place|68300|U6|||47|TN|1|093|Knox|35.9136959|-83.8285123|05/19/1980|
1270157|Shooks Gap|Populated Place|68320|U6|||47|TN|1|009|Blount|35.8842524|-83.7921213|05/19/1980|
1270157|Shooks Gap|Populated Place|68320|U6|||47|TN|2|155|Sevier|35.8842524|-83.7921213|05/19/1980|
1270173|Shore Acres|Populated Place|68370|U6|||47|TN|1|065|Hamilton|35.3122924|-85.0771763|05/19/1980|
1270248|Sidonia|Populated Place|68480|U6|||47|TN|1|183|Weakley|36.2439542|-88.9058961|05/19/1980|
1270252|Signal Hills|Populated Place|68520|U6|||47|TN|1|065|Hamilton|35.098962|-85.3330148|05/19/1980|
1270254|Signal Mountain|Populated Place|68540|P1|2210|472210065|47|TN|1|065|Hamilton|35.1225727|-85.3438488|05/19/1980|05/12/2008
1270272|Siloam|Populated Place|68620|U6|||47|TN|1|111|Macon|36.5461561|-86.2127658|05/19/1980|
1270277|Silver Hill|Populated Place|68700|U6|||47|TN|1|149|Rutherford|36.0014514|-86.3672138|05/19/1980|
1270282|Silverdale|Populated Place|68680|U6|||47|TN|1|065|Hamilton|35.0589628|-85.1368972|05/19/1980|
1270403|Sitka|Populated Place|68900|U6|||47|TN|1|053|Gibson|35.8634001|-88.7575591|05/19/1980|
1270421|Skaggston|Populated Place|68940|U6|||47|TN|1|093|Knox|36.0875841|-83.7599031|05/19/1980|
1270438|Skinem|Populated Place|68960|U6|||47|TN|1|103|Lincoln|35.0906396|-86.5886066|05/19/1980|
1270458|Skyline Park|Populated Place|69020|U6|||47|TN|1|065|Hamilton|35.148683|-85.3255154|05/19/1980|
1270540|Sloanville|Populated Place|69125|U6|||47|TN|1|157|Shelby|35.3534187|-89.9531432|05/19/1980|
1270706|Smith Shoals Subdivision|Populated Place|69290|U6|||47|TN|1|163|Sullivan|36.458992|-82.4620901|05/19/1980|
1270710|Smithland|Populated Place|69240|U6|||47|TN|1|103|Lincoln|35.1217508|-86.3855466|05/19/1980|
1270718|Smithwood|Populated Place|69340|U4|||47|TN|1|093|Knox|36.02786|-83.9221298|05/19/1980|
1270729|Smoky View Estates|Populated Place|69370|U6|||47|TN|1|009|Blount|35.7636927|-84.0390738|05/19/1980|
1270733|Smyrna|Populated Place|69440|U6|||47|TN|1|177|Warren|35.6328484|-85.7138683|05/19/1980|
1270734|Smyrna|Populated Place|69380|U6|||47|TN|1|017|Carroll|35.9564512|-88.3317132|05/19/1980|
1270735|Smyrna|Populated Place|69420|P1|2250|472250149|47|TN|1|149|Rutherford|35.9828413|-86.5186045|05/19/1980|05/12/2008
1270736|Smyrna|Populated Place|69400|U6|||47|TN|1|137|Pickett|36.5608986|-85.1663453|05/19/1980|
1270797|Soddy Lake Heights|Populated Place|69570|U6|||47|TN|1|065|Hamilton|35.2781252|-85.1357891|05/19/1980|
1270798|Soddy-Daisy|Populated Place|69560|P1|||47|TN|1|065|Hamilton|35.2359025|-85.1907904|05/19/1980|05/12/2008
1270806|Solo|Populated Place|69580|U6|||47|TN|1|167|Tipton|35.5839692|-89.5997993|05/19/1980|
1270815|Solway|Populated Place|69600|U6|||47|TN|1|093|Knox|35.9800792|-84.1813068|05/19/1980|
1270834|South Berlin|Populated Place|69670|U6|||47|TN|1|117|Marshall|35.5006284|-86.8366675|05/19/1980|
1270836|South Carthage|Populated Place|69680|P1|2275|472275159|47|TN|1|159|Smith|36.2419991|-85.9519317|05/19/1980|05/12/2008
1270840|South Clinton|Populated Place|69760|U4|||47|TN|1|001|Anderson|36.0720238|-84.1332513|05/19/1980|
1270842|South Dyersburg|Populated Place|69840|U6|||47|TN|1|045|Dyer|36.0195161|-89.3911837|05/19/1980|
1270892|South Hall|Populated Place|69940|U4|||47|TN|1|009|Blount|35.777027|-83.9826825|05/19/1980|
1270895|South Harriman|Populated Place|69960|U4|||47|TN|1|145|Roane|35.9206302|-84.5641028|05/19/1980|
1270899|South Knoxville|Populated Place|70000|U4|||47|TN|1|093|Knox|35.9431389|-83.8987936|05/19/1980|
1270916|South Tunnel|Populated Place|70140|U6|||47|TN|1|165|Sumner|36.4803219|-86.4661044|05/19/1980|
1270921|Southern Hills|Populated Place|69860|U4|||47|TN|1|119|Maury|35.5900722|-87.0341721|05/19/1980|
1270923|Southside|Populated Place|70120|U6|2302|472302125|47|TN|1|125|Montgomery|36.3714409|-87.2955631|05/19/1980|
1270947|Spanish Trails|Populated Place|70155|U6|||47|TN|1|093|Knox|35.9486913|-84.0915799|05/19/1980|
1270971|Speedwell|Populated Place|70220|U6|2315|472315025|47|TN|1|025|Claiborne|36.4586902|-83.8718624|05/19/1980|
1270985|Spencer|Populated Place|70240|P1|2320|472320175|47|TN|1|175|Van Buren|35.7472893|-85.4666413|05/19/1980|05/12/2008
1271020|Spot|Populated Place|70340|U6|||47|TN|1|081|Hickman|35.8861758|-87.5914072|05/19/1980|
1271063|Spring Creek|Populated Place|70410|U6|||47|TN|1|099|Lawrence|35.2131358|-87.4472411|05/19/1980|
1271064|Spring Creek|Populated Place|70425|U6|||47|TN|1|135|Perry|35.654235|-87.9900306|05/19/1980|
1271065|Spring Creek|Populated Place|70420|U6|2335|472335113|47|TN|1|113|Madison|35.7667339|-88.6772779|05/19/1980|
1271102|Spring Hill|Populated Place|70540|U6|||47|TN|1|077|Henderson|35.681736|-88.5692191|05/19/1980|
1271127|Spring Place|Populated Place|70620|U6|||47|TN|1|093|Knox|36.0239723|-83.8543492|05/19/1980|
1271131|Spring Valley|Populated Place|70635|U6|||47|TN|1|065|Hamilton|35.1222945|-85.312459|05/19/1980|
1271135|Springdale|Populated Place|70460|U6|||47|TN|1|163|Sullivan|36.5145455|-82.5587623|05/19/1980|
1271139|Springfield|Populated Place|70500|P1|2340|472340147|47|TN|1|147|Robertson|36.5092119|-86.8849984|05/19/1980|05/12/2008
1271149|Springville|Populated Place|70640|U6|2355|472355079|47|TN|1|079|Henry|36.2492237|-88.1530946|05/19/1980|
1271165|Spurgeon|Populated Place|70680|U5|||47|TN|1|179|Washington|36.4395478|-82.4557008|05/19/1980|03/20/2008
1271165|Spurgeon|Populated Place|70680|U5|||47|TN|2|163|Sullivan|36.4395478|-82.4557008|05/19/1980|03/20/2008
1271194|Staffordtown|Populated Place|70720|U6|||47|TN|1|139|Polk|34.9981356|-84.3885346|05/19/1980|
1271259|Star Point|Populated Place|70860|U6|||47|TN|1|137|Pickett|36.5717321|-85.1619006|05/19/1980|
1271280|Static|Populated Place|70940|U6|3191|473191137|47|TN|1|137|Pickett|36.6217334|-85.086064|05/19/1980|
1271280|Static|Populated Place|70940|U6|3191|213191053|21|KY|2|053|Clinton|36.6217334|-85.086064|05/19/1980|
1271285|Staunton Mill|Populated Place|70975|U6|||47|TN|1|059|Greene|36.1234353|-82.8440403|05/19/1980|
1271290|Stayton|Populated Place|70980|U6|||47|TN|1|043|Dickson|36.276999|-87.3269528|05/19/1980|
1271322|Stella|Populated Place|71020|U6|||47|TN|1|055|Giles|35.0389717|-87.0847329|05/19/1980|
1271327|Stephens|Populated Place|71060|U6|||47|TN|1|129|Morgan|36.0600772|-84.4457663|05/19/1980|
1271345|Sterling Park|Populated Place|71100|U6|||47|TN|1|065|Hamilton|35.1764593|-85.2132903|05/19/1980|
1271468|Stone|Populated Place|71300|U6|||47|TN|1|087|Jackson|36.394226|-85.6608102|05/19/1980|
1271503|Stonebrook|Populated Place|71310|U6|||47|TN|1|093|Knox|35.950914|-84.056856|05/19/1980|
1271508|Stones River Homes|Populated Place|71360|U4|||47|TN|1|149|Rutherford|36.006452|-86.494993|05/19/1980|
1271509|Stonewall|Populated Place|71380|U6|||47|TN|1|159|Smith|36.1903349|-85.8988751|05/19/1980|
1271595|Striggersville|Populated Place|71540|U6|||47|TN|1|073|Hawkins|36.4423166|-82.9904429|05/19/1980|
1271603|Stringtown|Populated Place|71560|U6|||47|TN|1|125|Montgomery|36.4778281|-87.5591805|05/19/1980|
1271614|Stuart Heights|Populated Place|71600|U4|||47|TN|1|065|Hamilton|35.0986836|-85.2846802|05/19/1980|
1271627|Suburban Hills|Populated Place|71630|U6|||47|TN|1|107|McMinn|35.4106285|-84.6774384|05/19/1980|
1271628|Suburban Hills|Populated Place|71620|U6|||47|TN|1|093|Knox|35.9148028|-84.0679671|05/19/1980|
1271679|Sugar Grove|Populated Place|71680|U6|||47|TN|1|011|Bradley|35.0731308|-84.814664|05/19/1980|
1271741|Suggs Creek|Populated Place|71780|U6|||47|TN|1|189|Wilson|36.1186695|-86.4952713|05/19/1980|
1271758|Sullivan Gardens|Populated Place|71800|U6|||47|TN|1|163|Sullivan|36.4778788|-82.5932079|05/19/1980|
1271817|Sulphur Springs|Populated Place|71920|U6|||47|TN|1|179|Washington|36.3481595|-82.5423709|05/19/1980|
1271826|Sumac|Populated Place|71940|U6|||47|TN|1|055|Giles|35.2461901|-86.9408382|05/19/1980|
1271828|Summer City|Populated Place|71960|U6|||47|TN|1|007|Bledsoe|35.5742351|-85.1160688|05/19/1980|
1271832|Summerfield|Populated Place|71980|U6|||47|TN|1|061|Grundy|35.2536912|-85.799141|05/19/1980|
1271841|Summersville|Populated Place|72010|U6|||47|TN|1|163|Sullivan|36.4648245|-82.5307047|05/19/1980|
1271842|Summertown|Populated Place|72020|U6|||47|TN|1|065|Hamilton|35.1684043|-85.3024594|05/19/1980|
1271843|Summertown|Populated Place|72040|U5|2366|472366099|47|TN|1|099|Lawrence|35.4347992|-87.3127914|05/19/1980|01/29/2011
1271847|Summit|Populated Place|72060|U6|||47|TN|1|065|Hamilton|35.0697961|-85.1007851|05/19/1980|
1271851|Summitville|Populated Place|72120|U6|2361|472361031|47|TN|1|031|Coffee|35.5595194|-85.9924866|05/19/1980|
1271861|Sunny Side|Populated Place|72225|U6|||47|TN|1|079|Henry|36.3070012|-88.2305964|05/19/1980|
1271863|Sunnyhill|Populated Place|72180|U6|||47|TN|1|075|Haywood|35.5348015|-89.249235|05/19/1980|
1271865|Sunnyside|Populated Place|72280|U6|||47|TN|1|163|Sullivan|36.541491|-82.4554243|05/19/1980|
1271871|Sunrise|Populated Place|72330|U6|||47|TN|1|111|Macon|36.5700543|-85.8977583|05/19/1980|
1271879|Sunset|Populated Place|72335|U6|||47|TN|1|137|Pickett|36.5317321|-85.1602338|05/19/1980|
1271884|Sunset Hills|Populated Place|72340|U6|||47|TN|1|063|Hamblen|36.1992582|-83.3454492|05/19/1980|
1271986|Swift|Populated Place|72560|U6|||47|TN|1|071|Hardin|35.3439662|-88.1411446|05/19/1980|
1271997|Sycamore|Populated Place|72610|U6|||47|TN|1|187|Williamson|35.8170113|-86.9975037|05/19/1980|
1272010|Sycamore Valley|Populated Place|72650|U6|||47|TN|1|111|Macon|36.517276|-85.9280376|05/19/1980|
1272019|Sylvia|Populated Place|72680|U6|||47|TN|1|043|Dickson|36.1717246|-87.4255674|05/19/1980|
1272023|Tabernacle|Populated Place|72720|U6|||47|TN|1|167|Tipton|35.5225813|-89.577021|05/19/1980|
1272035|Tackett Creek|Populated Place|72760|U6|||47|TN|1|013|Campbell|36.538969|-84.0079802|05/19/1980|
1272039|Taft|Populated Place|72780|U6|2370|472370103|47|TN|1|103|Lincoln|35.0206406|-86.7180544|05/19/1980|
1272049|Tallassee|Populated Place|72820|U6|2374|472374009|47|TN|1|009|Blount|35.5467488|-84.0599074|05/19/1980|
1272071|Tan Rara Oesta|Populated Place|72883|U6|||47|TN|1|093|Knox|35.8828578|-84.113802|05/19/1980|
1272078|Tanglewood|Populated Place|72880|U6|||47|TN|1|159|Smith|36.2753313|-85.9877656|05/19/1980|
1272122|Tara Estates|Populated Place|72890|U6|||47|TN|1|031|Coffee|35.3850785|-86.1991565|05/19/1980|
1272132|Tarpley|Populated Place|72920|U6|||47|TN|1|055|Giles|35.1423032|-86.9933402|05/19/1980|
1272137|Tarsus|Populated Place|72930|U6|||47|TN|1|125|Montgomery|36.4236628|-87.53918|05/19/1980|
1272143|Tate|Populated Place|72950|U6|||47|TN|1|017|Carroll|35.9572854|-88.4631073|05/19/1980|
1272176|Tatumville|Populated Place|73000|U6|||47|TN|1|045|Dyer|36.0425704|-89.1942359|05/19/1980|
1272233|Taylor Hill|Populated Place|73030|U6|||47|TN|1|143|Rhea|35.4811809|-85.0268983|05/19/1980|
1272252|Taylors Crossing|Populated Place|73050|U6|||47|TN|1|077|Henderson|35.5247949|-88.2522606|05/19/1980|
1272255|Taylorsville|Populated Place|73100|U6|||47|TN|1|189|Wilson|36.2756076|-86.1997124|05/19/1980|
1272256|Taylortown|Populated Place|73115|U6|||47|TN|1|103|Lincoln|35.1992465|-86.7544439|05/19/1980|
1272257|Tazewell|Populated Place|73120|P1|2375|472375025|47|TN|1|025|Claiborne|36.45425|-83.569352|05/19/1980|05/12/2008
1272275|Tellico Hills|Populated Place|73240|U4|||47|TN|1|107|McMinn|35.4642401|-84.5868784|05/19/1980|
1272277|Temple Acres|Populated Place|73290|U6|||47|TN|1|093|Knox|36.1003589|-83.9251876|05/19/1980|
1272341|Terry Estates|Populated Place|73610|U6|||47|TN|1|055|Giles|35.1795249|-87.048342|05/19/1980|
1272360|Tharpe|Populated Place|73630|U6|||47|TN|1|161|Stewart|36.5736628|-87.9344703|05/19/1980|
1272453|Thick|Populated Place|73780|U6|||47|TN|1|117|Marshall|35.6589574|-86.7341647|05/19/1980|
1272457|Third Creek|Populated Place|73790|U6|||47|TN|1|093|Knox|35.970359|-84.0032428|05/19/1980|
1272459|Thomas Addition|Populated Place|73820|U6|||47|TN|1|163|Sullivan|36.5751007|-82.5504298|05/19/1980|
1272500|Thomasville|Populated Place|73860|U6|||47|TN|1|021|Cheatham|36.4139387|-87.1336149|05/19/1980|
1272567|Thornton|Populated Place|73970|U6|||47|TN|1|093|Knox|35.8823017|-84.1479703|05/19/1980|
1272582|Three Oaks|Populated Place|74020|U6|2382|472382099|47|TN|1|099|Lawrence|35.3656338|-87.272236|05/19/1980|
1272584|Three Points|Populated Place|74060|U6|||47|TN|1|093|Knox|36.0634176|-83.7710138|05/19/1980|
1272593|Throckmorton|Populated Place|74120|U6|||47|TN|1|161|Stewart|36.428385|-87.6366833|05/19/1980|
1272616|Tidwell|Populated Place|74220|U6|||47|TN|1|081|Hickman|35.9320086|-87.2191755|05/19/1980|
1272632|Tigertown|Populated Place|74260|U4|||47|TN|1|063|Hamblen|36.1956486|-83.2793354|05/19/1980|
1272634|Tigrett|Populated Place|74300|U6|2389|472389045|47|TN|1|045|Dyer|35.9514609|-89.2400697|05/19/1980|
1272651|Timberlake|Populated Place|74340|U6|||47|TN|1|077|Henderson|35.7100678|-88.3817133|05/19/1980|
1272655|Timesville|Populated Place|74380|U6|||47|TN|1|065|Hamilton|35.1550718|-85.3310711|05/19/1980|
1272657|Timothy|Populated Place|74400|U6|||47|TN|1|133|Overton|36.4892289|-85.4069111|05/19/1980|
1272661|Tin Cup|Populated Place|74440|U6|||47|TN|1|005|Benton|36.0456155|-88.100593|05/19/1980|
1272676|Tiprell|Populated Place|74480|U6|||47|TN|1|025|Claiborne|36.5825821|-83.678803|05/19/1980|
1272678|Tipton|Populated Place|74520|U6|2391|472391167|47|TN|1|167|Tipton|35.4136951|-89.8198058|05/19/1980|
1272690|Tiptonville|Populated Place|74540|P1|2390|472390095|47|TN|1|095|Lake|36.3783984|-89.4720193|05/19/1980|05/12/2008
1272779|Topsy|Populated Place|74700|U6|||47|TN|1|181|Wayne|35.4256306|-87.7030787|05/19/1980|
1272782|Torbet|Populated Place|74730|U6|||47|TN|1|061|Grundy|35.3567402|-85.6283051|05/19/1980|
1272790|Toulon|Populated Place|74760|U6|||47|TN|1|075|Haywood|35.7384101|-89.4156282|05/19/1980|
1272794|Town Acres|Populated Place|74800|U4|||47|TN|1|059|Greene|36.1589912|-82.8084853|05/19/1980|
1272811|Towne Hills|Populated Place|74840|U4|||47|TN|1|065|Hamilton|35.1475709|-85.2382907|05/19/1980|
1272813|Townsend|Populated Place|74860|P1|2410|472410009|47|TN|1|009|Blount|35.6753657|-83.7557282|05/19/1980|05/12/2008
1272826|Trade|Populated Place|74900|U6|2423|472423091|47|TN|1|091|Johnson|36.3492912|-81.7456671|05/19/1980|
1272830|Trails West|Populated Place|74910|U6|||47|TN|1|093|Knox|35.914803|-84.0521329|05/19/1980|
1272843|Tranquillity|Populated Place|74920|U6|||47|TN|1|107|McMinn|35.5575727|-84.677439|05/19/1980|
1272865|Trentville|Populated Place|75040|U6|||47|TN|1|093|Knox|36.0278636|-83.7201776|05/19/1980|
1272875|Trigg|Populated Place|75130|U6|||47|TN|1|055|Giles|35.3117439|-86.8519464|05/19/1980|
1272879|Trigonia|Populated Place|75140|U6|||47|TN|1|105|Loudon|35.6131347|-84.1879697|05/19/1980|
1272912|Trousdale|Populated Place|75200|U6|||47|TN|1|165|Sumner|36.3975473|-86.4022145|05/19/1980|
1272918|Troy|Populated Place|75240|P1|2460|472460131|47|TN|1|131|Obion|36.338677|-89.1639567|05/19/1980|05/12/2008
1272964|Tullahoma|Populated Place|75320|P1|2470|472470031|47|TN|1|031|Coffee|35.3620235|-86.2094342|05/19/1980|05/12/2008
1272964|Tullahoma|Populated Place|75320|P1|2470|472470051|47|TN|2|051|Franklin|35.3620235|-86.2094342|05/19/1980|05/12/2008
1272968|Tulu|Populated Place|75340|U6|||47|TN|1|109|McNairy|35.0628628|-88.3939322|05/19/1980|
1273035|Turkeyfoot|Populated Place|75395|U6|||47|TN|1|065|Hamilton|35.1075725|-85.1721768|05/19/1980|
1273090|Turners Station|Populated Place|75460|U6|||47|TN|1|165|Sumner|36.6103211|-86.2683225|05/19/1980|
1273091|Turnersville|Populated Place|75480|U6|||47|TN|1|147|Robertson|36.4878243|-87.0400012|05/19/1980|
1273105|Tusculum|Populated Place|75540|U4|||47|TN|1|037|Davidson|36.0589489|-86.7166647|05/19/1980|
1273106|Tusculum|Populated Place|75560|P1|||47|TN|1|059|Greene|36.1751031|-82.7587626|05/19/1980|05/12/2008
1273128|Twinton|Populated Place|75640|U6|||47|TN|1|133|Overton|36.2842327|-85.1277385|05/19/1980|
1273132|Two Chestnut|Populated Place|75650|U6|||47|TN|1|165|Sumner|36.4469905|-86.6169397|05/19/1980|
1273135|Twomey|Populated Place|75660|U6|||47|TN|1|081|Hickman|35.7661789|-87.4641809|05/19/1980|
1273150|Tylersville|Populated Place|75690|U6|||47|TN|1|045|Dyer|36.0042392|-89.5414645|05/19/1980|
1273151|Tyner Hills|Populated Place|75720|U4|||47|TN|1|065|Hamilton|35.0575738|-85.1499532|05/19/1980|
1273160|Una|Populated Place|75780|U4|||47|TN|1|037|Davidson|36.0972811|-86.6547188|05/19/1980|
1273161|Unaka Springs|Populated Place|75800|U6|||47|TN|1|171|Unicoi|36.0976084|-82.4415273|05/19/1980|
1273176|Union|Populated Place|75880|U6|||47|TN|1|129|Morgan|36.0709104|-84.4857685|05/19/1980|
1273190|Union Central|Populated Place|75930|U6|||47|TN|1|053|Gibson|35.9645108|-88.7864502|05/19/1980|
1273213|Union City|Populated Place|75940|P1|2480|472480131|47|TN|1|131|Obion|36.4242303|-89.0570096|05/19/1980|05/12/2008
1273214|Union Cross|Populated Place|75950|U6|||47|TN|1|077|Henderson|35.7597889|-88.4547719|05/19/1980|
1273215|Union Grove|Populated Place|75980|U6|||47|TN|1|107|McMinn|35.5972958|-84.5716005|05/19/1980|
1273216|Union Grove|Populated Place|75990|U6|||47|TN|1|119|Maury|35.5989603|-86.9552812|05/19/1980|
1273217|Union Grove|Populated Place|75960|U6|||47|TN|1|009|Blount|35.7525806|-84.0929653|05/19/1980|
1273231|Union Heights|Populated Place|76020|U6|||47|TN|1|063|Hamblen|36.1828716|-83.2485005|05/19/1980|
1273232|Union Hill|Populated Place|76060|U4|||47|TN|1|037|Davidson|36.3342177|-86.7791645|05/19/1980|
1273259|Union Temple|Populated Place|76160|U6|||47|TN|1|059|Greene|36.2981577|-82.7354333|05/19/1980|
1273262|Unionville|Populated Place|76180|U5|2487|472487003|47|TN|1|003|Bedford|35.6217359|-86.5924951|05/19/1980|01/29/2011
1273263|Unionville|Populated Place|76200|U6|||47|TN|1|045|Dyer|35.9517398|-89.4361844|05/19/1980|
1273267|Unity|Populated Place|76240|U6|||47|TN|1|133|Overton|36.4786741|-85.3252419|05/19/1980|
1273307|Upper Shell Creek|Populated Place|76420|U6|||47|TN|1|019|Carter|36.1676219|-82.0315083|05/19/1980|
1273314|Uptonville|Populated Place|76460|U6|||47|TN|1|113|Madison|35.4548004|-88.978951|05/19/1980|
1273323|Valdeau|Populated Place|76580|U4|||47|TN|1|065|Hamilton|35.0836844|-85.3182919|05/19/1980|
1273324|Vale|Populated Place|76600|U6|2488|472488017|47|TN|1|017|Carroll|36.1067261|-88.2589322|05/19/1980|
1273332|Valley Creek|Populated Place|76640|U6|||47|TN|1|025|Claiborne|36.5720253|-83.9118664|05/19/1980|
1273335|Valley Forge|Populated Place|76660|U6|||47|TN|1|019|Carter|36.3064993|-82.1931864|05/19/1980|
1273349|Valley View Heights|Populated Place|76750|U6|||47|TN|1|001|Anderson|36.028135|-84.1576957|05/19/1980|
1273352|Valleybrook|Populated Place|76620|U4|||47|TN|1|065|Hamilton|35.1556266|-85.21329|05/19/1980|
1273354|Valleyview Subdivision|Populated Place|76755|U6|||47|TN|1|065|Hamilton|35.0228526|-85.1174516|05/19/1980|
1273355|Van Buren|Populated Place|76790|U6|||47|TN|1|069|Hardeman|35.1314754|-89.0753417|05/19/1980|
1273382|Vanntown|Populated Place|76900|U6|||47|TN|1|103|Lincoln|35.0089761|-86.4561028|05/19/1980|
1273396|Vasper|Populated Place|76940|U6|||47|TN|1|013|Campbell|36.2711901|-84.1949262|05/19/1980|
1273419|Venable Spring|Populated Place|77000|U6|||47|TN|1|117|Marshall|35.6075699|-86.7822214|05/19/1980|
1273425|Verdun|Populated Place|77010|U6|||47|TN|1|151|Scott|36.4948002|-84.5407719|05/19/1980|
1273432|Vernon Heights|Populated Place|77040|U6|||47|TN|1|163|Sullivan|36.4956568|-82.5665402|05/19/1980|
1273433|Verona|Populated Place|77060|U6|||47|TN|1|117|Marshall|35.5306272|-86.7697213|05/19/1980|
1273437|Vesta|Populated Place|77100|U6|||47|TN|1|189|Wilson|36.0650602|-86.4133256|05/19/1980|
1273438|Vestal|Populated Place|77140|U6|||47|TN|1|093|Knox|35.9270274|-83.9221275|05/19/1980|
1273444|Viar|Populated Place|77200|U6|||47|TN|1|045|Dyer|36.0178493|-89.3281271|05/19/1980|
1273457|Vildo|Populated Place|77280|U6|2495|472495069|47|TN|1|069|Hardeman|35.405636|-89.103676|05/19/1980|
1273459|Village Green|Populated Place|77320|U6|||47|TN|1|093|Knox|35.8842459|-84.1674157|05/19/1980|
1273466|Vine Ridge|Populated Place|77380|U6|||47|TN|1|133|Overton|36.2606218|-85.1188498|05/19/1980|
1273483|Virtue|Populated Place|77420|U6|||47|TN|1|093|Knox|35.8564679|-84.1785269|05/19/1980|
1273492|Volunteer Heights|Populated Place|77460|U6|||47|TN|1|035|Cumberland|35.9331233|-85.0391242|05/19/1980|
1273493|Vonore|Populated Place|77480|P1|2502|472502123|47|TN|1|123|Monroe|35.590078|-84.2418612|05/19/1980|05/12/2008
1273494|Voorhies|Populated Place|77490|U6|||47|TN|1|101|Lewis|35.4492424|-87.5611305|05/19/1980|
1273506|Wa-Ni Village|Populated Place|78000|U6|||47|TN|1|057|Grainger|36.2228667|-83.4543429|05/19/1980|
1273510|Waconda Point|Populated Place|77525|U6|||47|TN|1|065|Hamilton|35.1345167|-85.1330093|05/19/1980|
1273652|Walkertown|Populated Place|77660|U6|||47|TN|1|071|Hardin|35.1853599|-88.2433708|05/19/1980|
1273660|Wallace Acres|Populated Place|77680|U4|||47|TN|1|117|Marshall|35.4609067|-86.7794439|05/19/1980|
1273687|Walland|Populated Place|77700|U5|2503|472503009|47|TN|1|009|Blount|35.7281419|-83.8132305|05/19/1980|01/29/2011
1273713|Walnut Grove|Populated Place|77840|U6|||47|TN|1|167|Tipton|35.5920249|-89.7806374|05/19/1980|
1273714|Walnut Grove|Populated Place|77850|U6|||47|TN|1|169|Trousdale|36.3897701|-86.2416563|05/19/1980|
1273715|Walnut Grove|Populated Place|77820|U5|||47|TN|1|165|Sumner|36.4842114|-86.6130507|05/19/1980|01/29/2011
1273736|Walnut Hill|Populated Place|77860|U6|||47|TN|1|033|Crockett|35.7153507|-89.047564|05/19/1980|
1273737|Walnut Hill|Populated Place|77880|U4|||47|TN|1|145|Roane|35.9506309|-84.5338242|05/19/1980|
1273738|Walnut Hill|Populated Place|77900|U5|||47|TN|1|163|Sullivan|36.5698258|-82.2568028|05/19/1980|03/20/2008
1273747|Walter Crossroad|Populated Place|77960|U6|||47|TN|1|059|Greene|36.1167667|-82.9665433|05/19/1980|
1273805|Ware Branch|Populated Place|78030|U6|||47|TN|1|065|Hamilton|35.2595148|-85.0880096|05/19/1980|
1273818|Warren|Populated Place|78040|U6|2504|472504047|47|TN|1|047|Fayette|35.2384198|-89.442852|05/19/1980|
1273841|Warrens Bluff|Populated Place|78060|U6|||47|TN|1|077|Henderson|35.6153482|-88.3189317|05/19/1980|
1273865|Washington Heights|Populated Place|78220|U4|||47|TN|1|065|Hamilton|35.087573|-85.1707876|05/19/1980|
1273866|Washington Heights|Populated Place|78225|U6|||47|TN|1|093|Knox|36.0136913|-84.0735248|05/19/1980|
1273890|Water Valley|Populated Place|78340|U6|||47|TN|1|119|Maury|35.74118|-87.1894528|05/19/1980|
1273902|Waterville|Populated Place|78360|U6|||47|TN|1|011|Bradley|35.1075746|-84.8638328|05/19/1980|
1273935|Watt Heights|Populated Place|78440|U4|||47|TN|1|107|McMinn|35.2928509|-84.7407736|05/19/1980|
1273941|Watts Bar Estates|Populated Place|78480|U6|||47|TN|1|143|Rhea|35.7370166|-84.7196626|05/19/1980|
1273950|Waverly|Populated Place|78560|P1|2530|472530085|47|TN|1|085|Humphreys|36.0839489|-87.794747|05/19/1980|05/12/2008
1273955|Wayland Springs|Populated Place|78580|U6|||47|TN|1|099|Lawrence|35.0617487|-87.5747458|05/19/1980|
1274043|Webber City|Populated Place|78700|U6|||47|TN|1|099|Lawrence|35.3467452|-87.2822365|05/19/1980|
1274046|Webbtown|Populated Place|78740|U6|||47|TN|1|111|Macon|36.5003307|-85.9685944|05/19/1980|
1274049|Webster|Populated Place|78750|U6|||47|TN|1|145|Roane|35.8689623|-84.6332714|05/19/1980|
1274057|Wedgewood Hills|Populated Place|78760|U6|||47|TN|1|093|Knox|35.9036916|-84.081023|05/19/1980|
1274065|Welch Camp|Populated Place|78765|U6|||47|TN|1|013|Campbell|36.2389679|-84.3096529|05/19/1980|
1274082|Welchland|Populated Place|78780|U6|||47|TN|1|175|Van Buren|35.6478446|-85.5166416|05/19/1980|
1274118|Wellwood|Populated Place|78880|U6|||47|TN|1|075|Haywood|35.6159093|-89.1078432|05/19/1980|
1274129|West|Populated Place|78980|U6|||47|TN|1|053|Gibson|35.8406225|-88.7542254|05/19/1980|
1274147|West Cyruston|Populated Place|79030|U6|||47|TN|1|103|Lincoln|35.1359148|-86.7508328|05/19/1980|
1274148|West End|Populated Place|79070|U6|||47|TN|1|007|Bledsoe|35.6186786|-85.2030173|05/19/1980|
1274149|West End|Populated Place|79080|U4|||47|TN|1|029|Cocke|35.9698186|-83.2059919|05/19/1980|
1274150|West End Heights|Populated Place|79085|U6|||47|TN|1|189|Wilson|36.2153318|-86.3191584|05/19/1980|
1274152|West Forest|Populated Place|79130|U6|||47|TN|1|093|Knox|35.9473029|-84.051578|05/19/1980|
1274199|West Haven|Populated Place|79180|U4|||47|TN|1|119|Maury|35.6059053|-87.0755619|05/19/1980|
1274203|West Hills|Populated Place|79243|U6|||47|TN|1|145|Roane|35.9250746|-84.5654918|05/19/1980|
1274204|West Hills|Populated Place|79240|U4|||47|TN|1|093|Knox|35.9342475|-84.0471331|05/19/1980|
1274206|West Hima|Populated Place|79247|U6|||47|TN|1|071|Hardin|35.1886931|-88.2425374|05/19/1980|
1274208|West Knoxville|Populated Place|79280|U4|||47|TN|1|093|Knox|35.9703599|-83.9551854|05/19/1980|
1274209|West Maryville|Populated Place|79320|U6|||47|TN|1|009|Blount|35.7564717|-83.9790708|05/19/1980|
1274210|West Meade|Populated Place|79340|U4|||47|TN|1|031|Coffee|35.4711879|-86.0713765|05/19/1980|
1274211|West Meade|Populated Place|79380|U4|||47|TN|1|119|Maury|35.6014609|-87.0600059|05/19/1980|
1274212|West Meade|Populated Place|79360|U4|||47|TN|1|037|Davidson|36.1178363|-86.887223|05/19/1980|
1274225|West Ridge|Populated Place|79540|U4|||47|TN|1|073|Hawkins|36.5509327|-82.6465448|05/19/1980|
1274226|West Riverside|Populated Place|79560|U4|||47|TN|1|177|Warren|35.6697932|-85.7852597|05/19/1980|
1274227|West Robbins|Populated Place|79580|U6|||47|TN|1|151|Scott|36.3581324|-84.6116077|05/19/1980|
1274231|West Shiloh|Populated Place|79600|U6|||47|TN|1|109|McNairy|35.1486943|-88.3833752|05/19/1980|
1274233|West Springbrook|Populated Place|79640|U4|||47|TN|1|009|Blount|35.7975825|-83.9832384|05/19/1980|
1274235|West View|Populated Place|79675|U6|||47|TN|1|065|Hamilton|35.0006309|-85.1002286|05/19/1980|
1274236|West View|Populated Place|79680|U4|||47|TN|1|093|Knox|35.9611931|-83.9649078|05/19/1980|
1274239|Westavia Woods|Populated Place|78990|U6|||47|TN|1|093|Knox|35.9459142|-84.0371328|05/19/1980|
1274240|Westborough|Populated Place|79010|U6|||47|TN|1|093|Knox|35.9436918|-84.0557447|05/19/1980|
1274243|Westel|Populated Place|79040|U6|||47|TN|1|035|Cumberland|35.8631275|-84.7552205|05/19/1980|
1274247|Westlyn|Populated Place|79300|U6|||47|TN|1|093|Knox|35.9148034|-84.0282429|05/19/1980|
1274251|Westmoreland Heights|Populated Place|79440|U4|||47|TN|1|093|Knox|35.9220258|-84.0049086|05/19/1980|
1274254|Westover|Populated Place|79480|U6|||47|TN|1|113|Madison|35.6109066|-88.8767263|05/19/1980|
1274255|Westside Heights|Populated Place|79620|U4|||47|TN|1|031|Coffee|35.3498016|-86.2255457|05/19/1980|
1274255|Westside Heights|Populated Place|79620|U4|||47|TN|2|051|Franklin|35.3498016|-86.2255457|05/19/1980|
1274259|Westwood|Populated Place|79720|U4|||47|TN|1|031|Coffee|35.3545236|-86.2358238|05/19/1980|
1274260|Westwood|Populated Place|79740|U6|||47|TN|1|119|Maury|35.5964612|-87.0922289|05/19/1980|
1274263|Westwood Estates|Populated Place|79770|U6|||47|TN|1|001|Anderson|36.1167459|-84.1379751|05/19/1980|
1274264|Westwood Gardens|Populated Place|79780|U4|||47|TN|1|113|Madison|35.6300723|-88.8297807|05/19/1980|
1274265|Westwood Homes|Populated Place|79820|U6|||47|TN|1|031|Coffee|35.4875765|-86.0624876|05/19/1980|
1274280|Wheel|Populated Place|79860|U6|||47|TN|1|003|Bedford|35.4886834|-86.6297187|05/19/1980|
1274295|Wheelerton|Populated Place|79880|U6|||47|TN|1|055|Giles|35.0895269|-86.8366689|05/19/1980|
1274309|Whispering Hills|Populated Place|79890|U6|||47|TN|1|093|Knox|36.0567472|-83.9949113|05/19/1980|
1274327|White Acres|Populated Place|79960|U4|||47|TN|1|117|Marshall|35.4525738|-86.8186116|05/19/1980|
1274362|White City|Populated Place|80020|U6|||47|TN|1|061|Grundy|35.2473007|-85.7027489|05/19/1980|
1274369|White Hill|Populated Place|80160|U6|||47|TN|1|175|Van Buren|35.6550678|-85.5719207|05/19/1980|
1274370|White Hill|Populated Place|80140|U6|||47|TN|1|165|Sumner|36.4097701|-86.6905518|05/19/1980|
1274370|White Hill|Populated Place|80140|U6|||47|TN|2|147|Robertson|36.4097701|-86.6905518|05/19/1980|
1274384|White Oak|Populated Place|80240|U4|||47|TN|1|065|Hamilton|35.0917397|-85.3088474|05/19/1980|
1274385|White Oak|Populated Place|80220|U6|||47|TN|1|013|Campbell|36.5348023|-84.0346476|05/19/1980|
1274396|White Oaks|Populated Place|80340|U6|||47|TN|1|031|Coffee|35.4611882|-86.0619316|05/19/1980|
1274410|Whitehead|Populated Place|80100|U6|||47|TN|1|117|Marshall|35.480073|-86.7888886|05/19/1980|
1274422|Whitleyville|Populated Place|80560|U6|2585|472585087|47|TN|1|087|Jackson|36.4453369|-85.6719207|05/19/1980|
1274455|Whites Creek|Populated Place|80460|U4|2576|472576037|47|TN|1|037|Davidson|36.2658869|-86.8308324|05/19/1980|
1274472|Whiteville|Populated Place|80540|P1|2580|472580069|47|TN|1|069|Hardeman|35.3264714|-89.1495102|05/19/1980|05/12/2008
1274481|Whitlock|Populated Place|80580|U6|2586|472586079|47|TN|1|079|Henry|36.3708909|-88.3569883|05/19/1980|
1274500|Whittle Springs|Populated Place|80600|U4|||47|TN|1|093|Knox|36.0175824|-83.9157404|05/19/1980|
1274557|Wilder|Populated Place|80680|U6|2587|472587049|47|TN|1|049|Fentress|36.2661778|-85.0905149|05/19/1980|
1274564|Wildersville|Populated Place|80720|U6|2592|472592077|47|TN|1|077|Henderson|35.7814548|-88.3603243|05/19/1980|
1274565|Wildwood|Populated Place|80740|U5|||47|TN|1|009|Blount|35.8036958|-83.8712895|05/19/1980|01/29/2011
1274582|Wilhoite Mills|Populated Place|80790|U6|||47|TN|1|117|Marshall|35.5934033|-86.6974974|05/19/1980|
1274603|Wilkinstown|Populated Place|80810|U6|||47|TN|1|039|Decatur|35.6286805|-88.1539254|05/19/1980|
1274604|Wilkinsville|Populated Place|80820|U6|||47|TN|1|167|Tipton|35.4031399|-89.8967525|05/19/1980|
1274608|Willard|Populated Place|80840|U6|||47|TN|1|169|Trousdale|36.4472697|-86.1833214|05/19/1980|
1274612|Woolardtown|Populated Place|81975|U6|||47|TN|1|089|Jefferson|36.0248103|-83.5790619|08/01/1991|
1274623|Williams|Populated Place|80900|U6|||47|TN|1|111|Macon|36.5531069|-86.0208171|05/19/1980|
1274730|Williamsport|Populated Place|80940|U6|2595|472595119|47|TN|1|119|Maury|35.6867372|-87.2194537|05/19/1980|
1274734|Willis|Populated Place|80980|U6|||47|TN|1|067|Hancock|36.5859246|-83.0168338|05/19/1980|
1274750|Willis Springs|Populated Place|81000|U6|||47|TN|1|139|Polk|35.0095213|-84.6868808|05/19/1980|
1274848|Winchester|Populated Place|81080|P1|2600|472600051|47|TN|1|051|Franklin|35.1859163|-86.1122071|05/19/1980|05/12/2008
1274852|Winchester Springs|Populated Place|81100|U6|||47|TN|1|051|Franklin|35.2461933|-86.1774873|05/19/1980|
1274860|Windletown|Populated Place|81140|U6|||47|TN|1|133|Overton|36.2642324|-85.146629|05/19/1980|
1274864|Windsor Park|Populated Place|81200|U4|||47|TN|1|093|Knox|35.9789701|-84.0001874|05/19/1980|
1274866|Windy City|Populated Place|81220|U6|||47|TN|1|113|Madison|35.7417369|-88.9067274|05/19/1980|
1274875|Wingo|Populated Place|81300|U6|||47|TN|1|017|Carroll|36.0522855|-88.5847777|05/19/1980|
1274878|Winklers Crossroads|Populated Place|81330|U6|||47|TN|1|111|Macon|36.6058886|-85.841923|05/19/1980|
1274885|Winona|Populated Place|81360|U6|2605|472605151|47|TN|1|151|Scott|36.3767457|-84.4502149|05/19/1980|
1274924|Wixtown|Populated Place|81430|U6|||47|TN|1|111|Macon|36.5414363|-86.1385975|05/19/1980|
1274939|Wolf Creek|Populated Place|81480|U6|||47|TN|1|143|Rhea|35.6453486|-84.8555023|05/19/1980|
1275010|Wood|Populated Place|81515|U6|||47|TN|1|123|Monroe|35.5767411|-84.4843737|05/19/1980|
1275029|Woodbine|Populated Place|81540|U4|||47|TN|1|037|Davidson|36.1203358|-86.7433316|05/19/1980|
1275035|Wooddale|Populated Place|81600|U6|||47|TN|1|093|Knox|36.0150853|-83.7596229|05/19/1980|
1275036|Wooded Acres|Populated Place|81605|U6|||47|TN|1|093|Knox|35.9767476|-84.0290776|05/19/1980|
1275037|Woodfield Park|Populated Place|81610|U6|||47|TN|1|093|Knox|35.9056404|-83.83129|05/19/1980|
1275041|Woodland Acres|Populated Place|81660|U6|||47|TN|1|093|Knox|35.9000811|-84.0349096|05/19/1980|
1275042|Woodland Acres|Populated Place|81650|U6|||47|TN|1|079|Henry|36.3356124|-88.2550412|05/19/1980|
1275043|Woodland Heights|Populated Place|81680|U4|||47|TN|1|065|Hamilton|35.0728514|-85.3255143|05/19/1980|
1275044|Woodland Heights|Populated Place|81685|U6|||47|TN|1|071|Hardin|35.2406364|-88.2442032|05/19/1980|
1275049|Woodlawn|Populated Place|81800|U6|||47|TN|1|181|Wayne|35.1692475|-87.7278027|05/19/1980|
1275062|Woodmore|Populated Place|81830|U6|||47|TN|1|065|Hamilton|35.0370183|-85.2243997|05/19/1980|
1275066|Woodrow|Populated Place|81840|U6|||47|TN|1|055|Giles|35.1667473|-86.8333352|05/19/1980|
1275067|Woodrow|Populated Place|81860|U6|||47|TN|1|163|Sullivan|36.516769|-82.4643131|05/19/1980|
1275092|Woods Valley|Populated Place|81920|U6|||47|TN|1|043|Dickson|36.3017211|-87.4086213|05/19/1980|
1275099|Woodstock|Populated Place|81900|U6|||47|TN|1|157|Shelby|35.2731427|-89.9823109|05/19/1980|
1275116|Woolworth|Populated Place|82020|U6|||47|TN|1|085|Humphreys|36.2186682|-87.7197431|05/19/1980|
1275191|Wrigley|Populated Place|82120|U5|||47|TN|1|081|Hickman|35.9008982|-87.3475119|05/19/1980|01/29/2011
1275211|Wynnburg|Populated Place|82200|U6|2625|472625095|47|TN|1|095|Lake|36.3286774|-89.4734081|05/19/1980|
1275220|Wyricktown|Populated Place|82210|U6|||47|TN|1|093|Knox|36.0556407|-83.7329567|05/19/1980|
1275294|Yettland Park|Populated Place|82325|U6|||47|TN|1|155|Sevier|35.8764784|-83.5785025|05/19/1980|
1275342|Youngs Crossing|Populated Place|82375|U6|||47|TN|1|113|Madison|35.7395137|-88.8475594|05/19/1980|
1275343|Youngville|Populated Place|82380|U6|||47|TN|1|147|Robertson|36.5853217|-86.8258307|05/19/1980|
1275370|Zion Hill|Populated Place|82560|U6|||47|TN|1|073|Hawkins|36.4770403|-82.8768298|05/19/1980|
1275439|Acme Mill|Populated Place|00130|U6|||47|TN|1|107|McMinn|35.5500736|-84.5682667|05/19/1980|
1275443|Acton|Populated Place|00160|U6|||47|TN|1|109|McNairy|35.0081419|-88.4594899|05/19/1980|
1275447|Adair|Populated Place|00180|U6|0004|470004113|47|TN|1|113|Madison|35.7142384|-88.9608952|05/19/1980|
1275499|Aetna|Populated Place|00260|U6|0015|470015081|47|TN|1|081|Hickman|35.6550709|-87.5047382|05/19/1980|
1275514|Akard Addition|Populated Place|00420|U6|||47|TN|1|163|Sullivan|36.5581589|-82.2784705|05/19/1980|
1275521|Akins Corner|Populated Place|00430|U6|||47|TN|1|167|Tipton|35.4867491|-89.7692484|05/19/1980|
1275531|Aldenwood Park|Populated Place|00555|U6|||47|TN|1|093|Knox|35.894248|-84.0274091|05/19/1980|
1275563|Alexander Springs|Populated Place|00615|U6|||47|TN|1|099|Lawrence|35.3773002|-87.2691802|05/19/1980|
1275607|Allens|Populated Place|00700|U6|||47|TN|1|075|Haywood|35.6411876|-89.1906229|05/19/1980|
1275624|Allons|Populated Place|00780|U6|0060|470060133|47|TN|1|133|Overton|36.4420071|-85.3446879|05/19/1980|
1275626|Allred|Populated Place|00800|U6|0062|470062133|47|TN|1|133|Overton|36.3306204|-85.1896847|05/19/1980|
1275629|Almaville|Populated Place|00820|U6|||47|TN|1|149|Rutherford|35.8653425|-86.5811055|05/19/1980|
1275632|Alnwick|Populated Place|00860|U6|||47|TN|1|009|Blount|35.7481373|-84.0376846|05/19/1980|
1275633|Alpha Heights|Populated Place|00900|U6|||47|TN|1|063|Hamblen|36.1848129|-83.3879503|05/19/1980|
1275634|Alpine|Populated Place|00920|U6|0064|470064133|47|TN|1|133|Overton|36.3947865|-85.2169065|05/19/1980|
1275639|Alta Vista|Populated Place|00950|U6|||47|TN|1|107|McMinn|35.4639621|-84.6160466|05/19/1980|
1275640|Altamont|Populated Place|00940|P1|0070|470070061|47|TN|1|061|Grundy|35.4295186|-85.7230316|05/19/1980|03/20/2008
1275661|Amherst|Populated Place|01060|U4|||47|TN|1|093|Knox|35.958692|-84.0315773|05/19/1980|
1275675|Anderson|Populated Place|01175|U6|||47|TN|1|031|Coffee|35.3775787|-86.1797114|05/19/1980|
1275676|Anderson|Populated Place|01185|U6|||47|TN|1|133|Overton|36.1728422|-85.2346897|05/19/1980|
1275758|Anes|Populated Place|01234|U6|||47|TN|1|117|Marshall|35.558682|-86.7508319|05/19/1980|
1275763|Annadale|Populated Place|01260|U4|||47|TN|1|011|Bradley|35.165907|-84.8849452|05/19/1980|
1275776|Anthony Hill|Populated Place|01300|U6|||47|TN|1|055|Giles|35.1359146|-87.1072332|05/19/1980|
1275780|Anthras|Populated Place|01320|U6|||47|TN|1|013|Campbell|36.5459135|-83.9902019|05/19/1980|
1275781|Antioch|Populated Place|01350|U6|||47|TN|1|077|Henderson|35.6845132|-88.4425486|05/19/1980|
1275782|Antioch|Populated Place|01330|U6|||47|TN|1|003|Bedford|35.7897928|-88.9742295|05/19/1980|
1275783|Antioch|Populated Place|01340|U6|0075|470075037|47|TN|1|037|Davidson|36.0600602|-86.6722192|05/19/1980|
1275814|Antioch Harbor Resort|Populated Place|01440|U6|||47|TN|1|079|Henry|36.3608889|-88.128092|05/19/1980|
1275817|Apison|Populated Place|01480|U5|0078|470078065|47|TN|1|065|Hamilton|35.023964|-85.0238375|05/19/1980|01/29/2011
1275827|Appleton|Populated Place|01500|U6|||47|TN|1|099|Lawrence|35.0236939|-87.2333497|05/19/1980|
1275831|Applewood|Populated Place|01520|U4|||47|TN|1|065|Hamilton|35.1481276|-85.3363489|05/19/1980|
1275852|Arkland|Populated Place|01660|U6|||47|TN|1|119|Maury|35.675904|-87.2005645|05/19/1980|
1275854|Arlington|Populated Place|01720|U4|||47|TN|1|093|Knox|36.0050823|-83.9335185|05/19/1980|
1275857|Armona|Populated Place|01780|U6|||47|TN|1|009|Blount|35.7873042|-84.014073|05/19/1980|
1275902|Arp|Populated Place|01940|U6|||47|TN|1|097|Lauderdale|35.7734103|-89.6025769|05/19/1980|
1275905|Arrington|Populated Place|01960|U6|0094|470094187|47|TN|1|187|Williamson|35.8681199|-86.7091643|05/19/1980|
1275909|Arrowhead|Populated Place|02000|U6|||47|TN|1|093|Knox|35.8856385|-83.9374051|05/19/1980|
1275913|Arthur|Populated Place|02020|U6|0095|470095025|47|TN|1|025|Claiborne|36.5481372|-83.6707465|05/19/1980|
1275917|Asbury|Populated Place|02080|U6|||47|TN|1|093|Knox|35.9525846|-83.8257352|05/19/1980|
1275936|Ashburn|Populated Place|02120|U6|||47|TN|1|147|Robertson|36.6211544|-86.8286084|05/19/1980|
1275944|Ashland Hills|Populated Place|02200|U4|||47|TN|1|125|Montgomery|36.5064374|-87.2966739|05/19/1980|
1275947|Ashley Oaks|Populated Place|02210|U6|||47|TN|1|093|Knox|35.9086913|-84.1026908|05/19/1980|
1275948|Ashport|Populated Place|02220|U6|||47|TN|1|097|Lauderdale|35.7600774|-89.7856373|05/19/1980|07/28/2011
1275955|Asia|Populated Place|02260|U6|||47|TN|1|051|Franklin|35.2439711|-86.0902624|05/19/1980|
1275973|Atoka|Populated Place|02340|P1|0120|470120167|47|TN|1|167|Tipton|35.4411945|-89.7781379|05/19/1980|03/20/2008
1275974|Atwood|Populated Place|02380|P1|0124|470124017|47|TN|1|017|Carroll|35.9731207|-88.6781141|05/19/1980|03/20/2008
1275990|Austin|Populated Place|02445|U6|||47|TN|1|071|Hardin|35.2017484|-88.2392038|05/19/1980|
1276005|Austin Springs|Populated Place|02480|U6|||47|TN|1|179|Washington|36.3831607|-82.3493061|05/19/1980|07/28/2011
1276006|Austin Springs|Populated Place|02500|U6|||47|TN|1|183|Weakley|36.4917258|-88.6344957|05/19/1980|
1276016|Avondale|Populated Place|02580|U4|||47|TN|1|065|Hamilton|35.0545178|-85.2596789|05/19/1980|
1276017|Avondale|Populated Place|02530|U6|||47|TN|1|037|Davidson|36.2039443|-86.7772207|05/19/1980|
1276018|Avondale|Populated Place|02620|U6|||47|TN|1|165|Sumner|36.3319944|-86.5494392|05/19/1980|
1276019|Avondale Springs|Populated Place|02640|U6|||47|TN|1|057|Grainger|36.3106432|-83.4624011|05/19/1980|
1276022|Ayers|Populated Place|02660|U6|||47|TN|1|045|Dyer|36.0792379|-89.6420231|05/19/1980|
1276082|Baggettsville|Populated Place|02750|U6|||47|TN|1|147|Robertson|36.4767124|-86.7302741|05/19/1980|
1276088|Bailey|Populated Place|02760|U6|||47|TN|1|157|Shelby|35.050925|-89.7286951|05/19/1980|
1276119|Bailey Town|Populated Place|02800|U6|||47|TN|1|029|Cocke|35.9573171|-83.2807165|05/19/1980|
1276120|Baileyton|Populated Place|02780|P1|0140|470140059|47|TN|1|059|Greene|36.3342662|-82.8368253|05/19/1980|07/28/2011
1276197|Bakertown|Populated Place|02950|U4|||47|TN|1|127|Moore|35.2586922|-86.330269|05/19/1980|
1276198|Bakerville|Populated Place|02960|U6|||47|TN|1|085|Humphreys|35.9436735|-87.8741948|05/19/1980|
1276230|Ball Camp|Populated Place|03020|U6|||47|TN|1|093|Knox|35.9528577|-84.1218591|05/19/1980|
1276249|Balmoral|Populated Place|03065|U6|||47|TN|1|065|Hamilton|35.1072953|-85.3466264|05/19/1980|
1276268|Banner Springs|Populated Place|03140|U6|||47|TN|1|049|Fentress|36.2478481|-84.9310639|05/19/1980|
1276293|Barfield|Populated Place|03200|U6|||47|TN|1|149|Rutherford|35.7850666|-86.4266589|05/19/1980|
1276340|Barnes|Populated Place|03265|U6|||47|TN|1|137|Pickett|36.5564528|-85.2471827|05/19/1980|
1276385|Barretville|Populated Place|03340|U6|||47|TN|1|157|Shelby|35.3736959|-89.7634156|05/19/1980|
1276388|Barrons Corner|Populated Place|03360|U6|||47|TN|1|053|Gibson|36.0700674|-88.9353425|05/19/1980|
1276398|Bartlebaugh|Populated Place|03420|U6|||47|TN|1|065|Hamilton|35.1164613|-85.166899|05/19/1980|
1276399|Bartlebaugh Subdivision|Populated Place|03430|U6|||47|TN|1|065|Hamilton|35.126461|-85.1660658|05/19/1980|
1276415|Barton Mill|Populated Place|03470|U6|||47|TN|1|107|McMinn|35.51924|-84.6093798|05/19/1980|
1276470|Bath Springs|Populated Place|03540|U6|0162|470162039|47|TN|1|039|Decatur|35.4397966|-88.0878099|05/19/1980|
1276487|Baucom|Populated Place|03620|U6|||47|TN|1|031|Coffee|35.5350743|-86.2222143|05/19/1980|
1276490|Baugh|Populated Place|03640|U6|||47|TN|1|055|Giles|35.0731384|-86.8505583|05/19/1980|
1276495|Baugh Spring|Populated Place|03660|U6|||47|TN|1|011|Bradley|35.1772952|-84.9868938|05/19/1980|
1276544|Bean Station|Populated Place|03760|P1|0173|470173057|47|TN|1|057|Grainger|36.3437017|-83.284062|05/19/1980|07/28/2011
1276650|Beardstown|Populated Place|03820|U6|||47|TN|1|135|Perry|35.7122894|-87.7991913|05/19/1980|
1276660|Bearwallow|Populated Place|03864|U6|||47|TN|1|021|Cheatham|36.2983862|-86.9952795|05/19/1980|
1276673|Beasley|Populated Place|03872|U6|||47|TN|1|117|Marshall|35.6800679|-86.6519405|05/19/1980|
1276706|Beaver|Populated Place|03880|U6|||47|TN|1|167|Tipton|35.5025821|-89.8109161|05/19/1980|
1276751|Bedford|Populated Place|03980|U6|||47|TN|1|003|Bedford|35.463684|-86.5736066|05/19/1980|
1276819|Beech Grove|Populated Place|04070|U6|||47|TN|1|021|Cheatham|36.3267194|-87.1911165|05/19/1980|
1276840|Beech Hill|Populated Place|04160|U6|||47|TN|1|055|Giles|35.2298014|-86.8891701|05/19/1980|
1276841|Beech Hill|Populated Place|04180|U6|||47|TN|1|111|Macon|36.4711603|-86.1063754|05/19/1980|
1276858|Beech Springs|Populated Place|04220|U6|||47|TN|1|155|Sevier|35.9634214|-83.6171169|05/19/1980|
1276865|Beechwood|Populated Place|04230|U6|||47|TN|1|093|Knox|35.8695268|-83.9704617|05/19/1980|
1276887|Bel Air|Populated Place|04260|U4|||47|TN|1|119|Maury|35.6270158|-87.0452833|05/19/1980|
1276888|Bel-Air Estates|Populated Place|04340|U4|||47|TN|1|125|Montgomery|36.5694925|-87.4000093|05/19/1980|
1276889|Bel-Aire|Populated Place|04280|U4|||47|TN|1|031|Coffee|35.3609123|-86.2372128|05/19/1980|
1276890|Bel-Aire Heights|Populated Place|04320|U4|||47|TN|1|051|Franklin|35.1986939|-86.104707|05/19/1980|
1276896|Belfast|Populated Place|04400|U6|0179|470179117|47|TN|1|117|Marshall|35.4209075|-86.7024979|05/19/1980|
1276910|Bell Buckle|Populated Place|04460|P1|0180|470180003|47|TN|1|003|Bedford|35.5917382|-86.3541598|05/19/1980|03/20/2008
1276948|Bell Town|Populated Place|04760|U6|||47|TN|1|021|Cheatham|36.1128369|-87.1580618|05/19/1980|
1276949|Bella Vista Acres|Populated Place|04430|U6|||47|TN|1|065|Hamilton|35.0242412|-85.1610642|05/19/1980|
1276955|Belle Eagle|Populated Place|04560|U6|||47|TN|1|075|Haywood|35.6853539|-89.2297905|05/19/1980|
1276958|Belle Meade|Populated Place|04630|U6|||47|TN|1|071|Hardin|35.2186923|-88.2264253|05/19/1980|
1276960|Belle-Aire|Populated Place|04500|U6|||47|TN|1|093|Knox|35.8700792|-84.165471|05/19/1980|
1276962|Belleview|Populated Place|04640|U6|||47|TN|1|103|Lincoln|35.0453631|-86.5969399|05/19/1980|
1276973|Bellwood|Populated Place|04840|U6|||47|TN|1|189|Wilson|36.2533861|-86.1472121|05/19/1980|
1276976|Belmont|Populated Place|04890|U6|||47|TN|1|089|Jefferson|36.0103716|-83.3173862|05/19/1980|
1276981|Belmont West|Populated Place|04900|U6|||47|TN|1|093|Knox|35.9359134|-84.1057469|05/19/1980|
1276984|Belvidere|Populated Place|04920|U6|0205|470205051|47|TN|1|051|Franklin|35.1292509|-86.1866532|05/19/1980|
1276986|Bemis|Populated Place|04940|U6|0210|470210113|47|TN|1|113|Madison|35.5761848|-88.8214469|05/19/1980|08/08/2014
1277004|Benhill|Populated Place|04980|U6|||47|TN|1|187|Williamson|35.8714531|-86.726387|05/19/1980|
1277033|Berea|Populated Place|05104|U6|||47|TN|1|055|Giles|35.2584121|-86.968339|05/19/1980|
1277038|Berkshire Wood|Populated Place|05116|U6|||47|TN|1|093|Knox|35.9464692|-84.0863018|05/19/1980|
1277039|Berlin|Populated Place|05120|U6|||47|TN|1|117|Marshall|35.5297942|-86.8244448|05/19/1980|
1277057|Berry Hill|Populated Place|05140|P1|0220|470220037|47|TN|1|037|Davidson|36.1170025|-86.7663876|05/19/1980|03/20/2008
1277071|Bessie|Populated Place|05210|U6|||47|TN|1|095|Lake|36.4881182|-89.4995203|05/19/1980|
1277074|Bethany|Populated Place|05220|U6|||47|TN|1|177|Warren|35.7064596|-85.854151|05/19/1980|
1277094|Bethel|Populated Place|05340|U6|||47|TN|1|055|Giles|35.0017501|-87.053343|05/19/1980|
1277095|Bethel|Populated Place|05370|U6|||47|TN|1|135|Perry|35.5884036|-87.8436372|05/19/1980|
1277096|Bethel|Populated Place|05360|U6|||47|TN|1|119|Maury|35.8014563|-87.1183399|05/19/1980|
1277097|Bethel|Populated Place|05280|U6|||47|TN|1|017|Carroll|36.0356176|-88.4486622|05/19/1980|
1277098|Bethel|Populated Place|05240|U6|||47|TN|1|001|Anderson|36.1711901|-84.0765848|05/19/1980|
1277142|Bethesda|Populated Place|05420|U6|||47|TN|1|187|Williamson|35.7611776|-86.7930549|05/19/1980|
1277150|Bethlehem|Populated Place|05480|U6|||47|TN|1|187|Williamson|36.0008954|-86.8850014|05/19/1980|
1277151|Bethlehem|Populated Place|05440|U6|||47|TN|1|021|Cheatham|36.3019975|-87.0827812|05/19/1980|
1277178|Bethpage|Populated Place|05500|U5|0235|470235165|47|TN|1|165|Sumner|36.4817111|-86.3119346|05/19/1980|01/29/2011
1277202|Beverly|Populated Place|05560|U6|||47|TN|1|093|Knox|36.0317492|-83.901018|05/19/1980|
1277235|Big Boy Junction|Populated Place|05620|U6|||47|TN|1|045|Dyer|36.0361829|-89.4997968|05/19/1980|
1277275|Big Creek|Populated Place|05680|U6|||47|TN|1|067|Hancock|36.4914755|-83.3543457|05/19/1980|
1277355|Big Piney|Populated Place|05800|U6|||47|TN|1|105|Loudon|35.6875764|-84.3332554|05/19/1980|
1277379|Big Sandy|Populated Place|05860|P1|0240|470240005|47|TN|1|005|Benton|36.2347791|-88.0853146|05/19/1980|03/20/2008
1277393|Big Spring|Populated Place|05900|U6|||47|TN|1|019|Carter|36.317052|-82.2426338|05/19/1980|
1277423|Big Springs|Populated Place|05960|U6|||47|TN|1|133|Overton|36.4350635|-85.2660743|05/19/1980|
1277447|Bigbyville|Populated Place|05640|U6|||47|TN|1|119|Maury|35.5206297|-87.0800068|05/19/1980|
1277478|Binfield|Populated Place|06040|U6|||47|TN|1|009|Blount|35.7050811|-84.074353|05/19/1980|
1277479|Bingham|Populated Place|06060|U6|||47|TN|1|187|Williamson|35.930064|-86.9683362|05/19/1980|
1277517|Birdsong Heights|Populated Place|06136|U6|||47|TN|1|005|Benton|35.9792277|-88.049202|05/19/1980|
1277532|Bivens|Populated Place|06175|U6|||47|TN|1|055|Giles|35.3870204|-86.9522266|05/19/1980|
1277555|Black Center|Populated Place|06180|U6|||47|TN|1|005|Benton|36.0708928|-88.0872591|05/19/1980|
1277557|Black Creek|Populated Place|06200|U6|||47|TN|1|151|Scott|36.3809102|-84.6057739|05/19/1980|
1277588|Black Oak|Populated Place|06300|U4|||47|TN|1|093|Knox|36.0186925|-83.9724094|05/19/1980|
1277589|Black Oak|Populated Place|06305|U6|||47|TN|1|151|Scott|36.4900767|-84.6066058|05/19/1980|
1277659|Blaney Forest|Populated Place|06460|U4|||47|TN|1|065|Hamilton|35.0042415|-85.2582892|05/19/1980|
1277677|Bledsoe|Populated Place|06520|U6|||47|TN|1|165|Sumner|36.5155994|-86.2655447|05/19/1980|
1277696|Block|Populated Place|06560|U6|||47|TN|1|013|Campbell|36.3420241|-84.2546521|05/19/1980|
1277697|Block City|Populated Place|06580|U4|||47|TN|1|073|Hawkins|36.5423212|-82.6773794|05/19/1980|
1277699|Blockhouse|Populated Place|06600|U6|||47|TN|1|009|Blount|35.7031395|-83.9365688|05/19/1980|
1277714|Bloomingdale|Populated Place|06640|U5|||47|TN|1|163|Sullivan|36.5845458|-82.489316|05/19/1980|03/20/2008
1277715|Bloomington|Populated Place|06660|U6|||47|TN|1|137|Pickett|36.5803427|-85.1927355|05/19/1980|
1277716|Bloomington Heights|Populated Place|06680|U6|||47|TN|1|163|Sullivan|36.5623231|-82.5426514|05/19/1980|
1277718|Blount Beach|Populated Place|06715|U6|||47|TN|1|009|Blount|35.7834176|-83.8957345|05/19/1980|
1277738|Blowing Springs|Populated Place|06760|U6|||47|TN|1|001|Anderson|36.1350791|-84.1510317|05/19/1980|
1277757|Blue Goose|Populated Place|06820|U6|||47|TN|1|077|Henderson|35.7034019|-88.5767194|05/19/1980|
1277775|Blue Spring|Populated Place|06900|U6|||47|TN|1|019|Carter|36.3578908|-82.1159602|05/19/1980|
1277809|Blue Springs|Populated Place|06925|U6|||47|TN|1|145|Roane|35.742017|-84.6671605|05/19/1980|
1277813|Blue Springs Resort|Populated Place|06930|U6|||47|TN|1|145|Roane|35.7364615|-84.6674383|05/19/1980|
1277869|Bobtown|Populated Place|07060|U6|||47|TN|1|051|Franklin|35.1850818|-85.9158119|05/19/1980|
1277871|Bodenham|Populated Place|07080|U6|||47|TN|1|055|Giles|35.2336911|-87.1558455|05/19/1980|
1277877|Bogota|Populated Place|07120|U6|0255|470255045|47|TN|1|045|Dyer|36.1639584|-89.438407|05/19/1980|
1277879|Bohannon Addition|Populated Place|07140|U4|||47|TN|1|107|McMinn|35.43174|-84.6027125|05/19/1980|
1277900|Boles|Populated Place|07170|U6|||47|TN|1|027|Clay|36.6183917|-85.665529|05/19/1980|
1277900|Boles|Populated Place|07170|U6|||21|KY|2|171|Monroe|36.6183917|-85.665529|05/19/1980|
1277911|Bolton|Populated Place|07200|U6|||47|TN|1|157|Shelby|35.3211971|-89.7606383|05/19/1980|
1277915|Boma|Populated Place|07220|U6|||47|TN|1|141|Putnam|36.1270053|-85.6824811|05/19/1980|
1277925|Bon Aqua Junction|Populated Place|07280|U5|||47|TN|1|081|Hickman|35.9278421|-87.3108443|05/19/1980|01/29/2011
1277951|Bonicord|Populated Place|07320|U6|||47|TN|1|045|Dyer|35.9545169|-89.3217379|05/19/1980|
1277957|Bonnertown|Populated Place|07340|U6|||47|TN|1|099|Lawrence|35.006194|-87.298074|05/19/1980|
1277958|Bonneville Estates|Populated Place|07350|U6|||47|TN|1|093|Knox|35.9956358|-84.0843581|05/19/1980|
1277960|Bonta Vista Estates|Populated Place|07390|U6|||47|TN|1|093|Knox|36.0911921|-83.9365767|05/19/1980|
1277977|Boone|Populated Place|07440|U6|||47|TN|1|179|Washington|36.3781601|-82.4373662|05/19/1980|
1277985|Booneville|Populated Place|07480|U6|||47|TN|1|103|Lincoln|35.2742459|-86.464438|05/19/1980|
1277996|Bordeaux|Populated Place|07540|U4|||47|TN|1|037|Davidson|36.1939448|-86.8313884|05/19/1980|
1277999|Borden Village|Populated Place|07570|U6|||47|TN|1|163|Sullivan|36.5359345|-82.5412619|05/19/1980|
1278083|Bowmantown|Populated Place|07640|U6|||47|TN|1|179|Washington|36.2981598|-82.575705|05/19/1980|
1278094|Boxwood Hills|Populated Place|07660|U6|||47|TN|1|093|Knox|35.9006353|-84.1346366|05/19/1980|
1278133|Boynton Valley|Populated Place|07730|U6|||47|TN|1|031|Coffee|35.5575742|-86.1444347|05/19/1980|
1278138|Brace|Populated Place|07740|U6|||47|TN|1|099|Lawrence|35.372578|-87.3047365|05/19/1980|
1278141|Brackentown|Populated Place|07760|U6|||47|TN|1|165|Sumner|36.5989315|-86.3866585|05/19/1980|
1278142|Bradburn Hill|Populated Place|07780|U6|||47|TN|1|059|Greene|36.1917689|-82.80682|05/19/1980|
1278213|Braemar|Populated Place|07920|U6|||47|TN|1|019|Carter|36.2820574|-82.1548506|05/19/1980|
1278215|Brainerd|Populated Place|07940|U4|||47|TN|1|065|Hamilton|35.0200743|-85.2402334|05/19/1980|
1278217|Brainerd Hills|Populated Place|07980|U4|||47|TN|1|065|Hamilton|35.017019|-85.1985653|05/19/1980|
1278229|Branchville|Populated Place|08060|U6|||47|TN|1|051|Franklin|35.0628637|-86.2938772|05/19/1980|
1278261|Braytown|Populated Place|08200|U6|||47|TN|1|001|Anderson|36.158134|-84.3732649|05/19/1980|
1278281|Brentwood|Populated Place|08270|U6|||47|TN|1|093|Knox|35.9561913|-84.0951913|05/19/1980|
1278282|Brentwood|Populated Place|08280|P1|0272|470272187|47|TN|1|187|Williamson|36.0331164|-86.7827772|05/19/1980|03/20/2008
1278285|Brentwood Station|Populated Place|08310|U6|||47|TN|1|187|Williamson|36.0217279|-86.7924997|05/19/1980|
1278287|Brewer Addition|Populated Place|08320|U4|||47|TN|1|107|McMinn|35.4353511|-84.5982678|05/19/1980|
1278318|Briar Thicket|Populated Place|08360|U6|||47|TN|1|029|Cocke|36.1098191|-83.1284934|05/19/1980|
1278320|Briarwood|Populated Place|08380|U6|||47|TN|1|125|Montgomery|36.5156044|-87.3844535|05/19/1980|
1278321|Briarwood|Populated Place|08370|U6|||47|TN|1|031|Coffee|35.3764675|-86.2130457|05/19/1980|
1278326|Briceville|Populated Place|08400|U6|0275|470275001|47|TN|1|001|Anderson|36.1784122|-84.1852012|05/19/1980|
1278340|Bride|Populated Place|08440|U6|||47|TN|1|167|Tipton|35.6003581|-89.7228579|05/19/1980|
1278390|Brighton|Populated Place|08495|U6|||47|TN|1|103|Lincoln|35.0800851|-86.4391585|05/19/1980|
1278391|Brighton|Populated Place|08500|P1|0280|470280167|47|TN|1|167|Tipton|35.4839713|-89.7250805|05/19/1980|03/20/2008
1278395|Brims Corner|Populated Place|08510|U6|||47|TN|1|033|Crockett|35.8006289|-89.1722897|05/19/1980|
1278430|Broad Acres|Populated Place|08620|U6|||47|TN|1|093|Knox|36.031747|-84.0476908|05/19/1980|
1278434|Broadmoor|Populated Place|08640|U6|||47|TN|1|045|Dyer|36.2056244|-89.4611854|05/19/1980|
1278435|Broadview|Populated Place|08657|U6|||47|TN|1|051|Franklin|35.1859166|-86.1994318|05/19/1980|
1278436|Broadview|Populated Place|08660|U6|||47|TN|1|119|Maury|35.4931305|-87.098063|05/19/1980|
1278437|Broadview|Populated Place|08653|U6|||47|TN|1|033|Crockett|35.8397961|-89.2597918|05/19/1980|
1278460|Brookfield Acres|Populated Place|08710|U6|||47|TN|1|093|Knox|36.0886934|-83.8615738|05/19/1980|
1278462|Brooklin|Populated Place|08715|U6|||47|TN|1|037|Davidson|36.0503385|-86.614718|05/19/1980|
1278495|Brotherton|Populated Place|08760|U6|||47|TN|1|141|Putnam|36.1889512|-85.3791386|05/19/1980|
1278575|Brown Ellis|Populated Place|08850|U6|||47|TN|1|145|Roane|35.8717412|-84.5466016|05/19/1980|
1278615|Brownington|Populated Place|08860|U6|||47|TN|1|051|Franklin|35.2448043|-86.2666566|05/19/1980|
1278632|Browns Shop|Populated Place|08910|U6|||47|TN|1|117|Marshall|35.3211878|-86.7030538|05/19/1980|
1278633|Brownsville|Populated Place|08925|U6|||47|TN|1|083|Houston|36.3600536|-87.7225199|05/19/1980|
1278634|Brownsville|Populated Place|08920|P1|0300|470300075|47|TN|1|075|Haywood|35.5939671|-89.262291|05/19/1980|03/20/2008
1278635|Browntown|Populated Place|08930|U6|||47|TN|1|035|Cumberland|35.9592328|-85.2049661|05/19/1980|
1278669|Brunswick|Populated Place|09020|U6|0311|470311157|47|TN|1|157|Shelby|35.2673093|-89.7686944|05/19/1980|
1278670|Brush Creek|Populated Place|09080|U6|||47|TN|1|187|Williamson|36.0072845|-87.0813942|05/19/1980|
1278731|Bryan Hill|Populated Place|09130|U6|||47|TN|1|143|Rhea|35.4972921|-85.0024531|05/19/1980|
1278757|Bryant Station|Populated Place|09140|U6|||47|TN|1|119|Maury|35.5117396|-86.8894465|05/19/1980|
1278890|Bucktown|Populated Place|09280|U6|||47|TN|1|071|Hardin|35.2700797|-88.1950349|05/19/1980|
1278891|Bucktown|Populated Place|09300|U6|||47|TN|1|105|Loudon|35.7811883|-84.2813089|05/19/1980|
1278899|Buffalo|Populated Place|09330|U6|||47|TN|1|001|Anderson|36.1370226|-84.3874318|05/19/1980|
1278920|Buffalo Valley|Populated Place|09400|U6|0309|470309141|47|TN|1|141|Putnam|36.1414488|-85.7866505|05/19/1980|
1278922|Buffat Heights|Populated Place|09410|U6|||47|TN|1|093|Knox|36.0145275|-83.8790722|05/19/1980|
1278934|Bugscuffle|Populated Place|09440|U6|||47|TN|1|003|Bedford|35.4995185|-86.3152709|05/19/1980|
1278984|Bumpus Mills|Populated Place|09600|U6|0314|470314161|47|TN|1|161|Stewart|36.6047727|-87.8375217|05/19/1980|
1278998|Buncombe|Populated Place|09620|U6|||47|TN|1|163|Sullivan|36.5117697|-82.3170829|05/19/1980|
1279018|Buntontown|Populated Place|09680|U6|||47|TN|1|091|Johnson|36.2917882|-81.9731738|05/19/1980|
1279019|Burbank|Populated Place|09720|U6|||47|TN|1|019|Carter|36.1487296|-82.1017898|05/19/1980|
1279027|Burchfield Heights|Populated Place|09740|U6|||47|TN|1|093|Knox|35.9884125|-84.1824181|05/19/1980|
1279060|Burlington|Populated Place|09820|U4|||47|TN|1|093|Knox|35.990639|-83.8790716|05/19/1980|
1279061|Burlington Heights|Populated Place|09840|U4|||47|TN|1|011|Bradley|35.20424|-84.8610557|05/19/1980|
1279062|Burlison|Populated Place|09860|P1|0316|470316167|47|TN|1|167|Tipton|35.5570255|-89.7789707|05/19/1980|03/20/2008
1279116|Burristown|Populated Place|09920|U6|||47|TN|1|087|Jackson|36.3867269|-85.5419178|05/19/1980|
1279135|Burton Mill|Populated Place|09990|U6|||47|TN|1|105|Loudon|35.6709107|-84.2693629|05/19/1980|
1279138|Burwood|Populated Place|10000|U6|||47|TN|1|187|Williamson|35.8125669|-86.9833367|05/19/1980|
1279148|Bushtown|Populated Place|10040|U4|||47|TN|1|065|Hamilton|35.049518|-85.2674568|05/19/1980|
1279156|Busselltown|Populated Place|10060|U6|||47|TN|1|105|Loudon|35.7753557|-84.2343617|05/19/1980|
1279158|Busy Corner|Populated Place|10075|U6|||47|TN|1|031|Coffee|35.5284082|-86.1583238|05/19/1980|
1279193|Butlers Landing|Locale|10100|U6|||47|TN|1|027|Clay|36.4897827|-85.5616386|05/19/1980|02/14/2007
1279260|Byrdstown|Populated Place|10180|P1|0320|470320137|47|TN|1|137|Pickett|36.5745104|-85.1288435|05/19/1980|03/20/2008
1279274|Cabo|Populated Place|10205|U6|||47|TN|1|023|Chester|35.4306321|-88.4742135|05/19/1980|
1279275|Cactus Cove|Populated Place|10215|U6|||47|TN|1|009|Blount|35.8425803|-84.0971337|05/19/1980|
1279296|Cainsville|Populated Place|10300|U6|||47|TN|1|189|Wilson|35.98534|-86.2488794|05/19/1980|
1279297|Cairo|Populated Place|10340|U6|||47|TN|1|165|Sumner|36.360882|-86.3636029|05/19/1980|
1279325|Calhoun|Populated Place|10440|P1|0327|470327107|47|TN|1|107|McMinn|35.296462|-84.7479962|05/19/1980|03/20/2008
1279329|Calistia|Populated Place|10480|U6|||47|TN|1|147|Robertson|36.5128221|-86.6658289|05/19/1980|
1279340|Calls|Populated Place|10500|U6|||47|TN|1|031|Coffee|35.3461911|-86.0052614|05/19/1980|
1279351|Camargo|Populated Place|10520|U6|||47|TN|1|103|Lincoln|35.0823061|-86.6358299|05/19/1980|
1279362|Camelot|Populated Place|10590|U6|||47|TN|1|093|Knox|35.9967467|-84.1090816|05/19/1980|
1279389|Camp Ground|Populated Place|10770|U6|||47|TN|1|131|Obion|36.3939507|-88.7886689|05/19/1980|
1279405|Camp Ocoee|Populated Place|10802|U6|||47|TN|1|139|Polk|35.0792428|-84.6477127|05/19/1980|
1279407|Camp Placid|Populated Place|10804|U6|||47|TN|1|163|Sullivan|36.5209362|-82.3401399|05/19/1980|
1279471|Campbellsville|Populated Place|10740|U6|||47|TN|1|055|Giles|35.3373002|-87.1305657|05/19/1980|
1279486|Canaan|Populated Place|10810|U6|||47|TN|1|119|Maury|35.5856287|-87.1830645|05/19/1980|
1279488|Canaan Grove|Populated Place|10814|U6|||47|TN|1|167|Tipton|35.443694|-89.5897995|05/19/1980|
1279491|Canby Hills|Populated Place|10818|U6|||47|TN|1|093|Knox|35.9500806|-84.0610229|05/19/1980|
1279577|Caney Hollow|Populated Place|10870|U6|||47|TN|1|071|Hardin|35.0045303|-88.217262|05/19/1980|
1279629|Capleville|Populated Place|10940|U6|0335|470335157|47|TN|1|157|Shelby|35.0206478|-89.8978663|05/19/1980|
1279676|Carlisle|Populated Place|11060|U6|||47|TN|1|161|Stewart|36.4247742|-87.7569651|05/19/1980|
1279700|Carpenter Addition|Populated Place|11110|U6|||47|TN|1|093|Knox|36.0453617|-83.8101815|05/19/1980|
1279730|Carriage Hill|Populated Place|11140|U4|||47|TN|1|065|Hamilton|35.1117397|-85.3480154|05/19/1980|
1279737|Carroll|Populated Place|11160|U6|||47|TN|1|113|Madison|35.7184028|-88.8200586|05/19/1980|
1279767|Carson Springs|Populated Place|11220|U6|||47|TN|1|029|Cocke|35.9273176|-83.2640482|05/19/1980|
1279825|Chartersville|Populated Place|11265|U6|||47|TN|1|119|Maury|35.7211807|-87.2455654|05/19/1980|07/15/2015
1279825|Chartersville|Populated Place|11265|U6|||47|TN|2|081|Hickman|35.7211807|-87.2455654|05/19/1980|07/15/2015
1279826|Cartertown|Populated Place|11275|U6|||47|TN|1|155|Sevier|35.7373147|-83.484885|05/19/1980|
1279827|Carthage|Populated Place|11280|P1|0340|470340159|47|TN|1|159|Smith|36.2522766|-85.951654|05/19/1980|03/20/2008
1279828|Carthage Junction|Populated Place|11300|U6|||47|TN|1|159|Smith|36.1678351|-85.9133199|05/19/1980|
1279837|Caryville|Populated Place|11360|P1|0350|470350013|47|TN|1|013|Campbell|36.2989682|-84.2232612|05/19/1980|03/20/2008
1279848|Cash Point|Populated Place|11400|U6|||47|TN|1|103|Lincoln|35.01814|-86.8052792|05/19/1980|
1279858|Cassville|Populated Place|11420|U6|||47|TN|1|185|White|35.955342|-85.6016462|05/19/1980|
1279861|Castle Heights|Populated Place|11460|U6|||47|TN|1|029|Cocke|35.9537085|-83.1590451|05/19/1980|
1279865|Cat Corner|Populated Place|11480|U6|||47|TN|1|131|Obion|36.2136799|-89.4142399|05/19/1980|
1279880|Cates|Populated Place|11500|U6|||47|TN|1|095|Lake|36.4436747|-89.4775752|05/19/1980|
1279996|Cedar Bluff|Populated Place|11720|U6|||47|TN|1|155|Sevier|35.8545368|-83.4348857|05/19/1980|
1279997|Cedar Bluff|Populated Place|11700|U6|||47|TN|1|093|Knox|35.9264691|-84.0943573|05/19/1980|
1280007|Cedar Chapel|Populated Place|11760|U6|||47|TN|1|069|Hardeman|35.4023033|-89.1672885|05/19/1980|
1280020|Cedar Crest North|Populated Place|11790|U6|||47|TN|1|093|Knox|36.0678583|-83.9832445|05/19/1980|
1280027|Cedar Grove|Populated Place|11870|U6|||47|TN|1|077|Henderson|35.4820184|-88.2678164|05/19/1980|
1280028|Cedar Grove|Populated Place|11930|U6|||47|TN|1|149|Rutherford|35.781177|-86.6194394|05/19/1980|
1280029|Cedar Grove|Populated Place|11970|U6|||47|TN|1|165|Sumner|36.3447714|-86.4430488|05/19/1980|
1280030|Cedar Grove|Populated Place|11920|U6|||47|TN|1|137|Pickett|36.5572894|-85.056062|05/19/1980|
1280031|Cedar Grove|Populated Place|11940|U6|||47|TN|1|163|Sullivan|36.5734344|-82.5245952|05/19/1980|
1280098|Cedar Springs|Populated Place|12050|U6|||47|TN|1|093|Knox|35.9114693|-84.0863012|05/19/1980|
1280109|Celina|Populated Place|12100|P1|0360|470360027|47|TN|1|027|Clay|36.5500611|-85.505247|05/19/1980|03/20/2008
1280119|Center|Populated Place|12160|U6|||47|TN|1|099|Lawrence|35.3539669|-87.4516842|05/19/1980|
1280123|Center Grove|Populated Place|12200|U6|||47|TN|1|051|Franklin|35.299803|-86.2269339|05/19/1980|
1280124|Center Grove|Populated Place|12220|U6|||47|TN|1|087|Jackson|36.2639483|-85.6085889|05/19/1980|
1280127|Center Hill|Populated Place|12240|U6|||47|TN|1|015|Cannon|35.7936796|-85.9622101|05/19/1980|
1280135|Center Point|Populated Place|12280|U6|||47|TN|1|099|Lawrence|35.1053594|-87.3344626|05/19/1980|
1280148|Center Star|Populated Place|12340|U6|||47|TN|1|081|Hickman|35.6984034|-87.3286228|05/19/1980|
1280151|Centersville|Populated Place|12360|U6|||47|TN|1|105|Loudon|35.7145228|-84.2074155|05/19/1980|
1280152|Centersville|Populated Place|12400|U6|||47|TN|1|059|Greene|36.2773255|-82.6729306|05/19/1980|
1280153|Centerview|Populated Place|12390|U6|||47|TN|1|071|Hardin|35.2853569|-88.1736454|05/19/1980|
1280155|Centerville|Populated Place|12420|P1|0370|470370081|47|TN|1|081|Hickman|35.7789565|-87.4669587|05/19/1980|03/20/2008
1280160|Central|Populated Place|12500|U6|||47|TN|1|097|Lauderdale|35.8036874|-89.5372975|05/19/1980|
1280195|Chalet Village|Populated Place|12710|U6|||47|TN|1|155|Sevier|35.7075917|-83.5448872|05/19/1980|
1280200|Chalk Level|Populated Place|12740|U6|||47|TN|1|073|Hawkins|36.3578738|-82.9948851|05/19/1980|
1280205|Chambers|Populated Place|12780|U6|||47|TN|1|109|McNairy|35.0806402|-88.3858762|05/19/1980|
1280230|Chandler|Populated Place|12820|U6|||47|TN|1|009|Blount|35.8381379|-83.9840727|05/19/1980|
1280244|Chantay Acres|Populated Place|12840|U4|||47|TN|1|119|Maury|35.6406266|-87.0219493|05/19/1980|
1280249|Chapel Hill|Populated Place|12900|U6|||47|TN|1|119|Maury|35.6336832|-87.2516771|05/19/1980|
1280267|Chapmans|Populated Place|12940|U6|||47|TN|1|055|Giles|35.1764693|-87.019452|05/19/1980|
1280283|Charlotte Park|Populated Place|13100|U4|||47|TN|1|037|Davidson|36.1497797|-86.8850006|05/19/1980|
1280289|Chaska|Populated Place|13120|U6|||47|TN|1|013|Campbell|36.528969|-84.0774267|05/19/1980|
1280321|Cherokee Hills|Populated Place|14080|U6|||47|TN|1|155|Sevier|35.8625908|-83.5137778|05/19/1980|
1280325|Cherokee Ridge|Populated Place|14105|U6|||47|TN|1|093|Knox|36.0045253|-84.0168553|05/19/1980|
1280327|Cherokee Woods|Populated Place|14110|U6|||47|TN|1|065|Hamilton|35.0731287|-85.2093998|05/19/1980|
1280329|Cherry|Populated Place|14120|U6|||47|TN|1|097|Lauderdale|35.6767456|-89.7084129|05/19/1980|
1280359|Cherrybrook|Populated Place|14140|U6|||47|TN|1|093|Knox|36.0128586|-84.0115776|05/19/1980|
1280369|Chesterfield|Populated Place|14220|U5|||47|TN|1|077|Henderson|35.6345139|-88.2669854|05/19/1980|01/29/2011
1280382|Chestnut Grove|Populated Place|14280|U6|||47|TN|1|135|Perry|35.6300692|-87.8094695|05/19/1980|
1280383|Chestnut Grove|Populated Place|14290|U6|||47|TN|1|147|Robertson|36.4133818|-86.9074994|05/19/1980|
1280393|Chestnut Hill|Populated Place|14350|U6|||47|TN|1|165|Sumner|36.5542097|-86.399992|05/19/1980|
1280398|Chestnut Mound|Populated Place|14360|U6|0402|470402159|47|TN|1|159|Smith|36.202836|-85.8263733|05/19/1980|
1280430|Chewalla|Populated Place|14520|U6|0401|470401109|47|TN|1|109|McNairy|35.0134206|-88.6464396|05/19/1980|
1280437|Chickasaw Heights|Populated Place|14580|U4|||47|TN|1|079|Henry|36.3106131|-88.3055988|05/19/1980|
1280451|Childers Hill|Populated Place|14620|U6|||47|TN|1|071|Hardin|35.0784179|-88.3250414|05/19/1980|
1280463|Chilhowee Hills|Populated Place|14650|U6|||47|TN|1|093|Knox|36.0075838|-83.8501819|05/19/1980|
1280466|Chilhowee View|Populated Place|14680|U6|||47|TN|1|009|Blount|35.7145286|-83.9215683|05/19/1980|
1280511|Choto Hills|Populated Place|14850|U6|||47|TN|1|009|Blount|35.8148019|-84.1354686|05/19/1980|
1280528|Christiana|Populated Place|14860|U6|0404|470404149|47|TN|1|149|Rutherford|35.7100683|-86.399437|05/19/1980|
1280534|Christmasville|Populated Place|14940|U6|||47|TN|1|017|Carroll|36.0933969|-88.6475569|05/19/1980|
1280553|Churchton|Populated Place|15000|U6|||47|TN|1|045|Dyer|36.1192361|-89.1775687|05/19/1980|
1280581|Clairfield|Populated Place|15060|U6|0407|470407025|47|TN|1|025|Claiborne|36.5500803|-83.9502006|05/19/1980|
1280636|Clayton|Populated Place|15280|U6|||47|TN|1|131|Obion|36.4592305|-89.2386801|05/19/1980|
1280686|Clearwater|Populated Place|15360|U6|||47|TN|1|107|McMinn|35.5053508|-84.6507709|05/19/1980|
1280705|Cleveland|Populated Place|15400|P1|0420|470420011|47|TN|1|011|Bradley|35.1595182|-84.8766115|05/19/1980|03/20/2008
1280724|Cliffside|Populated Place|15455|U6|||47|TN|1|163|Sullivan|36.5151017|-82.5209827|05/19/1980|
1280732|Clifton Hills|Populated Place|15520|U4|||47|TN|1|065|Hamilton|35.0092416|-85.2963459|05/19/1980|
1280738|Climer|Populated Place|15550|U6|||47|TN|1|011|Bradley|35.1759075|-84.7579958|05/19/1980|
1280743|Clinch View|Populated Place|15570|U6|||47|TN|1|001|Anderson|36.0861904|-84.1382519|05/19/1980|
1280744|Clinchmore|Populated Place|15560|U6|||47|TN|1|013|Campbell|36.2195234|-84.2821512|05/19/1980|
1280757|Clopton|Populated Place|15600|U6|||47|TN|1|167|Tipton|35.4606383|-89.6714682|05/19/1980|
1280763|Clouds|Populated Place|15640|U6|||47|TN|1|025|Claiborne|36.4592483|-83.6490772|05/19/1980|
1280775|Clover Hill|Populated Place|15760|U6|||47|TN|1|009|Blount|35.704526|-84.0496295|05/19/1980|
1280780|Cloverdale|Populated Place|15720|U6|||47|TN|1|131|Obion|36.2339575|-89.3303492|05/19/1980|
1280784|Cloverhill|Populated Place|15780|U4|||47|TN|1|037|Davidson|36.1564457|-86.6583299|05/19/1980|
1280837|Coble|Populated Place|15960|U6|||47|TN|1|081|Hickman|35.7831222|-87.6325192|05/19/1980|
1280876|Coile|Populated Place|16040|U6|||47|TN|1|107|McMinn|35.4281286|-84.6516039|05/19/1980|
1280890|Cold Spring|Populated Place|16080|U6|||47|TN|1|007|Bledsoe|35.6603458|-85.1457929|05/19/1980|
1280903|Cold Springs|Populated Place|16140|U6|||47|TN|1|073|Hawkins|36.5195402|-82.8487742|05/19/1980|
1280949|Coleman Heights|Populated Place|16180|U4|||47|TN|1|117|Marshall|35.4439627|-86.7830552|05/19/1980|
1280964|College Hill|Populated Place|16350|U6|||47|TN|1|143|Rhea|35.4864587|-85.0218982|05/19/1980|
1280968|Collegedale|Populated Place|16300|P1|0448|470448065|47|TN|1|065|Hamilton|35.0531301|-85.0502277|05/19/1980|03/20/2008
1280984|Colliers Corner|Populated Place|16400|U6|||47|TN|1|089|Jefferson|36.1056467|-83.3998923|05/19/1980|
1280985|Collierville|Populated Place|16420|P1|0450|470450157|47|TN|1|157|Shelby|35.042036|-89.6645266|05/19/1980|03/20/2008
1281013|Collins Mill|Populated Place|16470|U6|||47|TN|1|107|McMinn|35.5814616|-84.6724387|05/19/1980|
1281022|Colonial Heights|Populated Place|16500|U5|||47|TN|1|163|Sullivan|36.4851024|-82.5032035|05/19/1980|03/20/2008
1281023|Colonial Village|Populated Place|16520|U4|||47|TN|1|093|Knox|35.9195282|-83.8826813|05/19/1980|
1281028|Columbia Gardens|Populated Place|16560|U4|||47|TN|1|119|Maury|35.6161829|-87.0769507|05/19/1980|
1281040|Commerce|Populated Place|16620|U6|||47|TN|1|189|Wilson|36.1400567|-86.1033228|05/19/1980|
1281048|Como|Populated Place|16640|U6|0472|470472079|47|TN|1|079|Henry|36.2931156|-88.5122724|05/19/1980|
1281049|Compton|Populated Place|16660|U6|||47|TN|1|149|Rutherford|35.9047867|-86.3288807|05/19/1980|
1281056|Conasauga Heights|Populated Place|16745|U6|||47|TN|1|001|Anderson|36.0317457|-84.1990866|05/19/1980|
1281058|Concord|Populated Place|16820|U6|0473|470473149|47|TN|1|149|Rutherford|35.7414555|-86.5549933|05/19/1980|
1281059|Concord|Populated Place|16800|U6|0473|470473093|47|TN|1|093|Knox|35.8686907|-84.1418586|05/19/1980|
1281060|Concord|Populated Place|16760|U6|||47|TN|1|017|Carroll|35.9292297|-88.365881|05/19/1980|
1281095|Conner Heights|Populated Place|16890|U6|||47|TN|1|155|Sevier|35.7712022|-83.5426655|05/19/1980|
1281129|Cook Mill|Populated Place|16930|U6|||47|TN|1|145|Roane|35.6936849|-84.5352105|05/19/1980|
1281261|Copper Ridge|Populated Place|17005|U6|||47|TN|1|093|Knox|36.132303|-83.9135214|05/19/1980|
1281278|Copperhill|Populated Place|17000|P1|0490|470490139|47|TN|1|139|Polk|34.9889692|-84.3707561|05/19/1980|03/20/2008
1281298|Cordova|Populated Place|17100|U6|0498|470498157|47|TN|1|157|Shelby|35.1556451|-89.7761955|05/19/1980|
1281300|Corinth|Populated Place|17140|U6|||47|TN|1|093|Knox|36.0650823|-83.8846294|05/19/1980|
1281301|Corinth|Populated Place|17160|U6|||47|TN|1|165|Sumner|36.5778204|-86.4255482|05/19/1980|
1281332|Corryton|Populated Place|17260|U6|0504|470504093|47|TN|1|093|Knox|36.1536937|-83.7824062|05/19/1980|
1281344|Coster Yards|Populated Place|17330|U6|||47|TN|1|093|Knox|35.9867489|-83.9435185|05/19/1980|
1281351|Cottage Home|Populated Place|17360|U6|||47|TN|1|189|Wilson|35.9908947|-86.0333223|05/19/1980|
1281362|Cotton Lake|Populated Place|17380|U6|||47|TN|1|167|Tipton|35.5620248|-89.5053526|05/19/1980|
1281368|Cottontown|Populated Place|17420|U5|0513|470513165|47|TN|1|165|Sumner|36.4514343|-86.53805|05/19/1980|01/29/2011
1281376|Coulter Shoals|Populated Place|17490|U6|||47|TN|1|105|Loudon|35.7998011|-84.1829707|05/19/1980|
1281377|Counce|Populated Place|17520|U6|0517|470517071|47|TN|1|071|Hardin|35.0423075|-88.2733741|05/19/1980|
1281393|Courtland|Populated Place|17600|U6|||47|TN|1|147|Robertson|36.4700463|-86.8441647|05/19/1980|
1281420|Cove Lake Estates|Populated Place|17670|U6|||47|TN|1|013|Campbell|36.3006349|-84.2102052|05/19/1980|
1281435|Covington|Populated Place|17680|P1|0520|470520167|47|TN|1|167|Tipton|35.5642474|-89.6464672|05/19/1980|03/20/2008
1281520|Crab Orchard|Populated Place|17840|P1|0533|470533035|47|TN|1|035|Cumberland|35.9092367|-84.8780048|05/19/1980|03/20/2008
1281539|Craggie Hope|Populated Place|17880|U6|||47|TN|1|021|Cheatham|36.0925597|-87.1500062|05/19/1980|
1281568|Cravenstown|Populated Place|17980|U6|||47|TN|1|133|Overton|36.305066|-85.1277378|05/19/1980|
1281572|Crawford|Populated Place|18000|U6|0534|470534133|47|TN|1|133|Overton|36.2692321|-85.1607961|05/19/1980|
1281594|Creek Side|Populated Place|18010|U6|||47|TN|1|119|Maury|35.5945164|-87.0272274|05/19/1980|
1281596|Creekwood|Populated Place|18015|U6|||47|TN|1|003|Bedford|35.4667397|-86.4780496|05/19/1980|
1281597|Crenshaw|Populated Place|18020|U6|||47|TN|1|093|Knox|35.8884162|-83.9376829|05/19/1980|
1281598|Crescent|Populated Place|18040|U6|||47|TN|1|149|Rutherford|35.7506226|-86.44277|05/19/1980|
1281601|Creson|Populated Place|18060|U4|||47|TN|1|103|Lincoln|35.1686929|-86.5513838|05/19/1980|
1281606|Creston|Populated Place|18080|U6|||47|TN|1|035|Cumberland|36.0086782|-85.075238|05/19/1980|
1281608|Crestwood|Populated Place|18120|U6|||47|TN|1|145|Roane|35.8381304|-84.5004884|05/19/1980|
1281609|Crestwood Hills|Populated Place|18140|U6|||47|TN|1|093|Knox|35.9286916|-84.0754677|05/19/1980|
1281616|Crewstown|Populated Place|18160|U6|||47|TN|1|099|Lawrence|35.1800805|-87.4411304|05/19/1980|
1281634|Crockett|Populated Place|18240|U6|||47|TN|1|131|Obion|36.2981215|-89.0428435|05/19/1980|
1281685|Cross|Populated Place|18300|U6|||47|TN|1|163|Sullivan|36.5606589|-82.28986|05/19/1980|
1281703|Cross Lanes|Populated Place|18410|U6|||47|TN|1|111|Macon|36.5222694|-86.1494312|05/19/1980|
1281710|Cross Roads|Populated Place|18450|U6|||47|TN|1|045|Dyer|35.8867403|-89.3317379|05/19/1980|
1281711|Cross Roads|Populated Place|18485|U6|||47|TN|1|111|Macon|36.61338|-86.1530419|05/19/1980|
1281719|Crossroads|Populated Place|18490|U6|||47|TN|1|157|Shelby|35.1278676|-89.6573035|05/19/1980|
1281720|Crossroads|Populated Place|18480|U6|||47|TN|1|099|Lawrence|35.1709144|-87.2680719|05/19/1980|
1281721|Crossroads|Populated Place|18430|U6|||47|TN|1|005|Benton|36.0006162|-88.1475393|05/19/1980|
1281728|Crosstown|Populated Place|18520|U6|||47|TN|1|167|Tipton|35.4456389|-89.7925826|05/19/1980|
1281757|Crowley Store|Populated Place|18580|U6|||47|TN|1|183|Weakley|36.1367304|-88.6928357|05/19/1980|
1281766|Crump|Populated Place|18620|P1|0541|470541071|47|TN|1|071|Hardin|35.2217482|-88.3180946|05/19/1980|03/20/2008
1281769|Crunk|Populated Place|18630|U6|||47|TN|1|147|Robertson|36.423937|-86.8936102|05/19/1980|
1281778|Crystal|Populated Place|18640|U6|||47|TN|1|131|Obion|36.4628412|-89.1756232|05/19/1980|
1281786|Crystal Springs|Populated Place|18660|U6|||47|TN|1|103|Lincoln|35.0742519|-86.4608255|05/19/1980|
1281790|Cub Creek|Populated Place|18740|U6|||47|TN|1|087|Jackson|36.4003366|-85.7158118|05/19/1980|
1281799|Cuba|Populated Place|18700|U6|||47|TN|1|157|Shelby|35.3514743|-89.9873107|05/19/1980|
1281817|Culvahouse|Populated Place|18800|U6|||47|TN|1|121|Meigs|35.6964613|-84.6996619|05/19/1980|
1281827|Cumberland Estates|Populated Place|18840|U4|||47|TN|1|093|Knox|35.98397|-84.012688|05/19/1980|
1281828|Cumberland Furnace|Populated Place|18860|U6|0548|470548043|47|TN|1|043|Dickson|36.2686661|-87.3597314|05/19/1980|
1281829|Cumberland Gap|Populated Place|18880|P1|0550|470550025|47|TN|1|025|Claiborne|36.599527|-83.6685252|05/19/1980|03/20/2008
1281831|Cumberland Heights|Populated Place|18920|U6|0551|470551061|47|TN|1|061|Grundy|35.4056297|-85.6966414|05/19/1980|
1281832|Cumberland Heights|Populated Place|18900|U4|||47|TN|1|037|Davidson|36.1964446|-86.7802764|05/19/1980|
1281833|Cumberland Heights|Populated Place|18940|U6|||47|TN|1|125|Montgomery|36.4908826|-87.399454|05/19/1980|
1281836|Cumberland Homesteads|Populated Place|18950|U6|||47|TN|1|035|Cumberland|35.9084023|-84.9452303|05/19/1980|
1281845|Cumberland View Estates|Populated Place|18985|U6|||47|TN|1|001|Anderson|36.2320231|-84.1424229|05/19/1980|
1281854|Cummings Crossroads|Populated Place|18995|U6|||47|TN|1|165|Sumner|36.4783779|-86.5761059|05/19/1980|
1281885|Curlee|Populated Place|19040|U6|||47|TN|1|015|Cannon|35.7775686|-86.1594358|05/19/1980|
1281905|Curve|Populated Place|19080|U6|||47|TN|1|097|Lauderdale|35.8047981|-89.4567402|05/19/1980|
1281906|Cusick|Populated Place|19100|U6|||47|TN|1|105|Loudon|35.8511894|-84.2215845|05/19/1980|
1281943|Cypress Inn|Populated Place|19180|U6|0557|470557181|47|TN|1|181|Wayne|35.0120284|-87.8166954|05/19/1980|
1281963|Daisy|Populated Place|19220|U4|||47|TN|1|065|Hamilton|35.2478468|-85.186346|05/19/1980|
1281965|Dale Acres|Populated Place|19240|U6|||47|TN|1|065|Hamilton|35.1236826|-85.2457906|05/19/1980|
1281974|Dalewood|Populated Place|19280|U4|||47|TN|1|037|Davidson|36.2056108|-86.7158308|05/19/1980|
1281979|Dallas Crest|Populated Place|19290|U6|||47|TN|1|065|Hamilton|35.0920172|-85.2930137|05/19/1980|
1281980|Dallas Gardens|Populated Place|19300|U6|||47|TN|1|065|Hamilton|35.2097925|-85.162178|05/19/1980|
1281981|Dallas Heights|Populated Place|19320|U4|||47|TN|1|065|Hamilton|35.0861841|-85.2960692|05/19/1980|
1281982|Dallas Hills|Populated Place|19340|U6|||47|TN|1|065|Hamilton|35.2081261|-85.1482886|05/19/1980|
1282015|Dancyville|Populated Place|19360|U6|||47|TN|1|075|Haywood|35.4078599|-89.2939584|05/19/1980|
1282016|Dandridge|Populated Place|19380|P1|0580|470580089|47|TN|1|089|Jefferson|36.0153693|-83.4148895|05/19/1980|03/20/2008
1282036|Dante|Populated Place|19460|U6|||47|TN|1|093|Knox|36.0267476|-83.992966|05/19/1980|
1282038|Darden|Populated Place|19500|U5|0585|470585077|47|TN|1|077|Henderson|35.6381249|-88.2169835|05/19/1980|01/29/2011
1282092|Davidson|Populated Place|19560|U6|0588|470588049|47|TN|1|049|Fentress|36.2775665|-85.1049597|05/19/1980|
1282226|Daysville|Populated Place|19680|U6|||47|TN|1|035|Cumberland|35.8947939|-84.7699437|05/19/1980|
1282239|DePriest Bend|Populated Place|20420|U6|||47|TN|1|135|Perry|35.7381221|-87.8108582|05/19/1980|
1282245|DeRusk|Populated Place|20450|U6|||47|TN|1|059|Greene|36.1153794|-82.8693183|05/19/1980|
1282262|Dean|Populated Place|19760|U6|||47|TN|1|151|Scott|36.3448015|-84.3538225|05/19/1980|
1282267|Deane Hill|Populated Place|19800|U4|||47|TN|1|093|Knox|35.9292479|-84.0193538|05/19/1980|
1282269|Deason|Populated Place|19860|U6|||47|TN|1|003|Bedford|35.6034035|-86.4366599|05/19/1980|
1282274|Decatur Hills|Populated Place|19890|U6|||47|TN|1|121|Meigs|35.5314605|-84.8002227|05/19/1980|
1282275|Decaturville|Populated Place|19900|P1|0610|470610039|47|TN|1|039|Decatur|35.5842372|-88.119479|05/19/1980|03/20/2008
1282276|Decherd|Populated Place|19920|P1|0620|470620051|47|TN|1|051|Franklin|35.2098048|-86.0794285|05/19/1980|03/20/2008
1282314|Delina|Populated Place|20100|U6|||47|TN|1|117|Marshall|35.2678558|-86.73611|05/19/1980|
1282323|Dellwood|Populated Place|20140|U6|||47|TN|1|009|Blount|35.7714729|-83.9143461|05/19/1980|
1282331|Demory|Populated Place|20220|U6|||47|TN|1|013|Campbell|36.3364676|-84.0660329|05/19/1980|
1282335|Denmark|Populated Place|20260|U6|0630|470630113|47|TN|1|113|Madison|35.5328545|-89.003952|05/19/1980|
1282419|Diana|Populated Place|20540|U6|0638|470638055|47|TN|1|055|Giles|35.2839668|-86.8555578|05/19/1980|
1282420|Dibrell|Populated Place|20560|U6|||47|TN|1|177|Warren|35.8120122|-85.791928|05/19/1980|
1282462|Dickson Town|Populated Place|20630|U6|||47|TN|1|055|Giles|35.0464722|-86.8788925|05/19/1980|
1282482|Dillton|Populated Place|20700|U6|||47|TN|1|149|Rutherford|35.8006226|-86.3230481|05/19/1980|
1282496|Disney|Populated Place|20760|U6|||47|TN|1|013|Campbell|36.2486899|-84.1713136|05/19/1980|
1282515|Dixie Lee Junction|Populated Place|20800|U6|||47|TN|1|105|Loudon|35.8606339|-84.2257515|05/19/1980|
1282527|Dixonville|Populated Place|20840|U6|||47|TN|1|167|Tipton|35.4231394|-89.9459204|05/19/1980|
1282545|Dockery|Populated Place|20880|U6|||47|TN|1|011|Bradley|35.1172965|-84.889945|05/19/1980|
1282558|Dodson|Populated Place|20910|U6|||47|TN|1|145|Roane|35.8764626|-84.6166043|05/19/1980|
1282601|Dogtown|Populated Place|21020|U6|||47|TN|1|019|Carter|36.3326122|-82.1448504|05/19/1980|
1282647|Doran Addition|Populated Place|21150|U6|||47|TN|1|163|Sullivan|36.5870449|-82.5498744|05/19/1980|
1282667|Dossett|Populated Place|21180|U6|||47|TN|1|001|Anderson|36.0625788|-84.2246441|05/19/1980|
1282677|Dotsonville|Populated Place|21280|U6|||47|TN|1|125|Montgomery|36.48255|-87.4864005|05/19/1980|
1282689|Double Bridges|Populated Place|21300|U6|||47|TN|1|097|Lauderdale|35.905074|-89.4536847|05/19/1980|
1282701|Double Springs|Populated Place|21320|U6|||47|TN|1|141|Putnam|36.1711718|-85.5974783|05/19/1980|
1282710|Double Top|Populated Place|21350|U6|||47|TN|1|049|Fentress|36.4861783|-85.0566175|05/19/1980|
1282735|Douglas Estates|Populated Place|21380|U6|||47|TN|1|089|Jefferson|35.9989818|-83.3609983|05/19/1980|
1282753|Dover|Populated Place|21400|P1|0655|470655161|47|TN|1|161|Stewart|36.4878291|-87.8383567|05/19/1980|03/20/2008
1282762|Dowler Heights|Populated Place|21440|U6|||47|TN|1|065|Hamilton|35.1814602|-85.3405162|05/19/1980|
1282764|Doyle|Populated Place|21500|P1|0667|470667185|47|TN|1|185|White|35.8531216|-85.5124767|05/19/1980|03/20/2008
1282777|Drake Forest|Populated Place|21515|U6|||47|TN|1|065|Hamilton|35.0322966|-85.1413415|05/19/1980|
1282785|Drapers Crossroads|Populated Place|21520|U6|||47|TN|1|111|Macon|36.5119987|-85.9088705|05/19/1980|
1282790|Dresden|Populated Place|21540|P1|0670|470670183|47|TN|1|183|Weakley|36.2914512|-88.7081122|05/19/1980|03/20/2008
1282816|Drummonds|Populated Place|21600|U6|0672|470672167|47|TN|1|167|Tipton|35.4634163|-89.9100859|05/19/1980|
1283051|Ducktown|Populated Place|21740|P1|0680|470680139|47|TN|1|139|Polk|35.0359126|-84.3827013|05/19/1980|03/20/2008
1283070|Dudney Hill|Populated Place|21800|U6|||47|TN|1|087|Jackson|36.3322817|-85.628866|05/19/1980|
1283073|Duff|Populated Place|21840|U6|0685|470685013|47|TN|1|013|Campbell|36.4467459|-84.0674244|05/19/1980|
1283116|Dukedom|Populated Place|21860|U6|0687|470687183|47|TN|1|183|Weakley|36.5022819|-88.715054|05/19/1980|06/17/2011
1283116|Dukedom|Populated Place|21860|U6|0687|210687083|21|KY|2|083|Graves|36.5022819|-88.715054|05/19/1980|06/17/2011
1283121|Dulaney|Populated Place|21880|U6|||47|TN|1|059|Greene|36.1337118|-82.9148759|05/19/1980|
1283125|Dull|Populated Place|21900|U6|||47|TN|1|043|Dickson|36.2056121|-87.2852858|05/19/1980|
1283128|Dumplin|Populated Place|21920|U6|||47|TN|1|089|Jefferson|36.0053665|-83.5582271|05/19/1980|
1283162|Duncan Hills|Populated Place|21980|U4|||47|TN|1|065|Hamilton|35.0895176|-85.3205144|05/19/1980|
1283176|Duncanville|Populated Place|21990|U6|||47|TN|1|117|Marshall|35.4517407|-86.84139|05/19/1980|
1283187|Dunlap|Populated Place|22000|P1|0690|470690153|47|TN|1|153|Sequatchie|35.3714575|-85.3905209|05/19/1980|03/20/2008
1283234|Durhamville|Populated Place|22100|U6|||47|TN|1|097|Lauderdale|35.6681342|-89.4931299|05/19/1980|
1283253|Dyer|Populated Place|22180|P1|0700|470700053|47|TN|1|053|Gibson|36.0667348|-88.9939549|05/19/1980|03/20/2008
1283267|Dyersburg|Populated Place|22200|P1|0710|470710045|47|TN|1|045|Dyer|36.0345159|-89.3856281|05/19/1980|03/20/2008
1283276|Eads|Populated Place|22260|U6|0717|470717157|47|TN|1|157|Shelby|35.2045325|-89.6492471|05/19/1980|
1283282|Eagan|Populated Place|22280|U6|0718|470718025|47|TN|1|025|Claiborne|36.5520248|-83.9768682|05/19/1980|
1283292|Eagle Furnace|Populated Place|22320|U6|||47|TN|1|145|Roane|35.7711832|-84.7363301|05/19/1980|
1283299|Eagle Point|Populated Place|22330|U6|||47|TN|1|145|Roane|35.763683|-84.7535529|05/19/1980|
1283300|Eagleton Village|Populated Place|22340|U5|0720|470720009|47|TN|1|009|Blount|35.7950835|-83.9318473|05/19/1980|03/20/2008
1283301|Eagleville|Populated Place|22360|P1|0730|470730149|47|TN|1|149|Rutherford|35.7417333|-86.6497179|05/19/1980|03/20/2008
1283322|East Brainerd|Populated Place|22440|U5|||47|TN|1|065|Hamilton|34.9959085|-85.1502302|05/19/1980|03/20/2008
1283323|East Chattanooga|Populated Place|22480|U4|||47|TN|1|065|Hamilton|35.0653508|-85.2491233|05/19/1980|
1283324|East Cleveland|Populated Place|22500|U5|0740|470740011|47|TN|1|011|Bradley|35.1609072|-84.8577219|05/19/1980|03/20/2008
1283378|East Hill|Populated Place|22590|U6|||47|TN|1|115|Marion|35.0647993|-85.5752437|05/19/1980|
1283379|East Jamestown|Populated Place|22600|U6|||47|TN|1|049|Fentress|36.4647934|-84.8732779|05/19/1980|
1283382|East Lake|Populated Place|22640|U4|||47|TN|1|065|Hamilton|35.0053527|-85.2791232|05/19/1980|
1283400|East Ridge|Populated Place|22720|P1|0750|470750065|47|TN|1|065|Hamilton|35.0142412|-85.2519003|05/19/1980|03/20/2008
1283402|East Side|Populated Place|22760|U4|||47|TN|1|019|Carter|36.3384427|-82.1987425|05/19/1980|
1283406|East Springbrook|Populated Place|22840|U4|||47|TN|1|009|Blount|35.7975827|-83.974627|05/19/1980|
1283408|East Sweetwater|Populated Place|22860|U6|||47|TN|1|123|Monroe|35.6072976|-84.4138148|05/19/1980|
1283412|East Union|Populated Place|22880|U6|||47|TN|1|113|Madison|35.6050723|-88.767001|05/19/1980|
1283413|East View|Populated Place|22890|U6|||47|TN|1|011|Bradley|35.1214632|-84.8782779|05/19/1980|
1283417|Eastbrook|Populated Place|22460|U6|||47|TN|1|051|Franklin|35.2348046|-86.1588755|05/19/1980|
1283419|Eastdale|Populated Place|22515|U6|||47|TN|1|065|Hamilton|35.0422959|-85.2388448|05/19/1980|
1283430|Eastport|Populated Place|22710|U6|||47|TN|1|029|Cocke|35.9592638|-83.1734902|05/19/1980|
1283436|Eastview|Populated Place|22920|P1|0752|470752109|47|TN|1|109|McNairy|35.0756408|-88.545325|05/19/1980|03/20/2008
1283437|Eastview|Populated Place|22900|U4|||47|TN|1|059|Greene|36.1664912|-82.8062634|05/19/1980|
1283439|Eastwood|Populated Place|22960|U4|||47|TN|1|149|Rutherford|36.0064516|-86.5666613|05/19/1980|
1283440|Eastwood|Populated Place|22950|U6|||47|TN|1|093|Knox|36.0278624|-83.7846243|05/19/1980|
1283442|Eaton|Populated Place|22980|U6|0754|470754053|47|TN|1|053|Gibson|35.9689595|-89.1320125|05/19/1980|
1283446|Eaton Crossroads|Populated Place|23000|U6|||47|TN|1|105|Loudon|35.8364662|-84.2940881|05/19/1980|
1283447|Eaton Forest|Populated Place|23020|U6|||47|TN|1|105|Loudon|35.8347992|-84.318256|05/19/1980|
1283457|Ebenezer|Populated Place|23060|U6|||47|TN|1|115|Marion|35.0725771|-85.5799661|05/19/1980|
1283494|Echo Valley|Populated Place|23068|U6|||47|TN|1|093|Knox|35.9050807|-84.0632444|05/19/1980|
1283505|Eden of the Lake|Populated Place|23076|U6|||47|TN|1|143|Rhea|35.7292388|-84.7271629|05/19/1980|
1283509|Eden Corner|Populated Place|23072|U6|||47|TN|1|147|Robertson|36.5175448|-86.7461075|05/19/1980|
1283517|Edgemont|Populated Place|23140|U6|||47|TN|1|029|Cocke|35.9648176|-83.2554382|05/19/1980|
1283520|Edgewater|Populated Place|23190|U6|||47|TN|1|143|Rhea|35.4886811|-84.9993974|05/19/1980|
1283521|Edgewood|Populated Place|23195|U6|||47|TN|1|043|Dickson|36.1817246|-87.5308478|05/19/1980|
1283522|Edgewood Acres|Populated Place|23240|U6|||47|TN|1|009|Blount|35.8084167|-83.9362923|05/19/1980|
1283526|Edgewood Heights|Populated Place|23260|U6|||47|TN|1|001|Anderson|36.0400795|-84.1374173|05/19/1980|
1283527|Edgewood Hills|Populated Place|23270|U6|||47|TN|1|143|Rhea|35.7045148|-84.875503|05/19/1980|
1283531|Edith|Populated Place|23280|U6|||47|TN|1|097|Lauderdale|35.8484088|-89.5331309|05/19/1980|
1283567|Edwina|Populated Place|23320|U6|||47|TN|1|029|Cocke|35.9114862|-83.1723775|05/19/1980|
1283569|Egan|Populated Place|23335|U6|||47|TN|1|189|Wilson|36.2219981|-86.3458254|05/19/1980|
1283571|Egypt|Populated Place|23340|U4|||47|TN|1|157|Shelby|35.2428656|-89.9253652|05/19/1980|
1283572|Egypt|Populated Place|23350|U6|||47|TN|1|167|Tipton|35.4911934|-89.783971|05/19/1980|
1283593|Elba|Populated Place|23380|U6|||47|TN|1|047|Fayette|35.1109231|-89.5745234|05/19/1980|
1283594|Elbethel|Populated Place|23400|U6|||47|TN|1|003|Bedford|35.5184046|-86.5066609|05/19/1980|
1283596|Elbridge|Populated Place|23420|U6|0756|470756131|47|TN|1|131|Obion|36.2603459|-89.3220156|05/19/1980|
1283622|Elgin|Populated Place|23440|U5|0757|470757151|47|TN|1|151|Scott|36.3322992|-84.6063302|05/19/1980|01/29/2011
1283639|Elk Mill Village|Populated Place|23600|U4|||47|TN|1|103|Lincoln|35.1623041|-86.5666619|05/19/1980|
1283645|Elk Valley|Populated Place|23680|U6|0772|470772013|47|TN|1|013|Campbell|36.4836916|-84.245765|05/19/1980|
1283649|Elkins|Populated Place|23550|U6|||47|TN|1|051|Franklin|35.2600819|-86.1324861|05/19/1980|
1283655|Elkmont|Populated Place|23620|U6|||47|TN|1|155|Sevier|35.6537027|-83.580444|05/19/1980|
1283658|Elkmont Springs|Populated Place|23640|U6|||47|TN|1|055|Giles|35.0050844|-86.8669478|05/19/1980|
1283659|Elkton|Populated Place|23660|P1|0770|470770055|47|TN|1|055|Giles|35.0523054|-86.888615|05/19/1980|03/20/2008
1283661|Ellendale|Populated Place|23700|U6|0773|470773157|47|TN|1|157|Shelby|35.2306436|-89.8259183|05/19/1980|
1283724|Elmwood|Populated Place|23780|U6|0788|470788159|47|TN|1|159|Smith|36.2258899|-85.8847079|05/19/1980|
1283729|Elora|Populated Place|23800|U6|0777|470777103|47|TN|1|103|Lincoln|35.0134203|-86.3558226|05/19/1980|
1283737|Elysian Grove|Populated Place|23850|U6|||47|TN|1|085|Humphreys|36.0264498|-87.8589166|05/19/1980|
1283738|Elza|Populated Place|23860|U6|||47|TN|1|001|Anderson|36.052579|-84.2029763|05/19/1980|
1283765|Emory Gap|Populated Place|23980|U4|||47|TN|1|145|Roane|35.9167412|-84.5749364|05/19/1980|07/28/2011
1283769|Emory Heights|Populated Place|24020|U4|||47|TN|1|145|Roane|35.9309085|-84.527157|05/19/1980|
1283770|Emory Heights|Populated Place|24000|U4|||47|TN|1|001|Anderson|36.0231344|-84.2221429|05/19/1980|
1283772|Emory Valley|Populated Place|24030|U6|||47|TN|1|001|Anderson|36.0270233|-84.2121426|05/19/1980|
1283789|Englewood|Populated Place|24040|P1|0790|470790107|47|TN|1|107|McMinn|35.4245184|-84.4874289|05/19/1980|03/20/2008
1283819|Ensor|Populated Place|24180|U6|||47|TN|1|141|Putnam|36.1678383|-85.6577579|05/19/1980|
1283822|Enterprise|Populated Place|24220|U6|||47|TN|1|119|Maury|35.4717426|-87.1794541|05/19/1980|
1283824|Enville|Populated Place|24240|P1|0797|470797023|47|TN|1|023|Chester|35.3847997|-88.4275441|05/19/1980|03/20/2008
1283837|Erie|Populated Place|24300|U6|0798|470798105|47|TN|1|105|Loudon|35.6475735|-84.5746564|05/19/1980|
1283839|Erin|Populated Place|24320|P1|0800|470800083|47|TN|1|083|Houston|36.3183879|-87.6947414|05/19/1980|03/20/2008
1283854|Essary Springs|Populated Place|24400|U6|||47|TN|1|069|Hardeman|35.0120328|-88.798111|05/19/1980|
1283868|Estill Springs|Populated Place|24440|P1|0820|470820051|47|TN|1|051|Franklin|35.2706372|-86.1280417|05/19/1980|03/20/2008
1283870|Ethridge|Populated Place|24460|P1|0826|470826099|47|TN|1|099|Lawrence|35.32369|-87.3036262|05/19/1980|03/20/2008
1283873|Etter|Populated Place|24500|U6|||47|TN|1|137|Pickett|36.5614554|-85.0980086|05/19/1980|
1283880|Eulia|Populated Place|24540|U6|||47|TN|1|111|Macon|36.5244908|-86.172765|05/19/1980|
1283881|Eureka|Populated Place|24560|U6|||47|TN|1|011|Bradley|35.2717392|-84.8593895|05/19/1980|
1283882|Eureka|Populated Place|24600|U6|||47|TN|1|145|Roane|35.841184|-84.6704949|05/19/1980|
1283888|Eva|Populated Place|24640|U5|0831|470831005|47|TN|1|005|Benton|36.0645039|-88.0042004|05/19/1980|01/29/2011
1283915|Evanston|Populated Place|24660|U6|||47|TN|1|067|Hancock|36.5075874|-83.2871216|05/19/1980|
1283916|Evansville|Populated Place|24680|U6|||47|TN|1|045|Dyer|36.0342383|-89.4217399|05/19/1980|
1283918|Evensville|Populated Place|24700|U6|0832|470832143|47|TN|1|143|Rhea|35.5645145|-84.9546733|05/19/1980|
1283946|Ewingville|Populated Place|24760|U6|||47|TN|1|187|Williamson|35.9217304|-86.8577787|05/19/1980|
1283968|Fair Acres|Populated Place|24840|U4|||47|TN|1|163|Sullivan|36.5462123|-82.5329284|05/19/1980|
1283969|Fair Garden|Populated Place|24990|U3|||47|TN|1|155|Sevier|35.9023146|-83.4129417|05/19/1980|01/13/2011
1283972|Fair Oaks|Populated Place|25095|U6|||47|TN|1|093|Knox|35.9711919|-84.0354666|05/19/1980|
1283974|Fairfax Heights|Populated Place|24880|U4|||47|TN|1|065|Hamilton|35.1095164|-85.2641243|05/19/1980|
1283975|Fairfield|Populated Place|24900|U6|||47|TN|1|003|Bedford|35.5667396|-86.2852708|05/19/1980|
1283976|Fairfield|Populated Place|24940|U6|||47|TN|1|081|Hickman|35.8347886|-87.4327916|05/19/1980|
